{"type":"FeatureCollection","features":[{"type":"Feature","properties":{"nome":"Centro","osm_id":11013972124,"osm_tipo":"node","tipo_lugar":"suburb"},"geometry":{"type":"Point","coordinates":[-49.8502841,-6.5322152]}},{"type":"Feature","properties":{"nome":"Bela Vista","osm_id":11013972125,"osm_tipo":"node","tipo_lugar":"suburb"},"geometry":{"type":"Point","coordinates":[-49.835379,-6.5179757]}},{"type":"Feature","properties":{"nome":"Vale dos Carajás","osm_id":11013972126,"osm_tipo":"node","tipo_lugar":"suburb"},"geometry":{"type":"Point","coordinates":[-49.8423398,-6.5169622]}},{"type":"Feature","properties":{"nome":"Alto Bonito II","osm_id":11013972127,"osm_tipo":"node","tipo_lugar":"suburb"},"geometry":{"type":"Point","coordinates":[-49.8490083,-6.5223674]}},{"type":"Feature","properties":{"nome":"Novo Brasil","osm_id":11014106312,"osm_tipo":"node","tipo_lugar":"suburb"},"geometry":{"type":"Point","coordinates":[-49.8638952,-6.5174363]}},{"type":"Feature","properties":{"nome":"Cidade Nova","osm_id":11014106313,"osm_tipo":"node","tipo_lugar":"suburb"},"geometry":{"type":"Point","coordinates":[-49.8707612,-6.5136808]}}]}