{"type":"FeatureCollection","features":[{"type":"Feature","properties":{"nome":"Decouville","osm_id":12644173453,"osm_tipo":"node","tipo_lugar":"suburb"},"geometry":{"type":"Point","coordinates":[-48.3321038,-1.3734354]}},{"type":"Feature","properties":{"nome":"Almir Gabriel","osm_id":12644213441,"osm_tipo":"node","tipo_lugar":"suburb"},"geometry":{"type":"Point","coordinates":[-48.3088819,-1.3709693]}},{"type":"Feature","properties":{"nome":"Centro","osm_id":12644214796,"osm_tipo":"node","tipo_lugar":"suburb"},"geometry":{"type":"Point","coordinates":[-48.3448551,-1.3670703]}},{"type":"Feature","properties":{"nome":"Dom Aristides","osm_id":12644231194,"osm_tipo":"node","tipo_lugar":"suburb"},"geometry":{"type":"Point","coordinates":[-48.3447577,-1.3547198]}},{"type":"Feature","properties":{"nome":"Bela Vista","osm_id":12644238528,"osm_tipo":"node","tipo_lugar":"suburb"},"geometry":{"type":"Point","coordinates":[-48.3142318,-1.348444]}},{"type":"Feature","properties":{"nome":"Santa Lúcia","osm_id":12644245800,"osm_tipo":"node","tipo_lugar":"suburb"},"geometry":{"type":"Point","coordinates":[-48.333673,-1.3893006]}},{"type":"Feature","properties":{"nome":"Novo Horizonte","osm_id":12644245844,"osm_tipo":"node","tipo_lugar":"suburb"},"geometry":{"type":"Point","coordinates":[-48.3271768,-1.358704]}},{"type":"Feature","properties":{"nome":"Miritizal","osm_id":12644253028,"osm_tipo":"node","tipo_lugar":"suburb"},"geometry":{"type":"Point","coordinates":[-48.3380777,-1.3734445]}},{"type":"Feature","properties":{"nome":"Boa Vista","osm_id":12644253848,"osm_tipo":"node","tipo_lugar":"suburb"},"geometry":{"type":"Point","coordinates":[-48.3429004,-1.3744868]}},{"type":"Feature","properties":{"nome":"São Francisco","osm_id":12644253850,"osm_tipo":"node","tipo_lugar":"suburb"},"geometry":{"type":"Point","coordinates":[-48.3367025,-1.3456557]}},{"type":"Feature","properties":{"nome":"Bairro Novo","osm_id":12644272301,"osm_tipo":"node","tipo_lugar":"suburb"},"geometry":{"type":"Point","coordinates":[-48.3384791,-1.3613757]}},{"type":"Feature","properties":{"nome":"Nova Marituba","osm_id":12644284187,"osm_tipo":"node","tipo_lugar":"suburb"},"geometry":{"type":"Point","coordinates":[-48.3169392,-1.3835798]}},{"type":"Feature","properties":{"nome":"Uriboca","osm_id":12644292620,"osm_tipo":"node","tipo_lugar":"suburb"},"geometry":{"type":"Point","coordinates":[-48.348914,-1.3742043]}},{"type":"Feature","properties":{"nome":"Santa Clara","osm_id":12644293800,"osm_tipo":"node","tipo_lugar":"suburb"},"geometry":{"type":"Point","coordinates":[-48.3254505,-1.3925098]}},{"type":"Feature","properties":{"nome":"Riacho Doce","osm_id":12644305354,"osm_tipo":"node","tipo_lugar":"suburb"},"geometry":{"type":"Point","coordinates":[-48.2897794,-1.374313]}},{"type":"Feature","properties":{"nome":"São João","osm_id":12644309416,"osm_tipo":"node","tipo_lugar":"suburb"},"geometry":{"type":"Point","coordinates":[-48.3629674,-1.3716346]}},{"type":"Feature","properties":{"nome":"São José","osm_id":12644311106,"osm_tipo":"node","tipo_lugar":"suburb"},"geometry":{"type":"Point","coordinates":[-48.349774,-1.3581466]}},{"type":"Feature","properties":{"nome":"União","osm_id":12644311107,"osm_tipo":"node","tipo_lugar":"suburb"},"geometry":{"type":"Point","coordinates":[-48.3381177,-1.351588]}}]}