{"type":"FeatureCollection","features":[{"type":"Feature","properties":{"nome":"Amazônia","osm_id":2116800693,"osm_tipo":"node","tipo_lugar":"suburb"},"geometry":{"type":"Point","coordinates":[-49.864554,-6.1021602]}},{"type":"Feature","properties":{"nome":"Beira Rio","osm_id":2116800695,"osm_tipo":"node","tipo_lugar":"suburb"},"geometry":{"type":"Point","coordinates":[-49.8850357,-6.0760828]}},{"type":"Feature","properties":{"nome":"Caetanópolis","osm_id":2116800696,"osm_tipo":"node","tipo_lugar":"suburb"},"geometry":{"type":"Point","coordinates":[-49.8883589,-6.0956239]}},{"type":"Feature","properties":{"nome":"Cidade Jardim III","osm_id":2116800697,"osm_tipo":"node","tipo_lugar":"suburb"},"geometry":{"type":"Point","coordinates":[-49.8551597,-6.0721988]}},{"type":"Feature","properties":{"nome":"Cidade Jardim II","osm_id":2116800698,"osm_tipo":"node","tipo_lugar":"suburb"},"geometry":{"type":"Point","coordinates":[-49.8624478,-6.0744735]}},{"type":"Feature","properties":{"nome":"Cidade Nova","osm_id":2116800699,"osm_tipo":"node","tipo_lugar":"suburb"},"geometry":{"type":"Point","coordinates":[-49.906377,-6.0657382]}},{"type":"Feature","properties":{"nome":"Da Paz","osm_id":2116800700,"osm_tipo":"node","tipo_lugar":"suburb"},"geometry":{"type":"Point","coordinates":[-49.8858107,-6.0846264]}},{"type":"Feature","properties":{"nome":"Guanabara","osm_id":2116800701,"osm_tipo":"node","tipo_lugar":"suburb"},"geometry":{"type":"Point","coordinates":[-49.8865183,-6.0906949]}},{"type":"Feature","properties":{"nome":"Liberdade II","osm_id":2116800702,"osm_tipo":"node","tipo_lugar":"suburb"},"geometry":{"type":"Point","coordinates":[-49.9126334,-6.0841996]}},{"type":"Feature","properties":{"nome":"Liberdade","osm_id":2116800703,"osm_tipo":"node","tipo_lugar":"suburb"},"geometry":{"type":"Point","coordinates":[-49.9103548,-6.0812363]}},{"type":"Feature","properties":{"nome":"Residencial Parque dos Carajás","osm_id":2116800704,"osm_tipo":"node","tipo_lugar":"suburb"},"geometry":{"type":"Point","coordinates":[-49.8695561,-6.0769831]}},{"type":"Feature","properties":{"nome":"Primavera","osm_id":2116800705,"osm_tipo":"node","tipo_lugar":"suburb"},"geometry":{"type":"Point","coordinates":[-49.9102183,-6.0617349]}},{"type":"Feature","properties":{"nome":"Rio Verde","osm_id":2116800706,"osm_tipo":"node","tipo_lugar":"suburb"},"geometry":{"type":"Point","coordinates":[-49.8943249,-6.0771782]}},{"type":"Feature","properties":{"nome":"União","osm_id":2116800707,"osm_tipo":"node","tipo_lugar":"suburb"},"geometry":{"type":"Point","coordinates":[-49.906486,-6.0700375]}},{"type":"Feature","properties":{"nome":"Altamira","osm_id":2141449145,"osm_tipo":"node","tipo_lugar":"suburb"},"geometry":{"type":"Point","coordinates":[-49.8889403,-6.0519083]}},{"type":"Feature","properties":{"nome":"Alto Bonito","osm_id":2141449146,"osm_tipo":"node","tipo_lugar":"suburb"},"geometry":{"type":"Point","coordinates":[-49.8835188,-6.0512213]}},{"type":"Feature","properties":{"nome":"Bela Vista II","osm_id":2141449148,"osm_tipo":"node","tipo_lugar":"suburb"},"geometry":{"type":"Point","coordinates":[-49.8875145,-6.1019905]}},{"type":"Feature","properties":{"nome":"Bela Vista","osm_id":2141449149,"osm_tipo":"node","tipo_lugar":"suburb"},"geometry":{"type":"Point","coordinates":[-49.9008954,-6.0808273]}},{"type":"Feature","properties":{"nome":"Bela Vista","osm_id":2141449150,"osm_tipo":"node","tipo_lugar":"suburb"},"geometry":{"type":"Point","coordinates":[-49.8892673,-6.0990617]}},{"type":"Feature","properties":{"nome":"Belvedere","osm_id":2141449151,"osm_tipo":"node","tipo_lugar":"suburb"},"geometry":{"type":"Point","coordinates":[-49.8745106,-6.096713]}},{"type":"Feature","properties":{"nome":"Carajás Sul","osm_id":2141449153,"osm_tipo":"node","tipo_lugar":"suburb"},"geometry":{"type":"Point","coordinates":[-49.9091685,-6.0770905]}},{"type":"Feature","properties":{"nome":"Distrito Industrial","osm_id":2141449154,"osm_tipo":"node","tipo_lugar":"suburb"},"geometry":{"type":"Point","coordinates":[-49.8583419,-6.2054758]}},{"type":"Feature","properties":{"nome":"Esplanada","osm_id":2141449155,"osm_tipo":"node","tipo_lugar":"suburb"},"geometry":{"type":"Point","coordinates":[-49.8724237,-6.0905006]}},{"type":"Feature","properties":{"nome":"Guanabara II","osm_id":2141449156,"osm_tipo":"node","tipo_lugar":"suburb"},"geometry":{"type":"Point","coordinates":[-49.8910087,-6.0878964]}},{"type":"Feature","properties":{"nome":"Habitar Feliz","osm_id":2141449157,"osm_tipo":"node","tipo_lugar":"suburb"},"geometry":{"type":"Point","coordinates":[-49.882745,-6.0462822]}},{"type":"Feature","properties":{"nome":"Jardim América II","osm_id":2141449158,"osm_tipo":"node","tipo_lugar":"suburb"},"geometry":{"type":"Point","coordinates":[-49.8929564,-6.0945884]}},{"type":"Feature","properties":{"nome":"Jardim América","osm_id":2141449159,"osm_tipo":"node","tipo_lugar":"suburb"},"geometry":{"type":"Point","coordinates":[-49.8960156,-6.0981492]}},{"type":"Feature","properties":{"nome":"Jardim Canadá II","osm_id":2141449160,"osm_tipo":"node","tipo_lugar":"suburb"},"geometry":{"type":"Point","coordinates":[-49.8949086,-6.0644312]}},{"type":"Feature","properties":{"nome":"Jardim Paraíso","osm_id":2141449162,"osm_tipo":"node","tipo_lugar":"suburb"},"geometry":{"type":"Point","coordinates":[-49.8834653,-5.9956524]}},{"type":"Feature","properties":{"nome":"Linha Verde","osm_id":2141449163,"osm_tipo":"node","tipo_lugar":"suburb"},"geometry":{"type":"Point","coordinates":[-49.8711359,-6.0953436]}},{"type":"Feature","properties":{"nome":"Maranhão II","osm_id":2141449164,"osm_tipo":"node","tipo_lugar":"suburb"},"geometry":{"type":"Point","coordinates":[-49.8981201,-6.0655682]}},{"type":"Feature","properties":{"nome":"Maranhão","osm_id":2141449165,"osm_tipo":"node","tipo_lugar":"suburb"},"geometry":{"type":"Point","coordinates":[-49.8981471,-6.0684224]}},{"type":"Feature","properties":{"nome":"Montes Claros","osm_id":2141449166,"osm_tipo":"node","tipo_lugar":"suburb"},"geometry":{"type":"Point","coordinates":[-49.9014861,-6.0935505]}},{"type":"Feature","properties":{"nome":"Novo Brasil","osm_id":2141449169,"osm_tipo":"node","tipo_lugar":"suburb"},"geometry":{"type":"Point","coordinates":[-49.8675601,-6.0901912]}},{"type":"Feature","properties":{"nome":"Novo Tempo","osm_id":2141449171,"osm_tipo":"node","tipo_lugar":"suburb"},"geometry":{"type":"Point","coordinates":[-49.8875351,-6.0406671]}},{"type":"Feature","properties":{"nome":"Paraíso","osm_id":2141449172,"osm_tipo":"node","tipo_lugar":"suburb"},"geometry":{"type":"Point","coordinates":[-49.8772591,-6.0915002]}},{"type":"Feature","properties":{"nome":"Parque da Nações II","osm_id":2141449173,"osm_tipo":"node","tipo_lugar":"suburb"},"geometry":{"type":"Point","coordinates":[-49.9042855,-6.1088481]}},{"type":"Feature","properties":{"nome":"Parque da Nações","osm_id":2141449174,"osm_tipo":"node","tipo_lugar":"suburb"},"geometry":{"type":"Point","coordinates":[-49.8996028,-6.1035088]}},{"type":"Feature","properties":{"nome":"Parque dos Carajás II","osm_id":2141449175,"osm_tipo":"node","tipo_lugar":"suburb"},"geometry":{"type":"Point","coordinates":[-49.8712422,-6.0729722]}},{"type":"Feature","properties":{"nome":"Polo Moveleiro","osm_id":2141449176,"osm_tipo":"node","tipo_lugar":"suburb"},"geometry":{"type":"Point","coordinates":[-49.8778438,-6.0524224]}},{"type":"Feature","properties":{"nome":"Residencial Alto Boa Vista","osm_id":2141449178,"osm_tipo":"node","tipo_lugar":"suburb"},"geometry":{"type":"Point","coordinates":[-49.8801003,-6.0584704]}},{"type":"Feature","properties":{"nome":"Residencial Bambuí","osm_id":2141449179,"osm_tipo":"node","tipo_lugar":"suburb"},"geometry":{"type":"Point","coordinates":[-49.8986323,-6.0860498]}},{"type":"Feature","properties":{"nome":"Residencial Cinco Estrelas","osm_id":2141449180,"osm_tipo":"node","tipo_lugar":"suburb"},"geometry":{"type":"Point","coordinates":[-49.9107791,-6.0786652]}},{"type":"Feature","properties":{"nome":"Residencial Esperança","osm_id":2141449181,"osm_tipo":"node","tipo_lugar":"suburb"},"geometry":{"type":"Point","coordinates":[-49.9019931,-6.0201284]}},{"type":"Feature","properties":{"nome":"Residencial Martini","osm_id":2141449182,"osm_tipo":"node","tipo_lugar":"suburb"},"geometry":{"type":"Point","coordinates":[-49.9013589,-6.0220492]}},{"type":"Feature","properties":{"nome":"Residencial Morada Nova","osm_id":2141449183,"osm_tipo":"node","tipo_lugar":"suburb"},"geometry":{"type":"Point","coordinates":[-49.8939022,-6.1008771]}},{"type":"Feature","properties":{"nome":"Residencial Nova Vida II","osm_id":2141449184,"osm_tipo":"node","tipo_lugar":"suburb"},"geometry":{"type":"Point","coordinates":[-49.8969381,-6.0889573]}},{"type":"Feature","properties":{"nome":"Residencial São José","osm_id":2141449185,"osm_tipo":"node","tipo_lugar":"suburb"},"geometry":{"type":"Point","coordinates":[-49.9008098,-6.0850119]}},{"type":"Feature","properties":{"nome":"Residencial Vila Rica","osm_id":2141449186,"osm_tipo":"node","tipo_lugar":"suburb"},"geometry":{"type":"Point","coordinates":[-49.8930437,-6.0447704]}},{"type":"Feature","properties":{"nome":"Residencial Vista do Vale","osm_id":2141449187,"osm_tipo":"node","tipo_lugar":"suburb"},"geometry":{"type":"Point","coordinates":[-49.849542,-6.0957759]}},{"type":"Feature","properties":{"nome":"Rsidencial Novo Viver","osm_id":2141449188,"osm_tipo":"node","tipo_lugar":"suburb"},"geometry":{"type":"Point","coordinates":[-49.8947141,-6.0162563]}},{"type":"Feature","properties":{"nome":"Serra Azul","osm_id":2141449189,"osm_tipo":"node","tipo_lugar":"suburb"},"geometry":{"type":"Point","coordinates":[-49.9103202,-6.0869054]}},{"type":"Feature","properties":{"nome":"São Lucas I","osm_id":2141449190,"osm_tipo":"node","tipo_lugar":"suburb"},"geometry":{"type":"Point","coordinates":[-49.8874636,-6.1051789]}},{"type":"Feature","properties":{"nome":"São Lucas II","osm_id":2141449191,"osm_tipo":"node","tipo_lugar":"suburb"},"geometry":{"type":"Point","coordinates":[-49.896778,-6.106925]}},{"type":"Feature","properties":{"nome":"Parque São Luís","osm_id":2141449192,"osm_tipo":"node","tipo_lugar":"suburb"},"geometry":{"type":"Point","coordinates":[-49.901333,-6.1176373]}},{"type":"Feature","properties":{"nome":"Vale dos Carajás","osm_id":2141449193,"osm_tipo":"node","tipo_lugar":"suburb"},"geometry":{"type":"Point","coordinates":[-49.8991086,-6.053999]}},{"type":"Feature","properties":{"nome":"Vida Nova","osm_id":2141449194,"osm_tipo":"node","tipo_lugar":"suburb"},"geometry":{"type":"Point","coordinates":[-49.9003599,-6.0870966]}},{"type":"Feature","properties":{"nome":"Alto da Boa Vista","osm_id":2144380864,"osm_tipo":"node","tipo_lugar":"suburb"},"geometry":{"type":"Point","coordinates":[-49.8769347,-6.06042]}},{"type":"Feature","properties":{"nome":"Bairro dos Minérios","osm_id":2144380867,"osm_tipo":"node","tipo_lugar":"suburb"},"geometry":{"type":"Point","coordinates":[-49.870251,-6.0569462]}},{"type":"Feature","properties":{"nome":"Bela Vista","osm_id":2144380872,"osm_tipo":"node","tipo_lugar":"suburb"},"geometry":{"type":"Point","coordinates":[-49.8932583,-6.0952049]}},{"type":"Feature","properties":{"nome":"Betânia","osm_id":2144380882,"osm_tipo":"node","tipo_lugar":"suburb"},"geometry":{"type":"Point","coordinates":[-49.8886538,-6.0595585]}},{"type":"Feature","properties":{"nome":"Casas Populares II","osm_id":2144380885,"osm_tipo":"node","tipo_lugar":"suburb"},"geometry":{"type":"Point","coordinates":[-49.8836863,-6.0472367]}},{"type":"Feature","properties":{"nome":"Cidade Jardim","osm_id":2144380888,"osm_tipo":"node","tipo_lugar":"suburb"},"geometry":{"type":"Point","coordinates":[-49.8642967,-6.0647186]}},{"type":"Feature","properties":{"nome":"Habitar Feliz","osm_id":2144380897,"osm_tipo":"node","tipo_lugar":"suburb"},"geometry":{"type":"Point","coordinates":[-49.8879151,-6.0465389]}},{"type":"Feature","properties":{"nome":"Jardim Canadá","osm_id":2144380900,"osm_tipo":"node","tipo_lugar":"suburb"},"geometry":{"type":"Point","coordinates":[-49.8941198,-6.062919]}},{"type":"Feature","properties":{"nome":"Novo Brasil","osm_id":2144380906,"osm_tipo":"node","tipo_lugar":"suburb"},"geometry":{"type":"Point","coordinates":[-49.8680862,-6.09044]}},{"type":"Feature","properties":{"nome":"Novo Horizonte","osm_id":2144380908,"osm_tipo":"node","tipo_lugar":"suburb"},"geometry":{"type":"Point","coordinates":[-49.89484,-6.0574284]}},{"type":"Feature","properties":{"nome":"Paraíso","osm_id":2144380909,"osm_tipo":"node","tipo_lugar":"suburb"},"geometry":{"type":"Point","coordinates":[-49.873812,-6.0864215]}},{"type":"Feature","properties":{"nome":"Palmares II","osm_id":2148105476,"osm_tipo":"node","tipo_lugar":"suburb"},"geometry":{"type":"Point","coordinates":[-49.8384324,-5.9476871]}},{"type":"Feature","properties":{"nome":"Palmares Sul","osm_id":2196864470,"osm_tipo":"node","tipo_lugar":"suburb"},"geometry":{"type":"Point","coordinates":[-49.8911336,-5.9967728]}},{"type":"Feature","properties":{"nome":"Águas Lindas 2","osm_id":2969273642,"osm_tipo":"node","tipo_lugar":"suburb"},"geometry":{"type":"Point","coordinates":[-49.8858482,-6.1140055]}},{"type":"Feature","properties":{"nome":"Bairro Raio de Sol","osm_id":2992464589,"osm_tipo":"node","tipo_lugar":"suburb"},"geometry":{"type":"Point","coordinates":[-49.8997103,-6.1144853]}},{"type":"Feature","properties":{"nome":"Ipiranga","osm_id":3850641657,"osm_tipo":"node","tipo_lugar":"suburb"},"geometry":{"type":"Point","coordinates":[-49.8887304,-6.0332201]}},{"type":"Feature","properties":{"nome":"Bairro Primavera","osm_id":7485448814,"osm_tipo":"node","tipo_lugar":"neighbourhood"},"geometry":{"type":"Point","coordinates":[-49.9138284,-6.0580157]}},{"type":"Feature","properties":{"nome":"Bom Jesus","osm_id":8615922350,"osm_tipo":"node","tipo_lugar":"suburb"},"geometry":{"type":"Point","coordinates":[-49.9084257,-6.1163466]}},{"type":"Feature","properties":{"nome":"Alvorá","osm_id":13305564345,"osm_tipo":"node","tipo_lugar":"suburb"},"geometry":{"type":"Point","coordinates":[-49.8561928,-6.1013915]}},{"type":"Feature","properties":{"nome":"Apoena","osm_id":13325195727,"osm_tipo":"node","tipo_lugar":"suburb"},"geometry":{"type":"Point","coordinates":[-49.8593646,-6.0976517]}},{"type":"Feature","properties":{"nome":"Jardim Tropical","osm_id":13817921771,"osm_tipo":"node","tipo_lugar":"neighbourhood"},"geometry":{"type":"Point","coordinates":[-49.8894498,-6.0279178]}},{"type":"Feature","properties":{"nome":"Prefeitura de Parauapebas","osm_id":141163064,"osm_tipo":"way","tipo_lugar":"suburb"},"geometry":{"type":"Polygon","coordinates":[[[-49.8889216,-6.070993],[-49.8881948,-6.0714543],[-49.8881945,-6.071009],[-49.8889216,-6.070993]]]}},{"type":"Feature","properties":{"nome":"Condominio Fechado","osm_id":231369387,"osm_tipo":"way","tipo_lugar":"suburb"},"geometry":{"type":"Polygon","coordinates":[[[-49.8495961,-6.0931772],[-49.8516556,-6.0944552],[-49.8493155,-6.0985247],[-49.8469884,-6.0973348],[-49.8495961,-6.0931772]]]}}]}