{"type":"FeatureCollection","features":[{"type":"Feature","properties":{"nome":"Acampamento Eletronorte","osm_id":3395075122,"osm_tipo":"node","tipo_lugar":"suburb"},"geometry":{"type":"Point","coordinates":[-51.9341164,-3.3764517]}},{"type":"Feature","properties":{"nome":"São Francisco de Chagas","osm_id":3395075130,"osm_tipo":"node","tipo_lugar":"suburb"},"geometry":{"type":"Point","coordinates":[-51.8834736,-3.3664492]}},{"type":"Feature","properties":{"nome":"Vila Rica","osm_id":3395075131,"osm_tipo":"node","tipo_lugar":"suburb"},"geometry":{"type":"Point","coordinates":[-51.867287,-3.3153953]}},{"type":"Feature","properties":{"nome":"Bom Jardim I","osm_id":3395081005,"osm_tipo":"node","tipo_lugar":"suburb"},"geometry":{"type":"Point","coordinates":[-51.8127877,-3.3483797]}},{"type":"Feature","properties":{"nome":"Bom Jardim III","osm_id":3395081006,"osm_tipo":"node","tipo_lugar":"suburb"},"geometry":{"type":"Point","coordinates":[-51.8351184,-3.4334295]}},{"type":"Feature","properties":{"nome":"Duque de Caxias","osm_id":3395081007,"osm_tipo":"node","tipo_lugar":"suburb"},"geometry":{"type":"Point","coordinates":[-51.804236,-3.3701828]}},{"type":"Feature","properties":{"nome":"Paratizão","osm_id":3395088951,"osm_tipo":"node","tipo_lugar":"suburb"},"geometry":{"type":"Point","coordinates":[-52.0182699,-3.2932349]}},{"type":"Feature","properties":{"nome":"Porta da Liberação","osm_id":3395088952,"osm_tipo":"node","tipo_lugar":"suburb"},"geometry":{"type":"Point","coordinates":[-51.803981,-3.4163322]}},{"type":"Feature","properties":{"nome":"Serra de Piranga","osm_id":3395088955,"osm_tipo":"node","tipo_lugar":"suburb"},"geometry":{"type":"Point","coordinates":[-51.8531416,-3.4114556]}},{"type":"Feature","properties":{"nome":"São Pedro","osm_id":3395088957,"osm_tipo":"node","tipo_lugar":"suburb"},"geometry":{"type":"Point","coordinates":[-51.9009661,-3.5137822]}},{"type":"Feature","properties":{"nome":"São Raimundo Nonato","osm_id":3395088958,"osm_tipo":"node","tipo_lugar":"suburb"},"geometry":{"type":"Point","coordinates":[-51.8160748,-3.2723621]}},{"type":"Feature","properties":{"nome":"Reservatório intermediário de Belo Monte","osm_id":3395109451,"osm_tipo":"node","tipo_lugar":"suburb"},"geometry":{"type":"Point","coordinates":[-51.7897932,-3.2853571]}},{"type":"Feature","properties":{"nome":"São José","osm_id":3395109452,"osm_tipo":"node","tipo_lugar":"suburb"},"geometry":{"type":"Point","coordinates":[-52.0122546,-3.2189903]}},{"type":"Feature","properties":{"nome":"Vila Residencial Belo Monte","osm_id":3401502912,"osm_tipo":"node","tipo_lugar":"suburb"},"geometry":{"type":"Point","coordinates":[-51.740295,-3.1167559]}},{"type":"Feature","properties":{"nome":"São Pedro","osm_id":3401502913,"osm_tipo":"node","tipo_lugar":"suburb"},"geometry":{"type":"Point","coordinates":[-51.820352,-3.0961015]}},{"type":"Feature","properties":{"nome":"São Vicente","osm_id":3401502914,"osm_tipo":"node","tipo_lugar":"suburb"},"geometry":{"type":"Point","coordinates":[-51.8381853,-3.060891]}}]}