{"type":"FeatureCollection","features":[{"type":"Feature","properties":{"nome":"Varjota","osm_id":13860427577,"osm_tipo":"node","tipo_lugar":"suburb"},"geometry":{"type":"Point","coordinates":[-40.833886,-4.7496548]}},{"type":"Feature","properties":{"nome":"Planalto","osm_id":13860427580,"osm_tipo":"node","tipo_lugar":"suburb"},"geometry":{"type":"Point","coordinates":[-40.8306851,-4.748091]}},{"type":"Feature","properties":{"nome":"Beira Rio","osm_id":13860427582,"osm_tipo":"node","tipo_lugar":"suburb"},"geometry":{"type":"Point","coordinates":[-40.8291764,-4.7590902]}},{"type":"Feature","properties":{"nome":"Ferreirão","osm_id":13860427584,"osm_tipo":"node","tipo_lugar":"suburb"},"geometry":{"type":"Point","coordinates":[-40.8248579,-4.753367]}},{"type":"Feature","properties":{"nome":"Centro","osm_id":13860427588,"osm_tipo":"node","tipo_lugar":"suburb"},"geometry":{"type":"Point","coordinates":[-40.8303702,-4.7534657]}}]}