{"type":"FeatureCollection","features":[{"type":"Feature","properties":{"nome":"José Raimundo de Loiola","osm_id":5227016903,"osm_tipo":"node","tipo_lugar":"suburb"},"geometry":{"type":"Point","coordinates":[-40.2681292,-3.8071881]}},{"type":"Feature","properties":{"nome":"Padre Edson","osm_id":5227016904,"osm_tipo":"node","tipo_lugar":"suburb"},"geometry":{"type":"Point","coordinates":[-40.2628445,-3.7975177]}},{"type":"Feature","properties":{"nome":"Edmundo Rodrigues","osm_id":5227016905,"osm_tipo":"node","tipo_lugar":"suburb"},"geometry":{"type":"Point","coordinates":[-40.266558,-3.8018908]}},{"type":"Feature","properties":{"nome":"Antônio Ferreira Gomes Martins","osm_id":5227016906,"osm_tipo":"node","tipo_lugar":"suburb"},"geometry":{"type":"Point","coordinates":[-40.2577899,-3.8002219]}},{"type":"Feature","properties":{"nome":"Centro","osm_id":5227016907,"osm_tipo":"node","tipo_lugar":"suburb"},"geometry":{"type":"Point","coordinates":[-40.2594878,-3.7985404]}},{"type":"Feature","properties":{"nome":"Mesquita Jerônimo","osm_id":5227016908,"osm_tipo":"node","tipo_lugar":"suburb"},"geometry":{"type":"Point","coordinates":[-40.2638845,-3.8075168]}},{"type":"Feature","properties":{"nome":"Alto Alegre","osm_id":5227016909,"osm_tipo":"node","tipo_lugar":"suburb"},"geometry":{"type":"Point","coordinates":[-40.2617558,-3.8031677]}},{"type":"Feature","properties":{"nome":"Francisco Martins Viana","osm_id":5227016910,"osm_tipo":"node","tipo_lugar":"suburb"},"geometry":{"type":"Point","coordinates":[-40.2606535,-3.8002346]}}]}