{"type":"FeatureCollection","features":[{"type":"Feature","properties":{"nome":"Fornos","osm_id":3969676584,"osm_tipo":"node","tipo_lugar":"suburb"},"geometry":{"type":"Point","coordinates":[-8.1414731,41.1903094]}},{"type":"Feature","properties":{"nome":"Freixo","osm_id":3969676585,"osm_tipo":"node","tipo_lugar":"suburb"},"geometry":{"type":"Point","coordinates":[-8.1482809,41.1602153]}},{"type":"Feature","properties":{"nome":"Rio de Galinhas","osm_id":3969676592,"osm_tipo":"node","tipo_lugar":"suburb"},"geometry":{"type":"Point","coordinates":[-8.1412423,41.1768491]}},{"type":"Feature","properties":{"nome":"São Nicolau","osm_id":3969676599,"osm_tipo":"node","tipo_lugar":"suburb"},"geometry":{"type":"Point","coordinates":[-8.1541656,41.1896581]}},{"type":"Feature","properties":{"nome":"Pontinha","osm_id":11169850351,"osm_tipo":"node","tipo_lugar":"neighbourhood"},"geometry":{"type":"Point","coordinates":[-8.1352075,41.1955596]}},{"type":"Feature","properties":{"nome":"Cristelo","osm_id":11169850352,"osm_tipo":"node","tipo_lugar":"neighbourhood"},"geometry":{"type":"Point","coordinates":[-8.1377813,41.189839]}}]}