{"type":"FeatureCollection","features":[{"type":"Feature","properties":{"nome":"Custódio","osm_id":416642225,"osm_tipo":"node","tipo_lugar":"neighbourhood"},"geometry":{"type":"Point","coordinates":[-39.177041,-4.98557]}},{"type":"Feature","properties":{"nome":"São Gonçalo","osm_id":4663189838,"osm_tipo":"node","tipo_lugar":"suburb"},"geometry":{"type":"Point","coordinates":[-38.9705103,-4.6902445]}},{"type":"Feature","properties":{"nome":"Serra Branca","osm_id":4663189839,"osm_tipo":"node","tipo_lugar":"suburb"},"geometry":{"type":"Point","coordinates":[-38.9751237,-5.0245084]}},{"type":"Feature","properties":{"nome":"Vertentes","osm_id":4663189840,"osm_tipo":"node","tipo_lugar":"suburb"},"geometry":{"type":"Point","coordinates":[-38.8617031,-4.6934841]}},{"type":"Feature","properties":{"nome":"Oriente","osm_id":4663189841,"osm_tipo":"node","tipo_lugar":"suburb"},"geometry":{"type":"Point","coordinates":[-38.8392021,-4.7292849]}},{"type":"Feature","properties":{"nome":"Lagoa da Canrnaúba","osm_id":4663193812,"osm_tipo":"node","tipo_lugar":"suburb"},"geometry":{"type":"Point","coordinates":[-38.9427681,-4.8258467]}},{"type":"Feature","properties":{"nome":"Bom Jardim","osm_id":4663193814,"osm_tipo":"node","tipo_lugar":"suburb"},"geometry":{"type":"Point","coordinates":[-38.9080177,-4.8086372]}},{"type":"Feature","properties":{"nome":"Jardim","osm_id":4663193817,"osm_tipo":"node","tipo_lugar":"suburb"},"geometry":{"type":"Point","coordinates":[-38.8760789,-4.7733267]}},{"type":"Feature","properties":{"nome":"Cedro","osm_id":4663193818,"osm_tipo":"node","tipo_lugar":"suburb"},"geometry":{"type":"Point","coordinates":[-38.8455485,-4.771188]}},{"type":"Feature","properties":{"nome":"Várzea Redonda","osm_id":4663193819,"osm_tipo":"node","tipo_lugar":"suburb"},"geometry":{"type":"Point","coordinates":[-38.8706894,-4.7672172]}},{"type":"Feature","properties":{"nome":"Poço Comprido","osm_id":4663193821,"osm_tipo":"node","tipo_lugar":"suburb"},"geometry":{"type":"Point","coordinates":[-38.9692459,-4.7042003]}},{"type":"Feature","properties":{"nome":"Muquém","osm_id":4663193824,"osm_tipo":"node","tipo_lugar":"suburb"},"geometry":{"type":"Point","coordinates":[-38.9721336,-4.7379355]}},{"type":"Feature","properties":{"nome":"Boto","osm_id":4663193826,"osm_tipo":"node","tipo_lugar":"suburb"},"geometry":{"type":"Point","coordinates":[-39.0013579,-4.9864385]}},{"type":"Feature","properties":{"nome":"Salva Vida","osm_id":4663193831,"osm_tipo":"node","tipo_lugar":"suburb"},"geometry":{"type":"Point","coordinates":[-38.9043524,-4.9884621]}},{"type":"Feature","properties":{"nome":"Lagoa do Junco","osm_id":4663193832,"osm_tipo":"node","tipo_lugar":"suburb"},"geometry":{"type":"Point","coordinates":[-38.8921809,-4.990391]}},{"type":"Feature","properties":{"nome":"Japão","osm_id":4663193834,"osm_tipo":"node","tipo_lugar":"suburb"},"geometry":{"type":"Point","coordinates":[-38.9555969,-5.0117726]}},{"type":"Feature","properties":{"nome":"Santo Antônio","osm_id":4663193835,"osm_tipo":"node","tipo_lugar":"suburb"},"geometry":{"type":"Point","coordinates":[-38.9245986,-5.0117336]}},{"type":"Feature","properties":{"nome":"Sítio dos Bois","osm_id":4663193837,"osm_tipo":"node","tipo_lugar":"suburb"},"geometry":{"type":"Point","coordinates":[-38.9171697,-5.0154638]}},{"type":"Feature","properties":{"nome":"Santa Teresa","osm_id":4663193838,"osm_tipo":"node","tipo_lugar":"suburb"},"geometry":{"type":"Point","coordinates":[-38.9406449,-5.0195847]}},{"type":"Feature","properties":{"nome":"Ramalhete","osm_id":4663193839,"osm_tipo":"node","tipo_lugar":"suburb"},"geometry":{"type":"Point","coordinates":[-38.9480209,-5.0343442]}},{"type":"Feature","properties":{"nome":"Barreiro","osm_id":4663193840,"osm_tipo":"node","tipo_lugar":"suburb"},"geometry":{"type":"Point","coordinates":[-38.9917831,-5.0344787]}},{"type":"Feature","properties":{"nome":"Boqueirão","osm_id":4663193844,"osm_tipo":"node","tipo_lugar":"suburb"},"geometry":{"type":"Point","coordinates":[-38.8915419,-5.0394473]}},{"type":"Feature","properties":{"nome":"Sergipe","osm_id":4663193845,"osm_tipo":"node","tipo_lugar":"suburb"},"geometry":{"type":"Point","coordinates":[-38.9647026,-5.0432506]}},{"type":"Feature","properties":{"nome":"São Paulo","osm_id":4663193848,"osm_tipo":"node","tipo_lugar":"suburb"},"geometry":{"type":"Point","coordinates":[-38.9089765,-5.0587269]}},{"type":"Feature","properties":{"nome":"Montreal","osm_id":4663193849,"osm_tipo":"node","tipo_lugar":"suburb"},"geometry":{"type":"Point","coordinates":[-38.9416733,-5.0601993]}},{"type":"Feature","properties":{"nome":"Lagoa do Boi","osm_id":4663193854,"osm_tipo":"node","tipo_lugar":"suburb"},"geometry":{"type":"Point","coordinates":[-38.9033585,-4.94519]}},{"type":"Feature","properties":{"nome":"Floresta","osm_id":4663201203,"osm_tipo":"node","tipo_lugar":"suburb"},"geometry":{"type":"Point","coordinates":[-38.995176,-4.8613427]}},{"type":"Feature","properties":{"nome":"Palmares","osm_id":4663206000,"osm_tipo":"node","tipo_lugar":"suburb"},"geometry":{"type":"Point","coordinates":[-39.087204,-4.914969]}},{"type":"Feature","properties":{"nome":"Jardim dos Monólitos","osm_id":4663206003,"osm_tipo":"node","tipo_lugar":"suburb"},"geometry":{"type":"Point","coordinates":[-39.007412,-4.9566541]}},{"type":"Feature","properties":{"nome":"Lagoa da Ponciana","osm_id":4663206010,"osm_tipo":"node","tipo_lugar":"suburb"},"geometry":{"type":"Point","coordinates":[-38.9385872,-4.8466964]}},{"type":"Feature","properties":{"nome":"Vale Perdido","osm_id":4663206017,"osm_tipo":"node","tipo_lugar":"suburb"},"geometry":{"type":"Point","coordinates":[-39.0003485,-4.9592331]}},{"type":"Feature","properties":{"nome":"Timbaúba","osm_id":4663206019,"osm_tipo":"node","tipo_lugar":"suburb"},"geometry":{"type":"Point","coordinates":[-38.9193698,-4.8529341]}},{"type":"Feature","properties":{"nome":"Areias","osm_id":4663206021,"osm_tipo":"node","tipo_lugar":"suburb"},"geometry":{"type":"Point","coordinates":[-38.9846344,-4.8568044]}},{"type":"Feature","properties":{"nome":"Barro Vermelho","osm_id":4663206026,"osm_tipo":"node","tipo_lugar":"suburb"},"geometry":{"type":"Point","coordinates":[-38.9905396,-4.8898702]}},{"type":"Feature","properties":{"nome":"Tamanduá","osm_id":4663215773,"osm_tipo":"node","tipo_lugar":"suburb"},"geometry":{"type":"Point","coordinates":[-39.1211928,-4.9833385]}},{"type":"Feature","properties":{"nome":"Caracol","osm_id":4663215774,"osm_tipo":"node","tipo_lugar":"suburb"},"geometry":{"type":"Point","coordinates":[-39.1226519,-4.9922311]}},{"type":"Feature","properties":{"nome":"Manaia","osm_id":4663215775,"osm_tipo":"node","tipo_lugar":"suburb"},"geometry":{"type":"Point","coordinates":[-39.0810817,-5.0231404]}},{"type":"Feature","properties":{"nome":"Pote Seco","osm_id":4663215776,"osm_tipo":"node","tipo_lugar":"suburb"},"geometry":{"type":"Point","coordinates":[-39.0677018,-4.9479961]}},{"type":"Feature","properties":{"nome":"São Luís","osm_id":4663215788,"osm_tipo":"node","tipo_lugar":"suburb"},"geometry":{"type":"Point","coordinates":[-39.1697057,-5.0231593]}},{"type":"Feature","properties":{"nome":"Sabonete","osm_id":4663217264,"osm_tipo":"node","tipo_lugar":"suburb"},"geometry":{"type":"Point","coordinates":[-39.0785512,-4.9742896]}},{"type":"Feature","properties":{"nome":"Combate","osm_id":4663218597,"osm_tipo":"node","tipo_lugar":"suburb"},"geometry":{"type":"Point","coordinates":[-39.0247116,-4.9707446]}},{"type":"Feature","properties":{"nome":"Baviera","osm_id":4663218598,"osm_tipo":"node","tipo_lugar":"suburb"},"geometry":{"type":"Point","coordinates":[-39.0102729,-4.9714115]}},{"type":"Feature","properties":{"nome":"Sitiá Leste","osm_id":4663218603,"osm_tipo":"node","tipo_lugar":"suburb"},"geometry":{"type":"Point","coordinates":[-39.0039558,-4.9740829]}},{"type":"Feature","properties":{"nome":"Sitiá Oeste","osm_id":4663218604,"osm_tipo":"node","tipo_lugar":"suburb"},"geometry":{"type":"Point","coordinates":[-39.0186229,-4.9743532]}},{"type":"Feature","properties":{"nome":"Sítio Lemos","osm_id":4663218606,"osm_tipo":"node","tipo_lugar":"suburb"},"geometry":{"type":"Point","coordinates":[-39.0169298,-4.9581759]}},{"type":"Feature","properties":{"nome":"ECOLIVE Loteamento Renato Carneiro","osm_id":4663218619,"osm_tipo":"node","tipo_lugar":"suburb"},"geometry":{"type":"Point","coordinates":[-39.0097686,-4.9795987]}},{"type":"Feature","properties":{"nome":"Putiú","osm_id":4663218626,"osm_tipo":"node","tipo_lugar":"suburb"},"geometry":{"type":"Point","coordinates":[-39.018292,-4.9810134]}},{"type":"Feature","properties":{"nome":"Curicaca","osm_id":4663218633,"osm_tipo":"node","tipo_lugar":"suburb"},"geometry":{"type":"Point","coordinates":[-39.0273056,-4.9835324]}},{"type":"Feature","properties":{"nome":"Planalto Renascer","osm_id":4663218641,"osm_tipo":"node","tipo_lugar":"suburb"},"geometry":{"type":"Point","coordinates":[-39.0355849,-4.9593137]}},{"type":"Feature","properties":{"nome":"Campo Novo","osm_id":4663218644,"osm_tipo":"node","tipo_lugar":"suburb"},"geometry":{"type":"Point","coordinates":[-39.0193384,-4.9888375]}},{"type":"Feature","properties":{"nome":"Monte Alegre","osm_id":4663218647,"osm_tipo":"node","tipo_lugar":"suburb"},"geometry":{"type":"Point","coordinates":[-39.0157319,-4.9903667]}},{"type":"Feature","properties":{"nome":"Residencial Novo Quixadá","osm_id":4663218648,"osm_tipo":"node","tipo_lugar":"suburb"},"geometry":{"type":"Point","coordinates":[-39.0317917,-4.9905138]}},{"type":"Feature","properties":{"nome":"COHAB","osm_id":4663218649,"osm_tipo":"node","tipo_lugar":"suburb"},"geometry":{"type":"Point","coordinates":[-39.0236964,-4.9922936]}},{"type":"Feature","properties":{"nome":"Nova Jerusalém","osm_id":4663218650,"osm_tipo":"node","tipo_lugar":"suburb"},"geometry":{"type":"Point","coordinates":[-39.0143356,-4.994671]}},{"type":"Feature","properties":{"nome":"Junco","osm_id":4663218653,"osm_tipo":"node","tipo_lugar":"suburb"},"geometry":{"type":"Point","coordinates":[-39.1128306,-5.0032241]}},{"type":"Feature","properties":{"nome":"Triângulo","osm_id":4663218662,"osm_tipo":"node","tipo_lugar":"suburb"},"geometry":{"type":"Point","coordinates":[-39.0129875,-4.963602]}},{"type":"Feature","properties":{"nome":"Palma","osm_id":4663218663,"osm_tipo":"node","tipo_lugar":"suburb"},"geometry":{"type":"Point","coordinates":[-39.0965979,-5.0175515]}},{"type":"Feature","properties":{"nome":"Alto da Boa Vista","osm_id":4663218665,"osm_tipo":"node","tipo_lugar":"suburb"},"geometry":{"type":"Point","coordinates":[-39.0119629,-4.9641471]}},{"type":"Feature","properties":{"nome":"Campo Velho","osm_id":4663218666,"osm_tipo":"node","tipo_lugar":"suburb"},"geometry":{"type":"Point","coordinates":[-39.009933,-4.9643034]}},{"type":"Feature","properties":{"nome":"Carrascal","osm_id":4663218670,"osm_tipo":"node","tipo_lugar":"suburb"},"geometry":{"type":"Point","coordinates":[-39.0373912,-4.9647996]}},{"type":"Feature","properties":{"nome":"Alto São Francisco","osm_id":4663218672,"osm_tipo":"node","tipo_lugar":"suburb"},"geometry":{"type":"Point","coordinates":[-39.0085307,-4.9669121]}},{"type":"Feature","properties":{"nome":"Herval","osm_id":4663218673,"osm_tipo":"node","tipo_lugar":"suburb"},"geometry":{"type":"Point","coordinates":[-39.0175939,-4.9659313]}},{"type":"Feature","properties":{"nome":"Guariba","osm_id":4663218674,"osm_tipo":"node","tipo_lugar":"suburb"},"geometry":{"type":"Point","coordinates":[-39.1279404,-5.0358291]}},{"type":"Feature","properties":{"nome":"Massapê","osm_id":4663218675,"osm_tipo":"node","tipo_lugar":"suburb"},"geometry":{"type":"Point","coordinates":[-39.1401861,-5.0392917]}},{"type":"Feature","properties":{"nome":"Novo Junco","osm_id":4663218677,"osm_tipo":"node","tipo_lugar":"suburb"},"geometry":{"type":"Point","coordinates":[-39.1314174,-5.0405931]}},{"type":"Feature","properties":{"nome":"Curral da Onça","osm_id":4663218678,"osm_tipo":"node","tipo_lugar":"suburb"},"geometry":{"type":"Point","coordinates":[-39.1505737,-5.0418849]}},{"type":"Feature","properties":{"nome":"Planalto Universitário","osm_id":4663218681,"osm_tipo":"node","tipo_lugar":"suburb"},"geometry":{"type":"Point","coordinates":[-39.0252304,-4.9676309]}},{"type":"Feature","properties":{"nome":"Cacimba do Meio","osm_id":4663218682,"osm_tipo":"node","tipo_lugar":"suburb"},"geometry":{"type":"Point","coordinates":[-39.1270974,-4.9678298]}},{"type":"Feature","properties":{"nome":"Riacho Verde","osm_id":4663218687,"osm_tipo":"node","tipo_lugar":"suburb"},"geometry":{"type":"Point","coordinates":[-39.091078,-4.949939]}},{"type":"Feature","properties":{"nome":"Irajá","osm_id":4663218688,"osm_tipo":"node","tipo_lugar":"suburb"},"geometry":{"type":"Point","coordinates":[-39.0077587,-4.9692345]}},{"type":"Feature","properties":{"nome":"Balança","osm_id":4663242222,"osm_tipo":"node","tipo_lugar":"suburb"},"geometry":{"type":"Point","coordinates":[-39.0397716,-5.0234183]}},{"type":"Feature","properties":{"nome":"Aroreira","osm_id":4663242223,"osm_tipo":"node","tipo_lugar":"suburb"},"geometry":{"type":"Point","coordinates":[-39.0471209,-5.0535567]}},{"type":"Feature","properties":{"nome":"Fazenda Francisco de Holanda","osm_id":4663242224,"osm_tipo":"node","tipo_lugar":"suburb"},"geometry":{"type":"Point","coordinates":[-39.1025617,-5.1235453]}},{"type":"Feature","properties":{"nome":"Logradouro","osm_id":4663242225,"osm_tipo":"node","tipo_lugar":"suburb"},"geometry":{"type":"Point","coordinates":[-39.0709309,-5.1337853]}},{"type":"Feature","properties":{"nome":"Corisco","osm_id":4663242227,"osm_tipo":"node","tipo_lugar":"suburb"},"geometry":{"type":"Point","coordinates":[-39.0026237,-5.0924353]}},{"type":"Feature","properties":{"nome":"Paraná","osm_id":4663244436,"osm_tipo":"node","tipo_lugar":"suburb"},"geometry":{"type":"Point","coordinates":[-38.9774384,-5.0546385]}},{"type":"Feature","properties":{"nome":"Caraúbas","osm_id":4663244443,"osm_tipo":"node","tipo_lugar":"suburb"},"geometry":{"type":"Point","coordinates":[-39.0654273,-5.0901887]}},{"type":"Feature","properties":{"nome":"Guanabarina","osm_id":4663244446,"osm_tipo":"node","tipo_lugar":"suburb"},"geometry":{"type":"Point","coordinates":[-39.0544797,-5.1001912]}},{"type":"Feature","properties":{"nome":"Bonsucesso","osm_id":4663244447,"osm_tipo":"node","tipo_lugar":"suburb"},"geometry":{"type":"Point","coordinates":[-39.1304773,-5.1066702]}},{"type":"Feature","properties":{"nome":"Lagoa Comprida","osm_id":4663244448,"osm_tipo":"node","tipo_lugar":"suburb"},"geometry":{"type":"Point","coordinates":[-39.0346031,-5.1142139]}},{"type":"Feature","properties":{"nome":"Sussui","osm_id":4663244449,"osm_tipo":"node","tipo_lugar":"suburb"},"geometry":{"type":"Point","coordinates":[-39.0091171,-5.1214371]}},{"type":"Feature","properties":{"nome":"Quari","osm_id":4663244452,"osm_tipo":"node","tipo_lugar":"suburb"},"geometry":{"type":"Point","coordinates":[-39.066364,-5.1432166]}},{"type":"Feature","properties":{"nome":"Várzea da Onça","osm_id":4663287889,"osm_tipo":"node","tipo_lugar":"suburb"},"geometry":{"type":"Point","coordinates":[-38.85505,-4.940381]}},{"type":"Feature","properties":{"nome":"Santa Maria","osm_id":4663292083,"osm_tipo":"node","tipo_lugar":"suburb"},"geometry":{"type":"Point","coordinates":[-38.8400864,-4.9877407]}},{"type":"Feature","properties":{"nome":"Lagoa do Mato","osm_id":4663292089,"osm_tipo":"node","tipo_lugar":"suburb"},"geometry":{"type":"Point","coordinates":[-38.7159075,-5.0329827]}},{"type":"Feature","properties":{"nome":"Cana Maria","osm_id":4663292091,"osm_tipo":"node","tipo_lugar":"suburb"},"geometry":{"type":"Point","coordinates":[-38.7573046,-5.0544123]}},{"type":"Feature","properties":{"nome":"Lagoa do Zé Pereira","osm_id":4663292092,"osm_tipo":"node","tipo_lugar":"suburb"},"geometry":{"type":"Point","coordinates":[-38.7664601,-5.0676419]}},{"type":"Feature","properties":{"nome":"Silva","osm_id":4663292097,"osm_tipo":"node","tipo_lugar":"suburb"},"geometry":{"type":"Point","coordinates":[-38.6667747,-5.0939884]}},{"type":"Feature","properties":{"nome":"Lagoa redonda","osm_id":4663306814,"osm_tipo":"node","tipo_lugar":"suburb"},"geometry":{"type":"Point","coordinates":[-38.8638687,-4.9764295]}},{"type":"Feature","properties":{"nome":"Lagoa da Pedra","osm_id":4663306815,"osm_tipo":"node","tipo_lugar":"suburb"},"geometry":{"type":"Point","coordinates":[-38.8586807,-4.9774861]}},{"type":"Feature","properties":{"nome":"Lagoa do Meio","osm_id":4663306816,"osm_tipo":"node","tipo_lugar":"suburb"},"geometry":{"type":"Point","coordinates":[-38.7742936,-4.9773897]}},{"type":"Feature","properties":{"nome":"Lagoa do Feijão","osm_id":4663306819,"osm_tipo":"node","tipo_lugar":"suburb"},"geometry":{"type":"Point","coordinates":[-38.7623517,-4.9869593]}},{"type":"Feature","properties":{"nome":"Boa Água","osm_id":4663306821,"osm_tipo":"node","tipo_lugar":"suburb"},"geometry":{"type":"Point","coordinates":[-38.7836501,-5.0031322]}},{"type":"Feature","properties":{"nome":"Barbosa","osm_id":4663306822,"osm_tipo":"node","tipo_lugar":"suburb"},"geometry":{"type":"Point","coordinates":[-38.8689024,-5.0076981]}},{"type":"Feature","properties":{"nome":"São José","osm_id":4663306824,"osm_tipo":"node","tipo_lugar":"suburb"},"geometry":{"type":"Point","coordinates":[-38.8512851,-5.0245761]}},{"type":"Feature","properties":{"nome":"Monte Sinai","osm_id":4663306825,"osm_tipo":"node","tipo_lugar":"suburb"},"geometry":{"type":"Point","coordinates":[-38.8441165,-5.0277793]}},{"type":"Feature","properties":{"nome":"Lagoa da Pedra","osm_id":4663306830,"osm_tipo":"node","tipo_lugar":"suburb"},"geometry":{"type":"Point","coordinates":[-38.6826172,-5.0744514]}},{"type":"Feature","properties":{"nome":"Campo Grande","osm_id":4663306831,"osm_tipo":"node","tipo_lugar":"suburb"},"geometry":{"type":"Point","coordinates":[-38.8004016,-4.9281561]}},{"type":"Feature","properties":{"nome":"Lagoa das Três Carnaubinhas","osm_id":4663306832,"osm_tipo":"node","tipo_lugar":"suburb"},"geometry":{"type":"Point","coordinates":[-38.77266,-5.0758685]}},{"type":"Feature","properties":{"nome":"Lagoa do Descanço","osm_id":4663306833,"osm_tipo":"node","tipo_lugar":"suburb"},"geometry":{"type":"Point","coordinates":[-38.7085266,-5.0930767]}},{"type":"Feature","properties":{"nome":"Juá","osm_id":4663308454,"osm_tipo":"node","tipo_lugar":"suburb"},"geometry":{"type":"Point","coordinates":[-38.6509194,-5.105599]}},{"type":"Feature","properties":{"nome":"Alegre","osm_id":4663312415,"osm_tipo":"node","tipo_lugar":"suburb"},"geometry":{"type":"Point","coordinates":[-38.6468949,-4.955519]}},{"type":"Feature","properties":{"nome":"Vila Rica","osm_id":4663312416,"osm_tipo":"node","tipo_lugar":"suburb"},"geometry":{"type":"Point","coordinates":[-38.7557154,-4.9371602]}},{"type":"Feature","properties":{"nome":"Espinheiro","osm_id":4663312420,"osm_tipo":"node","tipo_lugar":"suburb"},"geometry":{"type":"Point","coordinates":[-38.7214737,-4.9950914]}},{"type":"Feature","properties":{"nome":"Serrote Feijão","osm_id":4663312421,"osm_tipo":"node","tipo_lugar":"suburb"},"geometry":{"type":"Point","coordinates":[-38.7092018,-4.9528065]}},{"type":"Feature","properties":{"nome":"Vertentes","osm_id":4663312423,"osm_tipo":"node","tipo_lugar":"suburb"},"geometry":{"type":"Point","coordinates":[-38.70004,-4.9225052]}},{"type":"Feature","properties":{"nome":"Buenos Aires","osm_id":4663312424,"osm_tipo":"node","tipo_lugar":"suburb"},"geometry":{"type":"Point","coordinates":[-38.6668243,-5.049561]}},{"type":"Feature","properties":{"nome":"Tapuio Velho","osm_id":4663312425,"osm_tipo":"node","tipo_lugar":"suburb"},"geometry":{"type":"Point","coordinates":[-38.6372698,-5.0547912]}},{"type":"Feature","properties":{"nome":"Tapuio de Baixo","osm_id":4663312426,"osm_tipo":"node","tipo_lugar":"suburb"},"geometry":{"type":"Point","coordinates":[-38.6303444,-5.0849838]}},{"type":"Feature","properties":{"nome":"Malacacheta","osm_id":4663312427,"osm_tipo":"node","tipo_lugar":"suburb"},"geometry":{"type":"Point","coordinates":[-38.6342278,-5.0967464]}},{"type":"Feature","properties":{"nome":"Cipó dos Anjos","osm_id":4665945067,"osm_tipo":"node","tipo_lugar":"suburb"},"geometry":{"type":"Point","coordinates":[-38.731161,-5.012117]}},{"type":"Feature","properties":{"nome":"Poço do Touro","osm_id":4666239275,"osm_tipo":"node","tipo_lugar":"suburb"},"geometry":{"type":"Point","coordinates":[-38.9155705,-4.7856892]}},{"type":"Feature","properties":{"nome":"Engano","osm_id":4666239283,"osm_tipo":"node","tipo_lugar":"suburb"},"geometry":{"type":"Point","coordinates":[-39.1162833,-4.9315201]}},{"type":"Feature","properties":{"nome":"Massapê","osm_id":4669649567,"osm_tipo":"node","tipo_lugar":"suburb"},"geometry":{"type":"Point","coordinates":[-38.8587353,-5.0479222]}},{"type":"Feature","properties":{"nome":"Ipuieirinha","osm_id":4670011612,"osm_tipo":"node","tipo_lugar":"suburb"},"geometry":{"type":"Point","coordinates":[-38.8835953,-5.0470915]}},{"type":"Feature","properties":{"nome":"Urucu","osm_id":4670011619,"osm_tipo":"node","tipo_lugar":"suburb"},"geometry":{"type":"Point","coordinates":[-38.9974391,-5.074976]}},{"type":"Feature","properties":{"nome":"Café Campestre","osm_id":4670184690,"osm_tipo":"node","tipo_lugar":"suburb"},"geometry":{"type":"Point","coordinates":[-38.902739,-4.9547058]}},{"type":"Feature","properties":{"nome":"Alto da Abelha","osm_id":4671838786,"osm_tipo":"node","tipo_lugar":"suburb"},"geometry":{"type":"Point","coordinates":[-39.0292589,-4.9314642]}},{"type":"Feature","properties":{"nome":"São João","osm_id":4671838789,"osm_tipo":"node","tipo_lugar":"suburb"},"geometry":{"type":"Point","coordinates":[-39.0283427,-4.9556599]}},{"type":"Feature","properties":{"nome":"Alto Vermelho","osm_id":4671838790,"osm_tipo":"node","tipo_lugar":"suburb"},"geometry":{"type":"Point","coordinates":[-39.0367923,-4.8246365]}},{"type":"Feature","properties":{"nome":"Fazenda Campestre","osm_id":4671838792,"osm_tipo":"node","tipo_lugar":"suburb"},"geometry":{"type":"Point","coordinates":[-39.0180248,-4.8027994]}},{"type":"Feature","properties":{"nome":"Umarí","osm_id":4671838793,"osm_tipo":"node","tipo_lugar":"suburb"},"geometry":{"type":"Point","coordinates":[-39.0208218,-4.7897424]}},{"type":"Feature","properties":{"nome":"Monte Alegre","osm_id":4671838796,"osm_tipo":"node","tipo_lugar":"suburb"},"geometry":{"type":"Point","coordinates":[-38.8641376,-4.7755885]}},{"type":"Feature","properties":{"nome":"Miguel","osm_id":4672178203,"osm_tipo":"node","tipo_lugar":"suburb"},"geometry":{"type":"Point","coordinates":[-38.704026,-5.0092348]}},{"type":"Feature","properties":{"nome":"Humaitá","osm_id":4672930828,"osm_tipo":"node","tipo_lugar":"suburb"},"geometry":{"type":"Point","coordinates":[-38.9970875,-4.7507301]}},{"type":"Feature","properties":{"nome":"Flora","osm_id":4672930837,"osm_tipo":"node","tipo_lugar":"suburb"},"geometry":{"type":"Point","coordinates":[-38.9516739,-4.874161]}},{"type":"Feature","properties":{"nome":"Serrote Branco","osm_id":4672930847,"osm_tipo":"node","tipo_lugar":"suburb"},"geometry":{"type":"Point","coordinates":[-39.0650893,-4.8411078]}},{"type":"Feature","properties":{"nome":"Saco Grande","osm_id":4672930855,"osm_tipo":"node","tipo_lugar":"suburb"},"geometry":{"type":"Point","coordinates":[-39.0902418,-4.8516034]}},{"type":"Feature","properties":{"nome":"Riacho do Meio","osm_id":4672930879,"osm_tipo":"node","tipo_lugar":"suburb"},"geometry":{"type":"Point","coordinates":[-39.0707743,-4.8879363]}},{"type":"Feature","properties":{"nome":"Santa Paz","osm_id":4672930888,"osm_tipo":"node","tipo_lugar":"suburb"},"geometry":{"type":"Point","coordinates":[-39.1494888,-5.0204494]}},{"type":"Feature","properties":{"nome":"São João do Pompeu","osm_id":4673078015,"osm_tipo":"node","tipo_lugar":"suburb"},"geometry":{"type":"Point","coordinates":[-39.0623449,-4.9972113]}},{"type":"Feature","properties":{"nome":"Residencial Rachel de Queiroz","osm_id":5859765659,"osm_tipo":"node","tipo_lugar":"suburb"},"geometry":{"type":"Point","coordinates":[-39.0585648,-4.9629899]}},{"type":"Feature","properties":{"nome":"Picos Mineiro","osm_id":8075822265,"osm_tipo":"node","tipo_lugar":"neighbourhood"},"geometry":{"type":"Point","coordinates":[-39.0824779,-5.0037031]}},{"type":"Feature","properties":{"nome":"Custódio","osm_id":394341878,"osm_tipo":"way","tipo_lugar":"neighbourhood"},"geometry":{"type":"Polygon","coordinates":[[[-39.1755227,-4.9805923],[-39.1834982,-4.9791446],[-39.1864751,-4.9795599],[-39.188073,-4.9819499],[-39.1870828,-4.9890209],[-39.1813166,-4.9939984],[-39.170308,-4.9936674],[-39.1654892,-4.990238],[-39.1715503,-4.9820663],[-39.1755227,-4.9805923]]]}},{"type":"Feature","properties":{"nome":"Picos Mineiro","osm_id":866437896,"osm_tipo":"way","tipo_lugar":"neighbourhood"},"geometry":{"type":"Polygon","coordinates":[[[-39.083655,-4.9909257],[-39.0795035,-4.99047],[-39.0718119,-5.0027796],[-39.0714943,-5.0059431],[-39.0778455,-5.0114513],[-39.083711,-5.0122515],[-39.0903985,-5.0070224],[-39.0912951,-5.0012723],[-39.0902117,-4.9986485],[-39.083655,-4.9909257]]]}}]}