{"type":"FeatureCollection","features":[{"type":"Feature","properties":{"nome":"Edson Lobo de Mesquita","osm_id":13484127711,"osm_tipo":"node","tipo_lugar":"suburb"},"geometry":{"type":"Point","coordinates":[-40.1445756,-4.3438772]}},{"type":"Feature","properties":{"nome":"Boa Vida","osm_id":13484127716,"osm_tipo":"node","tipo_lugar":"suburb"},"geometry":{"type":"Point","coordinates":[-40.1536086,-4.3249273]}},{"type":"Feature","properties":{"nome":"Raimundo Mesquita Sobrinho","osm_id":13484127717,"osm_tipo":"node","tipo_lugar":"suburb"},"geometry":{"type":"Point","coordinates":[-40.1585179,-4.3233735]}},{"type":"Feature","properties":{"nome":"Luis Demerval de Andrade","osm_id":13484127718,"osm_tipo":"node","tipo_lugar":"suburb"},"geometry":{"type":"Point","coordinates":[-40.1644707,-4.3316065]}},{"type":"Feature","properties":{"nome":"Primavera","osm_id":13484127719,"osm_tipo":"node","tipo_lugar":"suburb"},"geometry":{"type":"Point","coordinates":[-40.1610415,-4.3325372]}},{"type":"Feature","properties":{"nome":"Flores","osm_id":13484127720,"osm_tipo":"node","tipo_lugar":"suburb"},"geometry":{"type":"Point","coordinates":[-40.1490949,-4.3312454]}},{"type":"Feature","properties":{"nome":"Centro","osm_id":13484127721,"osm_tipo":"node","tipo_lugar":"suburb"},"geometry":{"type":"Point","coordinates":[-40.1553632,-4.3320665]}},{"type":"Feature","properties":{"nome":"Planalto da Piracicaba","osm_id":13484127722,"osm_tipo":"node","tipo_lugar":"suburb"},"geometry":{"type":"Point","coordinates":[-40.1533046,-4.3384185]}}]}