{"type":"FeatureCollection","features":[{"type":"Feature","properties":{"nome":"Jardim Primavera","osm_id":2836362646,"osm_tipo":"node","tipo_lugar":"neighbourhood"},"geometry":{"type":"Point","coordinates":[-52.1673459,-22.9632889]}},{"type":"Feature","properties":{"nome":"Alumínio","osm_id":3827176611,"osm_tipo":"node","tipo_lugar":"suburb"},"geometry":{"type":"Point","coordinates":[-72.6644941,-7.6296367]}},{"type":"Feature","properties":{"nome":"Bate","osm_id":3827176613,"osm_tipo":"node","tipo_lugar":"suburb"},"geometry":{"type":"Point","coordinates":[-72.6686011,-7.6107273]}},{"type":"Feature","properties":{"nome":"Centro","osm_id":3827176615,"osm_tipo":"node","tipo_lugar":"suburb"},"geometry":{"type":"Point","coordinates":[-72.6669086,-7.6355079]}},{"type":"Feature","properties":{"nome":"Cobal","osm_id":3827176616,"osm_tipo":"node","tipo_lugar":"suburb"},"geometry":{"type":"Point","coordinates":[-72.6594222,-7.6254195]}},{"type":"Feature","properties":{"nome":"Colegio","osm_id":3827176617,"osm_tipo":"node","tipo_lugar":"suburb"},"geometry":{"type":"Point","coordinates":[-72.6669979,-7.6275599]}},{"type":"Feature","properties":{"nome":"Copacabana","osm_id":3827176618,"osm_tipo":"node","tipo_lugar":"suburb"},"geometry":{"type":"Point","coordinates":[-72.6796422,-7.6232266]}},{"type":"Feature","properties":{"nome":"Cruzeirão","osm_id":3827176619,"osm_tipo":"node","tipo_lugar":"suburb"},"geometry":{"type":"Point","coordinates":[-72.6669046,-7.6187778]}},{"type":"Feature","properties":{"nome":"Floresta","osm_id":3827176621,"osm_tipo":"node","tipo_lugar":"suburb"},"geometry":{"type":"Point","coordinates":[-72.6770673,-7.6190753]}},{"type":"Feature","properties":{"nome":"Formosa","osm_id":3827176622,"osm_tipo":"node","tipo_lugar":"suburb"},"geometry":{"type":"Point","coordinates":[-72.6836884,-7.6194519]}},{"type":"Feature","properties":{"nome":"Lagoa","osm_id":3827176623,"osm_tipo":"node","tipo_lugar":"suburb"},"geometry":{"type":"Point","coordinates":[-72.6676939,-7.6385327]}},{"type":"Feature","properties":{"nome":"Morro da Glória","osm_id":3827176624,"osm_tipo":"node","tipo_lugar":"suburb"},"geometry":{"type":"Point","coordinates":[-72.6695302,-7.6313117]}},{"type":"Feature","properties":{"nome":"Remanso","osm_id":3827176626,"osm_tipo":"node","tipo_lugar":"suburb"},"geometry":{"type":"Point","coordinates":[-72.6578499,-7.6223824]}},{"type":"Feature","properties":{"nome":"São José","osm_id":3827176628,"osm_tipo":"node","tipo_lugar":"suburb"},"geometry":{"type":"Point","coordinates":[-72.671312,-7.6140368]}},{"type":"Feature","properties":{"nome":"Telégrafo","osm_id":3827176630,"osm_tipo":"node","tipo_lugar":"suburb"},"geometry":{"type":"Point","coordinates":[-72.6638142,-7.6239525]}},{"type":"Feature","properties":{"nome":"Tiro Alvo","osm_id":3827176631,"osm_tipo":"node","tipo_lugar":"suburb"},"geometry":{"type":"Point","coordinates":[-72.6588897,-7.6176042]}},{"type":"Feature","properties":{"nome":"Vila Rica","osm_id":3827176632,"osm_tipo":"node","tipo_lugar":"suburb"},"geometry":{"type":"Point","coordinates":[-72.6859252,-7.6141224]}},{"type":"Feature","properties":{"nome":"Várzea","osm_id":3827176634,"osm_tipo":"node","tipo_lugar":"suburb"},"geometry":{"type":"Point","coordinates":[-72.6586698,-7.6304101]}},{"type":"Feature","properties":{"nome":"25 de Agosto","osm_id":3827176635,"osm_tipo":"node","tipo_lugar":"suburb"},"geometry":{"type":"Point","coordinates":[-72.672574,-7.6244689]}},{"type":"Feature","properties":{"nome":"Aabb","osm_id":3864879089,"osm_tipo":"node","tipo_lugar":"suburb"},"geometry":{"type":"Point","coordinates":[-72.6854718,-7.6217697]}},{"type":"Feature","properties":{"nome":"Bairro do Remanso","osm_id":3864879090,"osm_tipo":"node","tipo_lugar":"neighbourhood"},"geometry":{"type":"Point","coordinates":[-72.6568919,-7.6130346]}},{"type":"Feature","properties":{"nome":"Cohab","osm_id":3864879091,"osm_tipo":"node","tipo_lugar":"suburb"},"geometry":{"type":"Point","coordinates":[-72.6872948,-7.6280838]}},{"type":"Feature","properties":{"nome":"João Alves","osm_id":3864879092,"osm_tipo":"node","tipo_lugar":"suburb"},"geometry":{"type":"Point","coordinates":[-72.6737959,-7.6321388]}},{"type":"Feature","properties":{"nome":"Rosa","osm_id":5312990946,"osm_tipo":"node","tipo_lugar":"suburb"},"geometry":{"type":"Point","coordinates":[-51.9965041,-29.5194349]}},{"type":"Feature","properties":{"nome":"São Gabriel","osm_id":5312990947,"osm_tipo":"node","tipo_lugar":"suburb"},"geometry":{"type":"Point","coordinates":[-52.0182246,-29.5146041]}},{"type":"Feature","properties":{"nome":"Célia","osm_id":5312990949,"osm_tipo":"node","tipo_lugar":"suburb"},"geometry":{"type":"Point","coordinates":[-51.9969426,-29.5117842]}},{"type":"Feature","properties":{"nome":"Glucostarck","osm_id":5312990950,"osm_tipo":"node","tipo_lugar":"suburb"},"geometry":{"type":"Point","coordinates":[-51.9808646,-29.5259599]}},{"type":"Feature","properties":{"nome":"Cascata","osm_id":5312990951,"osm_tipo":"node","tipo_lugar":"suburb"},"geometry":{"type":"Point","coordinates":[-51.992633,-29.5003067]}},{"type":"Feature","properties":{"nome":"Passo de Estrela","osm_id":5312990953,"osm_tipo":"node","tipo_lugar":"suburb"},"geometry":{"type":"Point","coordinates":[-51.9788169,-29.497688]}},{"type":"Feature","properties":{"nome":"Italiana","osm_id":5312990954,"osm_tipo":"node","tipo_lugar":"suburb"},"geometry":{"type":"Point","coordinates":[-51.9866595,-29.5179218]}},{"type":"Feature","properties":{"nome":"São Rafael","osm_id":5312990956,"osm_tipo":"node","tipo_lugar":"suburb"},"geometry":{"type":"Point","coordinates":[-52.0469357,-29.5073219]}},{"type":"Feature","properties":{"nome":"Eleonora Haenssgen","osm_id":5312990957,"osm_tipo":"node","tipo_lugar":"suburb"},"geometry":{"type":"Point","coordinates":[-52.0016081,-29.5148643]}},{"type":"Feature","properties":{"nome":"Zwirtes","osm_id":5312990959,"osm_tipo":"node","tipo_lugar":"suburb"},"geometry":{"type":"Point","coordinates":[-51.9803494,-29.5060921]}},{"type":"Feature","properties":{"nome":"Centro","osm_id":5312990961,"osm_tipo":"node","tipo_lugar":"suburb"},"geometry":{"type":"Point","coordinates":[-51.985962,-29.5134436]}},{"type":"Feature","properties":{"nome":"Vila Lagoa","osm_id":7418446850,"osm_tipo":"node","tipo_lugar":"suburb"},"geometry":{"type":"Point","coordinates":[-72.6714277,-7.6387104]}},{"type":"Feature","properties":{"nome":"Vila Baixa Cemitério","osm_id":7418446925,"osm_tipo":"node","tipo_lugar":"suburb"},"geometry":{"type":"Point","coordinates":[-72.6776125,-7.6326894]}},{"type":"Feature","properties":{"nome":"Vila Cruzeirinho","osm_id":7418446993,"osm_tipo":"node","tipo_lugar":"suburb"},"geometry":{"type":"Point","coordinates":[-72.6803327,-7.6421025]}},{"type":"Feature","properties":{"nome":"Loteamento Safira","osm_id":1193222779,"osm_tipo":"way","tipo_lugar":"neighbourhood"},"geometry":{"type":"Polygon","coordinates":[[[-52.0198828,-29.4808546],[-52.0148481,-29.47982],[-52.014792,-29.4821435],[-52.0198828,-29.4808546]]]}}]}