{"type":"FeatureCollection","features":[{"type":"Feature","properties":{"nome":"Jardim Universitário","osm_id":8194223947,"osm_tipo":"node","tipo_lugar":"suburb"},"geometry":{"type":"Point","coordinates":[-53.0551042,-24.1876317]}},{"type":"Feature","properties":{"nome":"Vila Nossa Senhora das Candeias","osm_id":10722632836,"osm_tipo":"node","tipo_lugar":"suburb"},"geometry":{"type":"Point","coordinates":[-53.0200193,-24.1702766]}},{"type":"Feature","properties":{"nome":"Jardim América","osm_id":10722632837,"osm_tipo":"node","tipo_lugar":"suburb"},"geometry":{"type":"Point","coordinates":[-53.0254716,-24.1726378]}},{"type":"Feature","properties":{"nome":"Jardim Curitiba","osm_id":10722632844,"osm_tipo":"node","tipo_lugar":"suburb"},"geometry":{"type":"Point","coordinates":[-53.020076,-24.177389]}},{"type":"Feature","properties":{"nome":"Jardim Canadá","osm_id":10724755806,"osm_tipo":"node","tipo_lugar":"suburb"},"geometry":{"type":"Point","coordinates":[-53.0119966,-24.1812028]}},{"type":"Feature","properties":{"nome":"Conjunto Cidade Alta","osm_id":10728769238,"osm_tipo":"node","tipo_lugar":"suburb"},"geometry":{"type":"Point","coordinates":[-53.0090461,-24.1839469]}},{"type":"Feature","properties":{"nome":"Galileia","osm_id":10740689832,"osm_tipo":"node","tipo_lugar":"suburb"},"geometry":{"type":"Point","coordinates":[-53.0276962,-24.1776965]}},{"type":"Feature","properties":{"nome":"Jardim Primavera","osm_id":10740689878,"osm_tipo":"node","tipo_lugar":"suburb"},"geometry":{"type":"Point","coordinates":[-53.0315921,-24.1784061]}},{"type":"Feature","properties":{"nome":"Jardim Tropical","osm_id":10744267439,"osm_tipo":"node","tipo_lugar":"suburb"},"geometry":{"type":"Point","coordinates":[-53.0348124,-24.1763691]}},{"type":"Feature","properties":{"nome":"Jardim Bela Vista","osm_id":10744267482,"osm_tipo":"node","tipo_lugar":"suburb"},"geometry":{"type":"Point","coordinates":[-53.0368935,-24.1754944]}},{"type":"Feature","properties":{"nome":"Vila Guaíra","osm_id":10746870829,"osm_tipo":"node","tipo_lugar":"suburb"},"geometry":{"type":"Point","coordinates":[-53.035879,-24.1856043]}},{"type":"Feature","properties":{"nome":"Jardim Cristo Rey","osm_id":10747666167,"osm_tipo":"node","tipo_lugar":"suburb"},"geometry":{"type":"Point","coordinates":[-53.0432682,-24.1812734]}},{"type":"Feature","properties":{"nome":"Distrito Industrial","osm_id":10747666193,"osm_tipo":"node","tipo_lugar":"suburb"},"geometry":{"type":"Point","coordinates":[-53.0413655,-24.1885002]}},{"type":"Feature","properties":{"nome":"Conjunto Águas Claras","osm_id":10749146109,"osm_tipo":"node","tipo_lugar":"suburb"},"geometry":{"type":"Point","coordinates":[-53.0395549,-24.1913665]}},{"type":"Feature","properties":{"nome":"Vitória Régia","osm_id":10749146276,"osm_tipo":"node","tipo_lugar":"suburb"},"geometry":{"type":"Point","coordinates":[-53.0371726,-24.1913401]}},{"type":"Feature","properties":{"nome":"Santa Mônica","osm_id":10749146298,"osm_tipo":"node","tipo_lugar":"suburb"},"geometry":{"type":"Point","coordinates":[-53.0368376,-24.1942008]}},{"type":"Feature","properties":{"nome":"Santa Casa","osm_id":10749753399,"osm_tipo":"node","tipo_lugar":"suburb"},"geometry":{"type":"Point","coordinates":[-53.0322231,-24.1943078]}},{"type":"Feature","properties":{"nome":"Centro","osm_id":10749773911,"osm_tipo":"node","tipo_lugar":"suburb"},"geometry":{"type":"Point","coordinates":[-53.0280496,-24.1858333]}},{"type":"Feature","properties":{"nome":"Jardim Europa","osm_id":10755230043,"osm_tipo":"node","tipo_lugar":"suburb"},"geometry":{"type":"Point","coordinates":[-53.013589,-24.1869896]}},{"type":"Feature","properties":{"nome":"Jardim Lindoia","osm_id":10755230066,"osm_tipo":"node","tipo_lugar":"suburb"},"geometry":{"type":"Point","coordinates":[-53.022754,-24.1883595]}},{"type":"Feature","properties":{"nome":"Jardim Colina Verde","osm_id":10962331521,"osm_tipo":"node","tipo_lugar":"suburb"},"geometry":{"type":"Point","coordinates":[-53.0227325,-24.1951037]}},{"type":"Feature","properties":{"nome":"Parque Cidade Jardim","osm_id":10962331550,"osm_tipo":"node","tipo_lugar":"suburb"},"geometry":{"type":"Point","coordinates":[-53.0183365,-24.1921928]}},{"type":"Feature","properties":{"nome":"Jardim Morumbi","osm_id":10962331552,"osm_tipo":"node","tipo_lugar":"suburb"},"geometry":{"type":"Point","coordinates":[-53.0166737,-24.187201]}},{"type":"Feature","properties":{"nome":"Condomínio Porto das Águas","osm_id":15611475,"osm_tipo":"relation","tipo_lugar":"suburb"},"geometry":{"type":"MultiPolygon","coordinates":[[[[-53.0024724,-24.1837257],[-53.0018649,-24.182777],[-53.0007545,-24.1820582],[-53.000664,-24.1817244],[-53.0024724,-24.1837257]]],[[[-53.000664,-24.1817244],[-52.9999991,-24.1792721],[-53.0029378,-24.1784241],[-53.0041293,-24.1831351],[-53.0031661,-24.1838401],[-53.000664,-24.1817244]]],[[[-53.0031661,-24.1838401],[-53.0029001,-24.1840356],[-53.0024724,-24.1837257],[-53.0031661,-24.1838401]]]]}}]}