{"type":"FeatureCollection","features":[{"type":"Feature","properties":{"nome":"Vivendas","osm_id":3599508393,"osm_tipo":"node","tipo_lugar":"suburb"},"geometry":{"type":"Point","coordinates":[-48.307723,-20.3134473]}},{"type":"Feature","properties":{"nome":"Industrial 2","osm_id":3600366119,"osm_tipo":"node","tipo_lugar":"suburb"},"geometry":{"type":"Point","coordinates":[-48.3106913,-20.339578]}},{"type":"Feature","properties":{"nome":"Jardim Palmares","osm_id":3600366120,"osm_tipo":"node","tipo_lugar":"suburb"},"geometry":{"type":"Point","coordinates":[-48.3207174,-20.3366143]}},{"type":"Feature","properties":{"nome":"Muraishi","osm_id":3600366121,"osm_tipo":"node","tipo_lugar":"suburb"},"geometry":{"type":"Point","coordinates":[-48.3228322,-20.3404594]}},{"type":"Feature","properties":{"nome":"Nobre Ville","osm_id":3600366122,"osm_tipo":"node","tipo_lugar":"suburb"},"geometry":{"type":"Point","coordinates":[-48.3162074,-20.3393138]}},{"type":"Feature","properties":{"nome":"Bom Jesus da Lapa","osm_id":3600765876,"osm_tipo":"node","tipo_lugar":"suburb"},"geometry":{"type":"Point","coordinates":[-48.3095384,-20.3277427]}},{"type":"Feature","properties":{"nome":"Eldorado","osm_id":3600765877,"osm_tipo":"node","tipo_lugar":"suburb"},"geometry":{"type":"Point","coordinates":[-48.3065155,-20.3314918]}},{"type":"Feature","properties":{"nome":"Jardim Caliifórnia","osm_id":3600765878,"osm_tipo":"node","tipo_lugar":"suburb"},"geometry":{"type":"Point","coordinates":[-48.3255655,-20.3051168]}},{"type":"Feature","properties":{"nome":"Residencial Ligia","osm_id":3600765879,"osm_tipo":"node","tipo_lugar":"suburb"},"geometry":{"type":"Point","coordinates":[-48.3213779,-20.3056304]}},{"type":"Feature","properties":{"nome":"Nádia","osm_id":3600765880,"osm_tipo":"node","tipo_lugar":"suburb"},"geometry":{"type":"Point","coordinates":[-48.3068571,-20.3286763]}},{"type":"Feature","properties":{"nome":"Bairro Antônio Garcia","osm_id":3600834564,"osm_tipo":"node","tipo_lugar":"suburb"},"geometry":{"type":"Point","coordinates":[-48.3219202,-20.3118289]}},{"type":"Feature","properties":{"nome":"Joaquim Pereira","osm_id":3600834565,"osm_tipo":"node","tipo_lugar":"suburb"},"geometry":{"type":"Point","coordinates":[-48.3258341,-20.311255]}},{"type":"Feature","properties":{"nome":"Residencial Tais","osm_id":3600834566,"osm_tipo":"node","tipo_lugar":"suburb"},"geometry":{"type":"Point","coordinates":[-48.3214679,-20.3095376]}},{"type":"Feature","properties":{"nome":"Centro","osm_id":6014364901,"osm_tipo":"node","tipo_lugar":"suburb"},"geometry":{"type":"Point","coordinates":[-48.311471,-20.318386]}},{"type":"Feature","properties":{"nome":"Maracá","osm_id":6014426400,"osm_tipo":"node","tipo_lugar":"suburb"},"geometry":{"type":"Point","coordinates":[-48.3115954,-20.3286819]}},{"type":"Feature","properties":{"nome":"Vila Aparecida","osm_id":6014464154,"osm_tipo":"node","tipo_lugar":"suburb"},"geometry":{"type":"Point","coordinates":[-48.3218473,-20.3269999]}},{"type":"Feature","properties":{"nome":"Jardim Elisa","osm_id":6396948603,"osm_tipo":"node","tipo_lugar":"suburb"},"geometry":{"type":"Point","coordinates":[-48.3269475,-20.3313041]}},{"type":"Feature","properties":{"nome":"Cohab 2","osm_id":6396948604,"osm_tipo":"node","tipo_lugar":"suburb"},"geometry":{"type":"Point","coordinates":[-48.326175,-20.3362817]}},{"type":"Feature","properties":{"nome":"Antônio Manoel","osm_id":6396948605,"osm_tipo":"node","tipo_lugar":"suburb"},"geometry":{"type":"Point","coordinates":[-48.3301912,-20.3342323]}},{"type":"Feature","properties":{"nome":"Cohab 1","osm_id":6396948606,"osm_tipo":"node","tipo_lugar":"suburb"},"geometry":{"type":"Point","coordinates":[-48.3292759,-20.3267353]}},{"type":"Feature","properties":{"nome":"João Vaccaro","osm_id":6396948607,"osm_tipo":"node","tipo_lugar":"suburb"},"geometry":{"type":"Point","coordinates":[-48.3297802,-20.3237575]}}]}