{"type":"FeatureCollection","features":[{"type":"Feature","properties":{"nome":"Centro","osm_id":359501485,"osm_tipo":"node","tipo_lugar":"suburb"},"geometry":{"type":"Point","coordinates":[-51.1620802,-23.3138659]}},{"type":"Feature","properties":{"nome":"Jardim Petrópolis","osm_id":1723330242,"osm_tipo":"node","tipo_lugar":"suburb"},"geometry":{"type":"Point","coordinates":[-51.1566272,-23.3313713]}},{"type":"Feature","properties":{"nome":"Portal dos Pioneiros","osm_id":2223207171,"osm_tipo":"node","tipo_lugar":"neighbourhood"},"geometry":{"type":"Point","coordinates":[-51.1159599,-23.3117079]}},{"type":"Feature","properties":{"nome":"Violin","osm_id":4576608819,"osm_tipo":"node","tipo_lugar":"suburb"},"geometry":{"type":"Point","coordinates":[-51.1500559,-23.2605957]}},{"type":"Feature","properties":{"nome":"União da Vitória","osm_id":5602468795,"osm_tipo":"node","tipo_lugar":"suburb"},"geometry":{"type":"Point","coordinates":[-51.1229488,-23.3860296]}},{"type":"Feature","properties":{"nome":"Cidade Industrial 1","osm_id":5605732871,"osm_tipo":"node","tipo_lugar":"suburb"},"geometry":{"type":"Point","coordinates":[-51.1147391,-23.2674378]}},{"type":"Feature","properties":{"nome":"Saltinho","osm_id":5608100220,"osm_tipo":"node","tipo_lugar":"suburb"},"geometry":{"type":"Point","coordinates":[-51.1458549,-23.3780096]}},{"type":"Feature","properties":{"nome":"Cafezal","osm_id":5608100821,"osm_tipo":"node","tipo_lugar":"suburb"},"geometry":{"type":"Point","coordinates":[-51.1532999,-23.3670032]}},{"type":"Feature","properties":{"nome":"Parque das Indústrias","osm_id":5608128072,"osm_tipo":"node","tipo_lugar":"suburb"},"geometry":{"type":"Point","coordinates":[-51.1302969,-23.3668389]}},{"type":"Feature","properties":{"nome":"Inglaterra","osm_id":5608151922,"osm_tipo":"node","tipo_lugar":"suburb"},"geometry":{"type":"Point","coordinates":[-51.1476435,-23.3469152]}},{"type":"Feature","properties":{"nome":"Cinco Conjuntos","osm_id":5610456922,"osm_tipo":"node","tipo_lugar":"suburb"},"geometry":{"type":"Point","coordinates":[-51.1438104,-23.2607206]}},{"type":"Feature","properties":{"nome":"Heimtal","osm_id":5775064203,"osm_tipo":"node","tipo_lugar":"suburb"},"geometry":{"type":"Point","coordinates":[-51.1579864,-23.2512127]}},{"type":"Feature","properties":{"nome":"Cilo 2","osm_id":5775884603,"osm_tipo":"node","tipo_lugar":"neighbourhood"},"geometry":{"type":"Point","coordinates":[-51.2211717,-23.2938101]}},{"type":"Feature","properties":{"nome":"Cilo 3","osm_id":5775884657,"osm_tipo":"node","tipo_lugar":"neighbourhood"},"geometry":{"type":"Point","coordinates":[-51.2185329,-23.2843892]}},{"type":"Feature","properties":{"nome":"Bandeirantes","osm_id":5775888693,"osm_tipo":"node","tipo_lugar":"suburb"},"geometry":{"type":"Point","coordinates":[-51.2044724,-23.3033818]}},{"type":"Feature","properties":{"nome":"Parque Ouro Verde","osm_id":5775903781,"osm_tipo":"node","tipo_lugar":"neighbourhood"},"geometry":{"type":"Point","coordinates":[-51.1827432,-23.2766617]}},{"type":"Feature","properties":{"nome":"Jardim Alpes","osm_id":5779716162,"osm_tipo":"node","tipo_lugar":"neighbourhood"},"geometry":{"type":"Point","coordinates":[-51.164041,-23.2830941]}},{"type":"Feature","properties":{"nome":"Conjunto Vivi Xavier","osm_id":5781687626,"osm_tipo":"node","tipo_lugar":"neighbourhood"},"geometry":{"type":"Point","coordinates":[-51.1690795,-23.2603879]}},{"type":"Feature","properties":{"nome":"Jardim Ideal","osm_id":5781721573,"osm_tipo":"node","tipo_lugar":"neighbourhood"},"geometry":{"type":"Point","coordinates":[-51.1355461,-23.2986841]}},{"type":"Feature","properties":{"nome":"Parque das Indústrias Leves","osm_id":5781721574,"osm_tipo":"node","tipo_lugar":"neighbourhood"},"geometry":{"type":"Point","coordinates":[-51.131589,-23.2885829]}},{"type":"Feature","properties":{"nome":"Jardim Pacaembu","osm_id":5781740774,"osm_tipo":"node","tipo_lugar":"neighbourhood"},"geometry":{"type":"Point","coordinates":[-51.1469627,-23.2792214]}},{"type":"Feature","properties":{"nome":"Jamaica","osm_id":5784532996,"osm_tipo":"node","tipo_lugar":"suburb"},"geometry":{"type":"Point","coordinates":[-51.1972178,-23.3119714]}},{"type":"Feature","properties":{"nome":"Antares","osm_id":5784551088,"osm_tipo":"node","tipo_lugar":"suburb"},"geometry":{"type":"Point","coordinates":[-51.1244104,-23.3164783]}},{"type":"Feature","properties":{"nome":"Brasilia","osm_id":5784559358,"osm_tipo":"node","tipo_lugar":"suburb"},"geometry":{"type":"Point","coordinates":[-51.1379677,-23.3201336]}},{"type":"Feature","properties":{"nome":"Aeroporto","osm_id":5784559359,"osm_tipo":"node","tipo_lugar":"suburb"},"geometry":{"type":"Point","coordinates":[-51.1307194,-23.3310664]}},{"type":"Feature","properties":{"nome":"Bela Suíça","osm_id":5784573461,"osm_tipo":"node","tipo_lugar":"suburb"},"geometry":{"type":"Point","coordinates":[-51.1635215,-23.3352349]}},{"type":"Feature","properties":{"nome":"Higienópolis","osm_id":5784573462,"osm_tipo":"node","tipo_lugar":"suburb"},"geometry":{"type":"Point","coordinates":[-51.1674146,-23.3245625]}},{"type":"Feature","properties":{"nome":"Vila Brasil","osm_id":5784582277,"osm_tipo":"node","tipo_lugar":"suburb"},"geometry":{"type":"Point","coordinates":[-51.1503844,-23.3275089]}},{"type":"Feature","properties":{"nome":"Conjunto Habitacional Ernani Moura Lima","osm_id":5784789187,"osm_tipo":"node","tipo_lugar":"neighbourhood"},"geometry":{"type":"Point","coordinates":[-51.1115979,-23.3281803]}},{"type":"Feature","properties":{"nome":"Conjunto Habitacional Parigot de Souza","osm_id":5787123806,"osm_tipo":"node","tipo_lugar":"neighbourhood"},"geometry":{"type":"Point","coordinates":[-51.1847386,-23.2636599]}},{"type":"Feature","properties":{"nome":"Vila Casoni","osm_id":5790255607,"osm_tipo":"node","tipo_lugar":"neighbourhood"},"geometry":{"type":"Point","coordinates":[-51.1494238,-23.3001297]}},{"type":"Feature","properties":{"nome":"Presidente","osm_id":5792180369,"osm_tipo":"node","tipo_lugar":"suburb"},"geometry":{"type":"Point","coordinates":[-51.1804341,-23.3114837]}},{"type":"Feature","properties":{"nome":"Olímpico","osm_id":5807628126,"osm_tipo":"node","tipo_lugar":"suburb"},"geometry":{"type":"Point","coordinates":[-51.2251096,-23.3249865]}},{"type":"Feature","properties":{"nome":"Jardim Sabará","osm_id":5807628127,"osm_tipo":"node","tipo_lugar":"suburb"},"geometry":{"type":"Point","coordinates":[-51.2140119,-23.3147868]}},{"type":"Feature","properties":{"nome":"Vila Portuguesa","osm_id":5812241803,"osm_tipo":"node","tipo_lugar":"neighbourhood"},"geometry":{"type":"Point","coordinates":[-51.1551581,-23.3003062]}},{"type":"Feature","properties":{"nome":"Esperança","osm_id":5812694634,"osm_tipo":"node","tipo_lugar":"suburb"},"geometry":{"type":"Point","coordinates":[-51.2093108,-23.3478448]}},{"type":"Feature","properties":{"nome":"Tucanos","osm_id":5815135661,"osm_tipo":"node","tipo_lugar":"suburb"},"geometry":{"type":"Point","coordinates":[-51.1601942,-23.3436882]}},{"type":"Feature","properties":{"nome":"Jardim Montecatini","osm_id":5818458690,"osm_tipo":"node","tipo_lugar":"neighbourhood"},"geometry":{"type":"Point","coordinates":[-51.1129096,-23.29614]}},{"type":"Feature","properties":{"nome":"Gleba Palhano","osm_id":5819413330,"osm_tipo":"node","tipo_lugar":"neighbourhood"},"geometry":{"type":"Point","coordinates":[-51.1854217,-23.3294303]}},{"type":"Feature","properties":{"nome":"Universidade","osm_id":5819413331,"osm_tipo":"node","tipo_lugar":"suburb"},"geometry":{"type":"Point","coordinates":[-51.2073716,-23.3270333]}},{"type":"Feature","properties":{"nome":"Cidade Industrial 2","osm_id":5820099839,"osm_tipo":"node","tipo_lugar":"neighbourhood"},"geometry":{"type":"Point","coordinates":[-51.1090107,-23.2986785]}},{"type":"Feature","properties":{"nome":"Jardim São Paulo II","osm_id":5823317089,"osm_tipo":"node","tipo_lugar":"neighbourhood"},"geometry":{"type":"Point","coordinates":[-51.1762897,-23.2554217]}},{"type":"Feature","properties":{"nome":"Chefe Habitacional Chefe Newton Guimarães","osm_id":5824476766,"osm_tipo":"node","tipo_lugar":"neighbourhood"},"geometry":{"type":"Point","coordinates":[-51.1857486,-23.2578116]}},{"type":"Feature","properties":{"nome":"José Giordano","osm_id":5824476767,"osm_tipo":"node","tipo_lugar":"neighbourhood"},"geometry":{"type":"Point","coordinates":[-51.1841612,-23.2588357]}},{"type":"Feature","properties":{"nome":"Vila Romana","osm_id":5825471832,"osm_tipo":"node","tipo_lugar":"neighbourhood"},"geometry":{"type":"Point","coordinates":[-51.1162718,-23.2876079]}},{"type":"Feature","properties":{"nome":"Jardim Almanha","osm_id":5825500701,"osm_tipo":"node","tipo_lugar":"neighbourhood"},"geometry":{"type":"Point","coordinates":[-51.120738,-23.2887096]}},{"type":"Feature","properties":{"nome":"Conjunto Habitacional José Bonifácio e Silva","osm_id":5851571698,"osm_tipo":"node","tipo_lugar":"neighbourhood"},"geometry":{"type":"Point","coordinates":[-51.105057,-23.3302015]}},{"type":"Feature","properties":{"nome":"Central Park Residence","osm_id":6241574661,"osm_tipo":"node","tipo_lugar":"neighbourhood"},"geometry":{"type":"Point","coordinates":[-51.1900587,-23.3190524]}},{"type":"Feature","properties":{"nome":"Jardim Universitário","osm_id":6241574662,"osm_tipo":"node","tipo_lugar":"neighbourhood"},"geometry":{"type":"Point","coordinates":[-51.1879039,-23.3188521]}},{"type":"Feature","properties":{"nome":"Jardim Arpoador","osm_id":6241688716,"osm_tipo":"node","tipo_lugar":"neighbourhood"},"geometry":{"type":"Point","coordinates":[-51.1464997,-23.3384014]}},{"type":"Feature","properties":{"nome":"Novo Perobal","osm_id":6242000071,"osm_tipo":"node","tipo_lugar":"neighbourhood"},"geometry":{"type":"Point","coordinates":[-51.1253434,-23.3711961]}},{"type":"Feature","properties":{"nome":"Conjunto Habitacional Barbara Daher","osm_id":6251522781,"osm_tipo":"node","tipo_lugar":"neighbourhood"},"geometry":{"type":"Point","coordinates":[-51.1569829,-23.3728481]}},{"type":"Feature","properties":{"nome":"Conjunto Habitacional Anibal Siqueira Cabral","osm_id":6251555723,"osm_tipo":"node","tipo_lugar":"neighbourhood"},"geometry":{"type":"Point","coordinates":[-51.1528343,-23.3710263]}},{"type":"Feature","properties":{"nome":"Conjunto Habitacional Avelino Antônio Vieira","osm_id":6255640391,"osm_tipo":"node","tipo_lugar":"neighbourhood"},"geometry":{"type":"Point","coordinates":[-51.2268996,-23.3164439]}},{"type":"Feature","properties":{"nome":"Residencial Horizonte I","osm_id":6382196189,"osm_tipo":"node","tipo_lugar":"neighbourhood"},"geometry":{"type":"Point","coordinates":[-51.1877769,-23.2504394]}},{"type":"Feature","properties":{"nome":"Vila Nova","osm_id":6415214615,"osm_tipo":"node","tipo_lugar":"suburb"},"geometry":{"type":"Point","coordinates":[-51.1668803,-23.2970506]}},{"type":"Feature","properties":{"nome":"Jardim Marissol","osm_id":6531972994,"osm_tipo":"node","tipo_lugar":"neighbourhood"},"geometry":{"type":"Point","coordinates":[-51.1211789,-23.2942324]}},{"type":"Feature","properties":{"nome":"Jardim Laranjeiras","osm_id":6532029255,"osm_tipo":"node","tipo_lugar":"neighbourhood"},"geometry":{"type":"Point","coordinates":[-51.1273028,-23.3089525]}},{"type":"Feature","properties":{"nome":"Conjunto Habitacional Mister Thomas","osm_id":6535309377,"osm_tipo":"node","tipo_lugar":"neighbourhood"},"geometry":{"type":"Point","coordinates":[-51.1279204,-23.2814496]}},{"type":"Feature","properties":{"nome":"Conjunto Habitacional Lindóia","osm_id":6535338591,"osm_tipo":"node","tipo_lugar":"neighbourhood"},"geometry":{"type":"Point","coordinates":[-51.1231245,-23.2846797]}},{"type":"Feature","properties":{"nome":"Jardim Catuaí","osm_id":6535352966,"osm_tipo":"node","tipo_lugar":"neighbourhood"},"geometry":{"type":"Point","coordinates":[-51.1356107,-23.2573831]}},{"type":"Feature","properties":{"nome":"Jardim Vista Bela","osm_id":6564587853,"osm_tipo":"node","tipo_lugar":"neighbourhood"},"geometry":{"type":"Point","coordinates":[-51.2030323,-23.2686419]}},{"type":"Feature","properties":{"nome":"Jardim Padovani","osm_id":6565970324,"osm_tipo":"node","tipo_lugar":"neighbourhood"},"geometry":{"type":"Point","coordinates":[-51.1970249,-23.2651]}},{"type":"Feature","properties":{"nome":"Jadim Maria Celina","osm_id":6565970344,"osm_tipo":"node","tipo_lugar":"neighbourhood"},"geometry":{"type":"Point","coordinates":[-51.1930565,-23.2656511]}},{"type":"Feature","properties":{"nome":"Conjunto Residencial do Café","osm_id":6567777059,"osm_tipo":"node","tipo_lugar":"neighbourhood"},"geometry":{"type":"Point","coordinates":[-51.1820363,-23.2655591]}},{"type":"Feature","properties":{"nome":"Jardim Palmas","osm_id":6567777064,"osm_tipo":"node","tipo_lugar":"neighbourhood"},"geometry":{"type":"Point","coordinates":[-51.1841208,-23.2686029]}},{"type":"Feature","properties":{"nome":"Jardim Paracatu","osm_id":6567777075,"osm_tipo":"node","tipo_lugar":"neighbourhood"},"geometry":{"type":"Point","coordinates":[-51.187113,-23.2681316]}},{"type":"Feature","properties":{"nome":"Conjunto Habitacional das Flores","osm_id":6688212279,"osm_tipo":"node","tipo_lugar":"neighbourhood"},"geometry":{"type":"Point","coordinates":[-51.1542216,-23.3585943]}},{"type":"Feature","properties":{"nome":"Parque residencial Campos Elísios","osm_id":6694755812,"osm_tipo":"node","tipo_lugar":"neighbourhood"},"geometry":{"type":"Point","coordinates":[-51.1355261,-23.3776354]}},{"type":"Feature","properties":{"nome":"Conjunto Habitacional Tito Carneiro Leal","osm_id":6694755813,"osm_tipo":"node","tipo_lugar":"neighbourhood"},"geometry":{"type":"Point","coordinates":[-51.1435194,-23.3715731]}},{"type":"Feature","properties":{"nome":"Jardim Tarobá","osm_id":6694755814,"osm_tipo":"node","tipo_lugar":"neighbourhood"},"geometry":{"type":"Point","coordinates":[-51.1466141,-23.3670904]}},{"type":"Feature","properties":{"nome":"Jardim Acapulco","osm_id":6694755824,"osm_tipo":"node","tipo_lugar":"neighbourhood"},"geometry":{"type":"Point","coordinates":[-51.1572338,-23.3633174]}},{"type":"Feature","properties":{"nome":"Conjunto Habitacional Antônio Marçal Nogueira","osm_id":6694755825,"osm_tipo":"node","tipo_lugar":"neighbourhood"},"geometry":{"type":"Point","coordinates":[-51.1576585,-23.3687886]}},{"type":"Feature","properties":{"nome":"Conjunto Habitacional Gomes dos Santos","osm_id":6694755826,"osm_tipo":"node","tipo_lugar":"neighbourhood"},"geometry":{"type":"Point","coordinates":[-51.1598528,-23.3713877]}},{"type":"Feature","properties":{"nome":"Jardim Alto do Cafezal","osm_id":6694755827,"osm_tipo":"node","tipo_lugar":"neighbourhood"},"geometry":{"type":"Point","coordinates":[-51.1522648,-23.3767676]}},{"type":"Feature","properties":{"nome":"Conjunto Habitacional Três Marcos","osm_id":6694755828,"osm_tipo":"node","tipo_lugar":"neighbourhood"},"geometry":{"type":"Point","coordinates":[-51.1528614,-23.3587559]}},{"type":"Feature","properties":{"nome":"Parque Ouro Branco","osm_id":6694755829,"osm_tipo":"node","tipo_lugar":"neighbourhood"},"geometry":{"type":"Point","coordinates":[-51.145014,-23.361558]}},{"type":"Feature","properties":{"nome":"Jardim Monte Belo","osm_id":6694755830,"osm_tipo":"node","tipo_lugar":"neighbourhood"},"geometry":{"type":"Point","coordinates":[-51.13997,-23.3592518]}},{"type":"Feature","properties":{"nome":"Conjunto Habitacional João Baptista de Almeida Barros","osm_id":6694755831,"osm_tipo":"node","tipo_lugar":"neighbourhood"},"geometry":{"type":"Point","coordinates":[-51.1374595,-23.3586017]}},{"type":"Feature","properties":{"nome":"Jardim Franciscato 2","osm_id":6697071147,"osm_tipo":"node","tipo_lugar":"neighbourhood"},"geometry":{"type":"Point","coordinates":[-51.1282809,-23.3729312]}},{"type":"Feature","properties":{"nome":"Jardim Franciscato 1","osm_id":6697071148,"osm_tipo":"node","tipo_lugar":"neighbourhood"},"geometry":{"type":"Point","coordinates":[-51.1311918,-23.3731418]}},{"type":"Feature","properties":{"nome":"Jardim Santa Joana","osm_id":6697071149,"osm_tipo":"node","tipo_lugar":"neighbourhood"},"geometry":{"type":"Point","coordinates":[-51.1315361,-23.3772103]}},{"type":"Feature","properties":{"nome":"Jardim Cristal","osm_id":6697071150,"osm_tipo":"node","tipo_lugar":"neighbourhood"},"geometry":{"type":"Point","coordinates":[-51.1301199,-23.3789534]}},{"type":"Feature","properties":{"nome":"Jardim Itapoã","osm_id":6697071151,"osm_tipo":"node","tipo_lugar":"neighbourhood"},"geometry":{"type":"Point","coordinates":[-51.1339457,-23.3736253]}},{"type":"Feature","properties":{"nome":"Jardim Franciscato","osm_id":6697095300,"osm_tipo":"node","tipo_lugar":"neighbourhood"},"geometry":{"type":"Point","coordinates":[-51.1362488,-23.3727431]}},{"type":"Feature","properties":{"nome":"Jardim Perobal","osm_id":6697133340,"osm_tipo":"node","tipo_lugar":"neighbourhood"},"geometry":{"type":"Point","coordinates":[-51.1311835,-23.3716492]}},{"type":"Feature","properties":{"nome":"Jardim Jatobá","osm_id":6697133341,"osm_tipo":"node","tipo_lugar":"neighbourhood"},"geometry":{"type":"Point","coordinates":[-51.127818,-23.3677471]}},{"type":"Feature","properties":{"nome":"Conjunto Habitacional São Lourenço","osm_id":6697133342,"osm_tipo":"node","tipo_lugar":"neighbourhood"},"geometry":{"type":"Point","coordinates":[-51.1314949,-23.3681718]}},{"type":"Feature","properties":{"nome":"Jardim Piazentin","osm_id":6697133343,"osm_tipo":"node","tipo_lugar":"neighbourhood"},"geometry":{"type":"Point","coordinates":[-51.1343192,-23.3682515]}},{"type":"Feature","properties":{"nome":"Conjunto Habitacional das Indústrias","osm_id":6697133344,"osm_tipo":"node","tipo_lugar":"neighbourhood"},"geometry":{"type":"Point","coordinates":[-51.1368703,-23.369462]}},{"type":"Feature","properties":{"nome":"Parque das Indústrias","osm_id":6697133345,"osm_tipo":"node","tipo_lugar":"neighbourhood"},"geometry":{"type":"Point","coordinates":[-51.1368333,-23.3661472]}},{"type":"Feature","properties":{"nome":"Jardim São Marcos","osm_id":6697164362,"osm_tipo":"node","tipo_lugar":"neighbourhood"},"geometry":{"type":"Point","coordinates":[-51.1300796,-23.3644275]}},{"type":"Feature","properties":{"nome":"Conjunto Habitacional Barra Vento","osm_id":6699124492,"osm_tipo":"node","tipo_lugar":"neighbourhood"},"geometry":{"type":"Point","coordinates":[-51.1544374,-23.2993393]}},{"type":"Feature","properties":{"nome":"Jardim Abussafe","osm_id":6871408645,"osm_tipo":"node","tipo_lugar":"neighbourhood"},"geometry":{"type":"Point","coordinates":[-51.1098221,-23.3182533]}},{"type":"Feature","properties":{"nome":"Jardim Caiçaras","osm_id":7063759485,"osm_tipo":"node","tipo_lugar":"neighbourhood"},"geometry":{"type":"Point","coordinates":[-51.154383,-23.3351385]}},{"type":"Feature","properties":{"nome":"Jardim Nova Londres","osm_id":7063830752,"osm_tipo":"node","tipo_lugar":"neighbourhood"},"geometry":{"type":"Point","coordinates":[-51.1557163,-23.3324649]}},{"type":"Feature","properties":{"nome":"Vila Fujita","osm_id":7063830753,"osm_tipo":"node","tipo_lugar":"neighbourhood"},"geometry":{"type":"Point","coordinates":[-51.1538641,-23.3330533]}},{"type":"Feature","properties":{"nome":"Jardim Moradas de Portugal","osm_id":7212471321,"osm_tipo":"node","tipo_lugar":"neighbourhood"},"geometry":{"type":"Point","coordinates":[-51.2028384,-23.2631664]}},{"type":"Feature","properties":{"nome":"Residencial Horizonte II","osm_id":7212489850,"osm_tipo":"node","tipo_lugar":"neighbourhood"},"geometry":{"type":"Point","coordinates":[-51.1877549,-23.2451607]}},{"type":"Feature","properties":{"nome":"Jardim São Jorge","osm_id":7212637647,"osm_tipo":"node","tipo_lugar":"neighbourhood"},"geometry":{"type":"Point","coordinates":[-51.1899941,-23.2522029]}},{"type":"Feature","properties":{"nome":"Residencial Gleba Esperança","osm_id":7213050892,"osm_tipo":"node","tipo_lugar":"neighbourhood"},"geometry":{"type":"Point","coordinates":[-51.2216289,-23.3299053]}},{"type":"Feature","properties":{"nome":"Parque Universidade","osm_id":7213082852,"osm_tipo":"node","tipo_lugar":"neighbourhood"},"geometry":{"type":"Point","coordinates":[-51.2170409,-23.3334357]}},{"type":"Feature","properties":{"nome":"Jardim Columbia","osm_id":7213094600,"osm_tipo":"node","tipo_lugar":"neighbourhood"},"geometry":{"type":"Point","coordinates":[-51.2131251,-23.3243491]}},{"type":"Feature","properties":{"nome":"Jardim Cláudia","osm_id":7215019445,"osm_tipo":"node","tipo_lugar":"neighbourhood"},"geometry":{"type":"Point","coordinates":[-51.1719855,-23.3374826]}},{"type":"Feature","properties":{"nome":"Vila Yara","osm_id":7737104538,"osm_tipo":"node","tipo_lugar":"neighbourhood"},"geometry":{"type":"Point","coordinates":[-51.1444686,-23.2926298]}},{"type":"Feature","properties":{"nome":"Conjunto Habitacional Jácomo Violin","osm_id":10004222656,"osm_tipo":"node","tipo_lugar":"neighbourhood"},"geometry":{"type":"Point","coordinates":[-51.1525927,-23.2650186]}},{"type":"Feature","properties":{"nome":"Jardim Planalto","osm_id":10004222657,"osm_tipo":"node","tipo_lugar":"neighbourhood"},"geometry":{"type":"Point","coordinates":[-51.159401,-23.2654997]}},{"type":"Feature","properties":{"nome":"Jardim Belle Ville","osm_id":10004222658,"osm_tipo":"node","tipo_lugar":"neighbourhood"},"geometry":{"type":"Point","coordinates":[-51.1576522,-23.266367]}},{"type":"Feature","properties":{"nome":"Conjunto Habitacional Sebastião de Mello Cesar","osm_id":10004222659,"osm_tipo":"node","tipo_lugar":"neighbourhood"},"geometry":{"type":"Point","coordinates":[-51.1556538,-23.2603904]}},{"type":"Feature","properties":{"nome":"Jardim Verona","osm_id":10606100962,"osm_tipo":"node","tipo_lugar":"neighbourhood"},"geometry":{"type":"Point","coordinates":[-51.1493523,-23.2408872]}},{"type":"Feature","properties":{"nome":"Jardim Aliança","osm_id":10606118672,"osm_tipo":"node","tipo_lugar":"neighbourhood"},"geometry":{"type":"Point","coordinates":[-51.1491855,-23.2451087]}},{"type":"Feature","properties":{"nome":"Jardim Itapoá","osm_id":10606118673,"osm_tipo":"node","tipo_lugar":"neighbourhood"},"geometry":{"type":"Point","coordinates":[-51.1518201,-23.2515122]}},{"type":"Feature","properties":{"nome":"Jardim Novo Horizonte","osm_id":10606118674,"osm_tipo":"node","tipo_lugar":"neighbourhood"},"geometry":{"type":"Point","coordinates":[-51.1511298,-23.2484655]}},{"type":"Feature","properties":{"nome":"Jardim Campos Verdes","osm_id":10606118675,"osm_tipo":"node","tipo_lugar":"neighbourhood"},"geometry":{"type":"Point","coordinates":[-51.1498672,-23.2508703]}},{"type":"Feature","properties":{"nome":"Jardim Belém","osm_id":10606118676,"osm_tipo":"node","tipo_lugar":"neighbourhood"},"geometry":{"type":"Point","coordinates":[-51.1472134,-23.2474376]}},{"type":"Feature","properties":{"nome":"Jardim Santiago","osm_id":11377962609,"osm_tipo":"node","tipo_lugar":"neighbourhood"},"geometry":{"type":"Point","coordinates":[-51.1918434,-23.2855498]}},{"type":"Feature","properties":{"nome":"Alphaville","osm_id":11498047558,"osm_tipo":"node","tipo_lugar":"neighbourhood"},"geometry":{"type":"Point","coordinates":[-51.1868762,-23.3480717]}},{"type":"Feature","properties":{"nome":"Garden Park Residence","osm_id":11506942692,"osm_tipo":"node","tipo_lugar":"neighbourhood"},"geometry":{"type":"Point","coordinates":[-51.1493797,-23.2885897]}},{"type":"Feature","properties":{"nome":"Parque Industrial Alicante","osm_id":11508653902,"osm_tipo":"node","tipo_lugar":"neighbourhood"},"geometry":{"type":"Point","coordinates":[-51.1490352,-23.2819027]}},{"type":"Feature","properties":{"nome":"Jardim Portal de Itamaracá","osm_id":11508653904,"osm_tipo":"node","tipo_lugar":"neighbourhood"},"geometry":{"type":"Point","coordinates":[-51.1513849,-23.2885086]}},{"type":"Feature","properties":{"nome":"Conjunto Habitacional Farid Libos","osm_id":11508689024,"osm_tipo":"node","tipo_lugar":"neighbourhood"},"geometry":{"type":"Point","coordinates":[-51.1432048,-23.2751392]}},{"type":"Feature","properties":{"nome":"Residencial Quadra Norte","osm_id":11508791682,"osm_tipo":"node","tipo_lugar":"neighbourhood"},"geometry":{"type":"Point","coordinates":[-51.1257246,-23.2585174]}},{"type":"Feature","properties":{"nome":"Conjunto Semíramis Barros Braga","osm_id":11508791687,"osm_tipo":"node","tipo_lugar":"neighbourhood"},"geometry":{"type":"Point","coordinates":[-51.1440242,-23.2648618]}},{"type":"Feature","properties":{"nome":"Parque Waldemar Hauer","osm_id":11517682207,"osm_tipo":"node","tipo_lugar":"suburb"},"geometry":{"type":"Point","coordinates":[-51.1270256,-23.2903043]}},{"type":"Feature","properties":{"nome":"Jardim Perobinha","osm_id":11532736941,"osm_tipo":"node","tipo_lugar":"neighbourhood"},"geometry":{"type":"Point","coordinates":[-51.2004858,-23.2676998]}},{"type":"Feature","properties":{"nome":"Vila Isabel","osm_id":11535175212,"osm_tipo":"node","tipo_lugar":"neighbourhood"},"geometry":{"type":"Point","coordinates":[-51.1212395,-23.2879663]}},{"type":"Feature","properties":{"nome":"Conjunto Habitacional Alexandre Urbanas","osm_id":11639027723,"osm_tipo":"node","tipo_lugar":"neighbourhood"},"geometry":{"type":"Point","coordinates":[-51.113342,-23.3147206]}},{"type":"Feature","properties":{"nome":"Conjunto Habitacional Aquiles Stenghel","osm_id":11757048317,"osm_tipo":"node","tipo_lugar":"neighbourhood"},"geometry":{"type":"Point","coordinates":[-51.1397807,-23.2498205]}},{"type":"Feature","properties":{"nome":"Conjunto Habitacional Armindo Guazzi","osm_id":11764891725,"osm_tipo":"node","tipo_lugar":"neighbourhood"},"geometry":{"type":"Point","coordinates":[-51.1127606,-23.3230681]}},{"type":"Feature","properties":{"nome":"Jardim Nossa Senhora da Paz","osm_id":11825019741,"osm_tipo":"node","tipo_lugar":"neighbourhood"},"geometry":{"type":"Point","coordinates":[-51.1890913,-23.2932183]}},{"type":"Feature","properties":{"nome":"Vila Marízia","osm_id":11829387009,"osm_tipo":"node","tipo_lugar":"neighbourhood"},"geometry":{"type":"Point","coordinates":[-51.1528594,-23.2941965]}},{"type":"Feature","properties":{"nome":"Jardim Canadá","osm_id":13124098584,"osm_tipo":"node","tipo_lugar":"neighbourhood"},"geometry":{"type":"Point","coordinates":[-51.1682192,-23.3184118]}},{"type":"Feature","properties":{"nome":"Shangri-Lá A","osm_id":13131473374,"osm_tipo":"node","tipo_lugar":"neighbourhood"},"geometry":{"type":"Point","coordinates":[-51.1851927,-23.299037]}},{"type":"Feature","properties":{"nome":"Shangri-Lá B","osm_id":13131473375,"osm_tipo":"node","tipo_lugar":"neighbourhood"},"geometry":{"type":"Point","coordinates":[-51.1860177,-23.2954139]}},{"type":"Feature","properties":{"nome":"Jardim Piza","osm_id":462455523,"osm_tipo":"way","tipo_lugar":"neighbourhood"},"geometry":{"type":"Polygon","coordinates":[[[-51.1068898,-23.3566542],[-51.1056603,-23.3590191],[-51.1084457,-23.3644653],[-51.114088,-23.365459],[-51.1206273,-23.362757],[-51.1326533,-23.3613628],[-51.1388175,-23.3636646],[-51.1498212,-23.3560485],[-51.1431953,-23.3439271],[-51.1447652,-23.3381518],[-51.13739,-23.3442366],[-51.1312553,-23.343789],[-51.1301845,-23.3421334],[-51.1264947,-23.3472289],[-51.1272794,-23.3488941],[-51.1218324,-23.3518604],[-51.1207217,-23.3545752],[-51.1186068,-23.3552635],[-51.1141499,-23.3529308],[-51.1068898,-23.3566542]]]}},{"type":"Feature","properties":{"nome":"Tucanos","osm_id":462455529,"osm_tipo":"way","tipo_lugar":"neighbourhood"},"geometry":{"type":"Polygon","coordinates":[[[-51.1518858,-23.347286],[-51.1562373,-23.3525729],[-51.1618329,-23.3540459],[-51.1804252,-23.3427579],[-51.183864,-23.337016],[-51.1771463,-23.3422008],[-51.1696885,-23.3396745],[-51.163285,-23.3396639],[-51.1583078,-23.3354721],[-51.1518621,-23.3386335],[-51.1506096,-23.3447322],[-51.1518858,-23.347286]]]}},{"type":"Feature","properties":{"nome":"Vivendas do Arvoredo","osm_id":462455530,"osm_tipo":"way","tipo_lugar":"neighbourhood"},"geometry":{"type":"Polygon","coordinates":[[[-51.1667298,-23.3562178],[-51.178004,-23.3582466],[-51.1801662,-23.3650554],[-51.1833002,-23.3639474],[-51.1865849,-23.3653481],[-51.1871878,-23.3639587],[-51.1927075,-23.3660163],[-51.2036836,-23.3659761],[-51.1997616,-23.3633477],[-51.192628,-23.3543591],[-51.1881877,-23.341231],[-51.1843727,-23.3373782],[-51.1783107,-23.3443677],[-51.1675693,-23.3494189],[-51.1667298,-23.3562178]]]}},{"type":"Feature","properties":{"nome":"Jardim Califórnia","osm_id":462455532,"osm_tipo":"way","tipo_lugar":"neighbourhood"},"geometry":{"type":"Polygon","coordinates":[[[-51.1067211,-23.346587],[-51.0972741,-23.3563635],[-51.0968953,-23.361629],[-51.1004682,-23.3661603],[-51.1078135,-23.365422],[-51.108676,-23.3633304],[-51.1061718,-23.3598171],[-51.1072995,-23.3561944],[-51.1141499,-23.3529308],[-51.1194379,-23.3554522],[-51.1205343,-23.3527817],[-51.1270711,-23.348898],[-51.1264947,-23.3472289],[-51.129539,-23.3422981],[-51.1317998,-23.3438626],[-51.1383126,-23.3438868],[-51.1461671,-23.3363069],[-51.1460838,-23.3275692],[-51.1450452,-23.3268921],[-51.1405442,-23.3311195],[-51.1103682,-23.3411129],[-51.1067211,-23.346587]]]}},{"type":"Feature","properties":{"nome":"Centro","osm_id":462455533,"osm_tipo":"way","tipo_lugar":"neighbourhood"},"geometry":{"type":"Polygon","coordinates":[[[-51.1500198,-23.3142497],[-51.1495228,-23.3198251],[-51.1701969,-23.3194367],[-51.1706199,-23.3059972],[-51.1726998,-23.3046048],[-51.1734657,-23.2992122],[-51.1658419,-23.3027499],[-51.1627999,-23.3075548],[-51.1552779,-23.3079871],[-51.1493674,-23.3112951],[-51.1500198,-23.3142497]]]}},{"type":"Feature","properties":{"nome":"Quebec","osm_id":462455534,"osm_tipo":"way","tipo_lugar":"neighbourhood"},"geometry":{"type":"Polygon","coordinates":[[[-51.1706199,-23.3059972],[-51.1698186,-23.3197169],[-51.1717872,-23.3198339],[-51.1717885,-23.3286946],[-51.1760109,-23.3260218],[-51.1791664,-23.3013813],[-51.1735052,-23.3021127],[-51.1706199,-23.3059972]]]}},{"type":"Feature","properties":{"nome":"Guanabara","osm_id":462455535,"osm_tipo":"way","tipo_lugar":"neighbourhood"},"geometry":{"type":"Polygon","coordinates":[[[-51.1664615,-23.3297584],[-51.1667527,-23.3397348],[-51.1771463,-23.3422008],[-51.183864,-23.337016],[-51.177566,-23.3353316],[-51.177212,-23.3259527],[-51.1664615,-23.3297584]]]}},{"type":"Feature","properties":{"nome":"Bela Suíça","osm_id":462455536,"osm_tipo":"way","tipo_lugar":"neighbourhood"},"geometry":{"type":"Polygon","coordinates":[[[-51.1594387,-23.3347813],[-51.1583078,-23.3354721],[-51.1624351,-23.3399336],[-51.1667527,-23.3397348],[-51.1664615,-23.3297584],[-51.1594387,-23.3347813]]]}},{"type":"Feature","properties":{"nome":"Vila Brasil","osm_id":462455540,"osm_tipo":"way","tipo_lugar":"neighbourhood"},"geometry":{"type":"Polygon","coordinates":[[[-51.1460838,-23.3275692],[-51.1456361,-23.3375332],[-51.1477415,-23.3376753],[-51.1543832,-23.3269737],[-51.155041,-23.3198629],[-51.1495228,-23.3198251],[-51.1460838,-23.3275692]]]}},{"type":"Feature","properties":{"nome":"Petrópolis","osm_id":462455543,"osm_tipo":"way","tipo_lugar":"neighbourhood"},"geometry":{"type":"Polygon","coordinates":[[[-51.154404,-23.3269736],[-51.1482466,-23.337971],[-51.1511279,-23.339647],[-51.1637537,-23.3311048],[-51.1627154,-23.3219008],[-51.1598392,-23.326637],[-51.154404,-23.3269736]]]}},{"type":"Feature","properties":{"nome":"Ipiranga","osm_id":462455544,"osm_tipo":"way","tipo_lugar":"neighbourhood"},"geometry":{"type":"Polygon","coordinates":[[[-51.155041,-23.3198629],[-51.154404,-23.3269736],[-51.1598392,-23.326637],[-51.1627963,-23.3208437],[-51.155041,-23.3198629]]]}},{"type":"Feature","properties":{"nome":"Higienópolis","osm_id":462455545,"osm_tipo":"way","tipo_lugar":"neighbourhood"},"geometry":{"type":"Polygon","coordinates":[[[-51.1636105,-23.3232292],[-51.1637537,-23.3311048],[-51.1717885,-23.3286946],[-51.1717872,-23.3198339],[-51.1627412,-23.3198586],[-51.1636105,-23.3232292]]]}},{"type":"Feature","properties":{"nome":"Jardim Presidente","osm_id":462455546,"osm_tipo":"way","tipo_lugar":"neighbourhood"},"geometry":{"type":"Polygon","coordinates":[[[-51.1773645,-23.3146439],[-51.1767407,-23.3255191],[-51.1805059,-23.3240461],[-51.1854521,-23.3181281],[-51.183035,-23.3142736],[-51.1836694,-23.3052527],[-51.1804082,-23.3011732],[-51.179151,-23.3013119],[-51.1773645,-23.3146439]]]}},{"type":"Feature","properties":{"nome":"Jardim Shangri-Lá","osm_id":462455549,"osm_tipo":"way","tipo_lugar":"neighbourhood"},"geometry":{"type":"Polygon","coordinates":[[[-51.1732382,-23.2927455],[-51.1735052,-23.3021127],[-51.1946269,-23.2982756],[-51.1853294,-23.2926695],[-51.1732382,-23.2927455]]]}},{"type":"Feature","properties":{"nome":"Jardim Antares","osm_id":462455551,"osm_tipo":"way","tipo_lugar":"neighbourhood"},"geometry":{"type":"Polygon","coordinates":[[[-51.1121639,-23.319699],[-51.1167322,-23.3250155],[-51.1249348,-23.3226796],[-51.1295042,-23.3236339],[-51.1302114,-23.3218881],[-51.1331934,-23.3229048],[-51.1346191,-23.3208721],[-51.131693,-23.3124151],[-51.1195423,-23.3109014],[-51.1121639,-23.319699]]]}},{"type":"Feature","properties":{"nome":"Vila da Fraternidade","osm_id":462455553,"osm_tipo":"way","tipo_lugar":"neighbourhood"},"geometry":{"type":"Polygon","coordinates":[[[-51.139274,-23.310776],[-51.1397501,-23.3126439],[-51.1425333,-23.3120497],[-51.1426686,-23.3151448],[-51.1497681,-23.3143054],[-51.1460247,-23.3036722],[-51.1391315,-23.3033248],[-51.1412846,-23.3090247],[-51.139274,-23.310776]]]}},{"type":"Feature","properties":{"nome":"Lindóia","osm_id":462455556,"osm_tipo":"way","tipo_lugar":"suburb"},"geometry":{"type":"Polygon","coordinates":[[[-51.0966349,-23.2762488],[-51.0950143,-23.2926046],[-51.1243178,-23.2930732],[-51.1264666,-23.2852525],[-51.1298059,-23.2815473],[-51.1282116,-23.2800455],[-51.1299124,-23.2774328],[-51.1216863,-23.2761587],[-51.1235149,-23.2716613],[-51.1206168,-23.2700085],[-51.1147247,-23.2713726],[-51.105313,-23.2787541],[-51.0966349,-23.2762488]]]}},{"type":"Feature","properties":{"nome":"Vila Recreio","osm_id":462455560,"osm_tipo":"way","tipo_lugar":"neighbourhood"},"geometry":{"type":"Polygon","coordinates":[[[-51.1539347,-23.2947744],[-51.1551312,-23.3080832],[-51.1614961,-23.3077721],[-51.1615291,-23.2930435],[-51.1545501,-23.2928909],[-51.1539347,-23.2947744]]]}},{"type":"Feature","properties":{"nome":"Leonor","osm_id":462455562,"osm_tipo":"way","tipo_lugar":"neighbourhood"},"geometry":{"type":"Polygon","coordinates":[[[-51.188327,-23.282703],[-51.1873349,-23.2903027],[-51.1853294,-23.2926695],[-51.1925813,-23.2969939],[-51.2045462,-23.295554],[-51.2028216,-23.293997],[-51.2075068,-23.2906813],[-51.2067122,-23.2806102],[-51.1928628,-23.2779817],[-51.1891592,-23.2789067],[-51.188327,-23.282703]]]}},{"type":"Feature","properties":{"nome":"Coliseu","osm_id":462455563,"osm_tipo":"way","tipo_lugar":"neighbourhood"},"geometry":{"type":"Polygon","coordinates":[[[-51.1728939,-23.2826582],[-51.1732382,-23.2927455],[-51.1853294,-23.2926695],[-51.1873349,-23.2903027],[-51.1891592,-23.2789067],[-51.1801426,-23.283009],[-51.1728939,-23.2826582]]]}},{"type":"Feature","properties":{"nome":"Cidade Industrial 1","osm_id":462455566,"osm_tipo":"way","tipo_lugar":"suburb"},"geometry":{"type":"Polygon","coordinates":[[[-51.1031232,-23.269615],[-51.0990553,-23.268608],[-51.0966349,-23.2762488],[-51.105313,-23.2787541],[-51.1097169,-23.2744139],[-51.1202139,-23.269909],[-51.1236341,-23.2725956],[-51.1216863,-23.2761587],[-51.1299124,-23.2774328],[-51.1282116,-23.2800455],[-51.1298059,-23.2815473],[-51.1290494,-23.2843484],[-51.1320225,-23.2821778],[-51.1385887,-23.2844794],[-51.1379752,-23.2610971],[-51.1132675,-23.2641753],[-51.1031232,-23.269615]]]}},{"type":"Feature","properties":{"nome":"Cinco Conjuntos","osm_id":462455569,"osm_tipo":"way","tipo_lugar":"suburb"},"geometry":{"type":"Polygon","coordinates":[[[-51.1307961,-23.2543471],[-51.1278234,-23.2559929],[-51.1281583,-23.2621707],[-51.1378993,-23.2605901],[-51.1382529,-23.2717705],[-51.1445247,-23.2743567],[-51.1502481,-23.2714533],[-51.149642,-23.2700508],[-51.1562538,-23.2631033],[-51.1576328,-23.2585937],[-51.1574057,-23.2539534],[-51.1553352,-23.2539757],[-51.1561877,-23.2479297],[-51.1542343,-23.2473333],[-51.15143,-23.2422232],[-51.1411673,-23.2452456],[-51.1353445,-23.2422303],[-51.1355101,-23.2515457],[-51.131449,-23.2513829],[-51.1307961,-23.2543471]]]}},{"type":"Feature","properties":{"nome":"Jardim Nova Esperança","osm_id":462695773,"osm_tipo":"way","tipo_lugar":"neighbourhood"},"geometry":{"type":"Polygon","coordinates":[[[-51.115905,-23.3913082],[-51.1200723,-23.3902154],[-51.1206436,-23.3871296],[-51.1120833,-23.3898567],[-51.109453,-23.3924587],[-51.1145379,-23.3928302],[-51.115905,-23.3913082]]]}},{"type":"Feature","properties":{"nome":"Vila Romana","osm_id":616129592,"osm_tipo":"way","tipo_lugar":"neighbourhood"},"geometry":{"type":"Polygon","coordinates":[[[-51.1203304,-23.285171],[-51.1158957,-23.2921177],[-51.112764,-23.2900392],[-51.11579,-23.2831311],[-51.1203304,-23.285171]]]}},{"type":"Feature","properties":{"nome":"Portal dos Pioneiros","osm_id":616156189,"osm_tipo":"way","tipo_lugar":"neighbourhood"},"geometry":{"type":"Polygon","coordinates":[[[-51.1115687,-23.3129927],[-51.1168723,-23.3102652],[-51.1192247,-23.3110144],[-51.1139648,-23.3134278],[-51.1115687,-23.3129927]]]}},{"type":"Feature","properties":{"nome":"Parque Tauá","osm_id":616346729,"osm_tipo":"way","tipo_lugar":"neighbourhood"},"geometry":{"type":"Polygon","coordinates":[[[-51.1079916,-23.3085772],[-51.1033977,-23.3090322],[-51.0987543,-23.3267649],[-51.1016213,-23.326405],[-51.1039215,-23.323645],[-51.1079916,-23.3085772]]]}},{"type":"Feature","properties":{"nome":"Pequena Londres","osm_id":618272045,"osm_tipo":"way","tipo_lugar":"neighbourhood"},"geometry":{"type":"Polygon","coordinates":[[[-51.1232297,-23.3467614],[-51.1201872,-23.3390959],[-51.1212011,-23.3387478],[-51.1232297,-23.3467614]]]}},{"type":"Feature","properties":{"nome":"Residencial Flores do Campo","osm_id":619182269,"osm_tipo":"way","tipo_lugar":"neighbourhood"},"geometry":{"type":"Polygon","coordinates":[[[-51.1220952,-23.2637052],[-51.1218442,-23.258019],[-51.1274486,-23.2563467],[-51.1281212,-23.2620687],[-51.1220952,-23.2637052]]]}},{"type":"Feature","properties":{"nome":"Conjunto Habitacional José Bonifácio e Silva","osm_id":619188496,"osm_tipo":"way","tipo_lugar":"neighbourhood"},"geometry":{"type":"Polygon","coordinates":[[[-51.1074093,-23.3303716],[-51.1038198,-23.332097],[-51.1048622,-23.3285898],[-51.1074093,-23.3303716]]]}},{"type":"Feature","properties":{"nome":"Jardim Paris","osm_id":619286168,"osm_tipo":"way","tipo_lugar":"neighbourhood"},"geometry":{"type":"Polygon","coordinates":[[[-51.1719625,-23.2537954],[-51.1675254,-23.2459506],[-51.1717263,-23.2459424],[-51.1719625,-23.2537954]]]}},{"type":"Feature","properties":{"nome":"Conjunto Habitacional Vivi Xavier","osm_id":619288195,"osm_tipo":"way","tipo_lugar":"neighbourhood"},"geometry":{"type":"Polygon","coordinates":[[[-51.1719581,-23.253819],[-51.1688783,-23.2541121],[-51.1654092,-23.2604498],[-51.172105,-23.2609821],[-51.1719581,-23.253819]]]}},{"type":"Feature","properties":{"nome":"Portal do Sol","osm_id":619288196,"osm_tipo":"way","tipo_lugar":"neighbourhood"},"geometry":{"type":"Polygon","coordinates":[[[-51.1722862,-23.2577578],[-51.1720985,-23.2538846],[-51.1754891,-23.2512288],[-51.1761315,-23.2529956],[-51.1722862,-23.2577578]]]}},{"type":"Feature","properties":{"nome":"Novo Perobal","osm_id":666680454,"osm_tipo":"way","tipo_lugar":"neighbourhood"},"geometry":{"type":"Polygon","coordinates":[[[-51.1286154,-23.3724109],[-51.1256328,-23.3727669],[-51.1225966,-23.3698601],[-51.1238197,-23.3692051],[-51.1286154,-23.3724109]]]}},{"type":"Feature","properties":{"nome":"Conjunto Habitacional Barbara Daher","osm_id":667667972,"osm_tipo":"way","tipo_lugar":"neighbourhood"},"geometry":{"type":"Polygon","coordinates":[[[-51.159359,-23.3743734],[-51.1575033,-23.3750463],[-51.1545446,-23.371288],[-51.1566072,-23.3707839],[-51.159359,-23.3743734]]]}},{"type":"Feature","properties":{"nome":"Conjunto Habitacional Anibal Siqueira Cabral","osm_id":667672443,"osm_tipo":"way","tipo_lugar":"neighbourhood"},"geometry":{"type":"Polygon","coordinates":[[[-51.1546352,-23.3768189],[-51.1501862,-23.3700369],[-51.1525031,-23.3669483],[-51.1558553,-23.3707157],[-51.1530947,-23.3732837],[-51.1552699,-23.3757216],[-51.1546352,-23.3768189]]]}},{"type":"Feature","properties":{"nome":"Jardim Indusville","osm_id":695974259,"osm_tipo":"way","tipo_lugar":"neighbourhood"},"geometry":{"type":"Polygon","coordinates":[[[-51.1281644,-23.2885601],[-51.128075,-23.2840491],[-51.125156,-23.2814611],[-51.124558,-23.2845339],[-51.1265868,-23.2849674],[-51.1255961,-23.2882196],[-51.1281644,-23.2885601]]]}},{"type":"Feature","properties":{"nome":"Jardim Padovani","osm_id":699211689,"osm_tipo":"way","tipo_lugar":"neighbourhood"},"geometry":{"type":"Polygon","coordinates":[[[-51.1964735,-23.2701603],[-51.1953445,-23.2606597],[-51.1982936,-23.2606812],[-51.1983659,-23.2701342],[-51.1964735,-23.2701603]]]}},{"type":"Feature","properties":{"nome":"Jadim Maria Celina","osm_id":699211690,"osm_tipo":"way","tipo_lugar":"neighbourhood"},"geometry":{"type":"Polygon","coordinates":[[[-51.1943179,-23.2608932],[-51.1920485,-23.2609013],[-51.1915184,-23.2633251],[-51.1917237,-23.2704456],[-51.1933659,-23.2716291],[-51.1944501,-23.2712907],[-51.1943179,-23.2608932]]]}},{"type":"Feature","properties":{"nome":"Residencial do Café","osm_id":699408387,"osm_tipo":"way","tipo_lugar":"neighbourhood"},"geometry":{"type":"Polygon","coordinates":[[[-51.1808844,-23.2609661],[-51.1808917,-23.2711007],[-51.182725,-23.2703724],[-51.1833648,-23.2609219],[-51.1808844,-23.2609661]]]}},{"type":"Feature","properties":{"nome":"Jardim Palmas","osm_id":699408388,"osm_tipo":"way","tipo_lugar":"neighbourhood"},"geometry":{"type":"Polygon","coordinates":[[[-51.1827375,-23.2679711],[-51.1827273,-23.2703711],[-51.1855754,-23.2689364],[-51.1855678,-23.2669688],[-51.1827375,-23.2679711]]]}},{"type":"Feature","properties":{"nome":"Jardim Paracatú","osm_id":699408389,"osm_tipo":"way","tipo_lugar":"neighbourhood"},"geometry":{"type":"Polygon","coordinates":[[[-51.1856625,-23.2669697],[-51.1883062,-23.2669728],[-51.188328,-23.270128],[-51.185613,-23.2689202],[-51.1856625,-23.2669697]]]}},{"type":"Feature","properties":{"nome":"Jardim Paraty","osm_id":699408390,"osm_tipo":"way","tipo_lugar":"neighbourhood"},"geometry":{"type":"Polygon","coordinates":[[[-51.1883059,-23.266969],[-51.1883404,-23.2608495],[-51.1833656,-23.2609222],[-51.1833012,-23.267757],[-51.1883059,-23.266969]]]}},{"type":"Feature","properties":{"nome":"Jardim Ilha do Mel","osm_id":699408391,"osm_tipo":"way","tipo_lugar":"neighbourhood"},"geometry":{"type":"Polygon","coordinates":[[[-51.1883378,-23.2701254],[-51.1884232,-23.2608281],[-51.1904855,-23.2607684],[-51.190574,-23.2693749],[-51.1883378,-23.2701254]]]}},{"type":"Feature","properties":{"nome":"Conjunto Habitacional Barra Vento","osm_id":712515688,"osm_tipo":"way","tipo_lugar":"neighbourhood"},"geometry":{"type":"Polygon","coordinates":[[[-51.1551492,-23.2992368],[-51.1543331,-23.2989205],[-51.1540249,-23.299878],[-51.1551492,-23.2992368]]]}},{"type":"Feature","properties":{"nome":"Centro Cívico Bento Munhoz Da Rocha Neto","osm_id":771935956,"osm_tipo":"way","tipo_lugar":"neighbourhood"},"geometry":{"type":"Polygon","coordinates":[[[-51.1508685,-23.3364142],[-51.1489226,-23.3371761],[-51.151534,-23.3336564],[-51.1528295,-23.3347154],[-51.1508685,-23.3364142]]]}},{"type":"Feature","properties":{"nome":"Moradas de Portugal","osm_id":772517482,"osm_tipo":"way","tipo_lugar":"neighbourhood"},"geometry":{"type":"Polygon","coordinates":[[[-51.2070115,-23.2601226],[-51.1983204,-23.2606697],[-51.19838,-23.2667973],[-51.2069969,-23.2661325],[-51.2070115,-23.2601226]]]}},{"type":"Feature","properties":{"nome":"Jardim Don Vicente","osm_id":772552486,"osm_tipo":"way","tipo_lugar":"neighbourhood"},"geometry":{"type":"Polygon","coordinates":[[[-51.1375715,-23.2520762],[-51.1343744,-23.2513863],[-51.1344016,-23.2521268],[-51.1375715,-23.2520762]]]}},{"type":"Feature","properties":{"nome":"Jardim Primavera","osm_id":772552487,"osm_tipo":"way","tipo_lugar":"neighbourhood"},"geometry":{"type":"Polygon","coordinates":[[[-51.1377198,-23.2512636],[-51.1374643,-23.2431527],[-51.1359138,-23.2414363],[-51.1355621,-23.2514646],[-51.1377198,-23.2512636]]]}},{"type":"Feature","properties":{"nome":"Parque Universidade","osm_id":772570208,"osm_tipo":"way","tipo_lugar":"neighbourhood"},"geometry":{"type":"Polygon","coordinates":[[[-51.2216999,-23.3325214],[-51.2168697,-23.3285878],[-51.2121552,-23.3357906],[-51.2168076,-23.3380198],[-51.2216999,-23.3325214]]]}},{"type":"Feature","properties":{"nome":"Alphaville","osm_id":1215886400,"osm_tipo":"way","tipo_lugar":"neighbourhood"},"geometry":{"type":"Polygon","coordinates":[[[-51.183583,-23.360719],[-51.1806965,-23.3608192],[-51.1804096,-23.3624842],[-51.1857311,-23.3622108],[-51.1870011,-23.3581006],[-51.1890793,-23.3568696],[-51.1883014,-23.3539604],[-51.1905216,-23.3492641],[-51.1880185,-23.3442304],[-51.1835038,-23.3441515],[-51.1837781,-23.3534487],[-51.1853292,-23.3553848],[-51.183583,-23.360719]]]}},{"type":"Feature","properties":{"nome":"Terra Nova","osm_id":1237028254,"osm_tipo":"way","tipo_lugar":"suburb"},"geometry":{"type":"Polygon","coordinates":[[[-51.1411673,-23.2452456],[-51.1514142,-23.2421212],[-51.1551635,-23.2481274],[-51.1610765,-23.2482216],[-51.159874,-23.2500008],[-51.1633593,-23.2479319],[-51.162817,-23.245432],[-51.1684824,-23.243394],[-51.166089,-23.2384933],[-51.1582105,-23.2360422],[-51.1523883,-23.2368692],[-51.1471761,-23.2346946],[-51.1435987,-23.2361243],[-51.1398509,-23.2354804],[-51.1358633,-23.23868],[-51.1375338,-23.24249],[-51.1411673,-23.2452456]]]}},{"type":"Feature","properties":{"nome":"VIOLIN","osm_id":6827135,"osm_tipo":"relation","tipo_lugar":"suburb"},"geometry":{"type":"Polygon","coordinates":[[[-51.1531103,-23.2622625],[-51.1506961,-23.258664],[-51.1477861,-23.2585765],[-51.1493422,-23.2629959],[-51.1531103,-23.2622625]]]}}]}