{"type":"FeatureCollection","features":[{"type":"Feature","properties":{"nome":"Guadiana","osm_id":416766125,"osm_tipo":"node","tipo_lugar":"suburb"},"geometry":{"type":"Point","coordinates":[-52.1158818,-23.3261098]}},{"type":"Feature","properties":{"nome":"Vila Moraes","osm_id":8082109930,"osm_tipo":"node","tipo_lugar":"suburb"},"geometry":{"type":"Point","coordinates":[-52.0989543,-23.3435241]}},{"type":"Feature","properties":{"nome":"Conjunto Habitacional Lagoa Dourada","osm_id":8082109931,"osm_tipo":"node","tipo_lugar":"suburb"},"geometry":{"type":"Point","coordinates":[-52.1007621,-23.3462798]}},{"type":"Feature","properties":{"nome":"Conjunto Habitacional Adolfo Lepre","osm_id":8082109932,"osm_tipo":"node","tipo_lugar":"suburb"},"geometry":{"type":"Point","coordinates":[-52.101194,-23.3474668]}},{"type":"Feature","properties":{"nome":"Jardim Vitória","osm_id":8082109933,"osm_tipo":"node","tipo_lugar":"suburb"},"geometry":{"type":"Point","coordinates":[-52.101422,-23.348474]}},{"type":"Feature","properties":{"nome":"Vila São João","osm_id":8082109955,"osm_tipo":"node","tipo_lugar":"suburb"},"geometry":{"type":"Point","coordinates":[-52.0929623,-23.346856]}},{"type":"Feature","properties":{"nome":"Vila Santa Luzia","osm_id":8082109956,"osm_tipo":"node","tipo_lugar":"suburb"},"geometry":{"type":"Point","coordinates":[-52.09131,-23.3464423]}},{"type":"Feature","properties":{"nome":"Vila Tancredo Neves","osm_id":8082109957,"osm_tipo":"node","tipo_lugar":"suburb"},"geometry":{"type":"Point","coordinates":[-52.0914012,-23.3442555]}},{"type":"Feature","properties":{"nome":"Jardim Itaipu","osm_id":8082109958,"osm_tipo":"node","tipo_lugar":"suburb"},"geometry":{"type":"Point","coordinates":[-52.0917875,-23.3425317]}},{"type":"Feature","properties":{"nome":"Jardim São Lázaro","osm_id":8082109959,"osm_tipo":"node","tipo_lugar":"suburb"},"geometry":{"type":"Point","coordinates":[-52.0926833,-23.3416106]}},{"type":"Feature","properties":{"nome":"Vila São Lourenço","osm_id":8082109965,"osm_tipo":"node","tipo_lugar":"suburb"},"geometry":{"type":"Point","coordinates":[-52.0986807,-23.3413151]}},{"type":"Feature","properties":{"nome":"Vila Carraro","osm_id":8082109966,"osm_tipo":"node","tipo_lugar":"suburb"},"geometry":{"type":"Point","coordinates":[-52.0950598,-23.342507]}},{"type":"Feature","properties":{"nome":"Vila Carnelos","osm_id":8082109967,"osm_tipo":"node","tipo_lugar":"suburb"},"geometry":{"type":"Point","coordinates":[-52.097463,-23.3399261]}},{"type":"Feature","properties":{"nome":"Vila Grossi","osm_id":8082109968,"osm_tipo":"node","tipo_lugar":"suburb"},"geometry":{"type":"Point","coordinates":[-52.100172,-23.3391774]}},{"type":"Feature","properties":{"nome":"Vila Fracasso","osm_id":8082109969,"osm_tipo":"node","tipo_lugar":"suburb"},"geometry":{"type":"Point","coordinates":[-52.1014381,-23.3393843]}},{"type":"Feature","properties":{"nome":"Recanto dos Ipês","osm_id":8082109970,"osm_tipo":"node","tipo_lugar":"suburb"},"geometry":{"type":"Point","coordinates":[-52.0908541,-23.3335179]}},{"type":"Feature","properties":{"nome":"Recanto dos Ipês II","osm_id":8082109972,"osm_tipo":"node","tipo_lugar":"suburb"},"geometry":{"type":"Point","coordinates":[-52.0909453,-23.3350843]}},{"type":"Feature","properties":{"nome":"Parque Ouro Verde","osm_id":8082110003,"osm_tipo":"node","tipo_lugar":"suburb"},"geometry":{"type":"Point","coordinates":[-52.0948505,-23.337424]}},{"type":"Feature","properties":{"nome":"Jardim São Rafael","osm_id":8082119465,"osm_tipo":"node","tipo_lugar":"suburb"},"geometry":{"type":"Point","coordinates":[-52.0871794,-23.337754]}},{"type":"Feature","properties":{"nome":"Jardim Atlantico I","osm_id":8082119523,"osm_tipo":"node","tipo_lugar":"suburb"},"geometry":{"type":"Point","coordinates":[-52.0889926,-23.338542]}},{"type":"Feature","properties":{"nome":"Jardim Atlantico II","osm_id":8082119527,"osm_tipo":"node","tipo_lugar":"suburb"},"geometry":{"type":"Point","coordinates":[-52.0898938,-23.3408964]}},{"type":"Feature","properties":{"nome":"Chácaras São Pedro","osm_id":8082119528,"osm_tipo":"node","tipo_lugar":"suburb"},"geometry":{"type":"Point","coordinates":[-52.0860529,-23.3448465]}},{"type":"Feature","properties":{"nome":"Jardim Tamagi","osm_id":8082119535,"osm_tipo":"node","tipo_lugar":"suburb"},"geometry":{"type":"Point","coordinates":[-52.0841593,-23.3437039]}},{"type":"Feature","properties":{"nome":"Jardim América","osm_id":8082119537,"osm_tipo":"node","tipo_lugar":"suburb"},"geometry":{"type":"Point","coordinates":[-52.0873082,-23.3461074]}},{"type":"Feature","properties":{"nome":"Jardim Europa","osm_id":8082119538,"osm_tipo":"node","tipo_lugar":"suburb"},"geometry":{"type":"Point","coordinates":[-52.0871097,-23.352052]}},{"type":"Feature","properties":{"nome":"Vila Knol","osm_id":8082119541,"osm_tipo":"node","tipo_lugar":"suburb"},"geometry":{"type":"Point","coordinates":[-52.0968327,-23.3456962]}},{"type":"Feature","properties":{"nome":"Jardim Santa Rita","osm_id":8082119544,"osm_tipo":"node","tipo_lugar":"suburb"},"geometry":{"type":"Point","coordinates":[-52.0985654,-23.3457799]}},{"type":"Feature","properties":{"nome":"Vila São Francisco de Assis","osm_id":8082119547,"osm_tipo":"node","tipo_lugar":"suburb"},"geometry":{"type":"Point","coordinates":[-52.0980799,-23.3486414]}},{"type":"Feature","properties":{"nome":"Vila Santa Catarina","osm_id":8082119548,"osm_tipo":"node","tipo_lugar":"suburb"},"geometry":{"type":"Point","coordinates":[-52.0998931,-23.349294]}},{"type":"Feature","properties":{"nome":"Vila Bernadino Bogo","osm_id":8082119552,"osm_tipo":"node","tipo_lugar":"suburb"},"geometry":{"type":"Point","coordinates":[-52.0951188,-23.346595]}},{"type":"Feature","properties":{"nome":"Vila Franchello","osm_id":8082119559,"osm_tipo":"node","tipo_lugar":"suburb"},"geometry":{"type":"Point","coordinates":[-52.0968783,-23.3514659]}},{"type":"Feature","properties":{"nome":"Conjunto Habitacional Hiro Vieira - Fase 01","osm_id":8082119560,"osm_tipo":"node","tipo_lugar":"suburb"},"geometry":{"type":"Point","coordinates":[-52.0937187,-23.3515004]}},{"type":"Feature","properties":{"nome":"Conjunto Habitacional Hiro Vieira - Fase 02","osm_id":8082119564,"osm_tipo":"node","tipo_lugar":"suburb"},"geometry":{"type":"Point","coordinates":[-52.0926619,-23.352707]}},{"type":"Feature","properties":{"nome":"Jardim Mercúrio","osm_id":8082119575,"osm_tipo":"node","tipo_lugar":"suburb"},"geometry":{"type":"Point","coordinates":[-52.0947272,-23.3530321]}},{"type":"Feature","properties":{"nome":"Jardim Granado","osm_id":8082119576,"osm_tipo":"node","tipo_lugar":"suburb"},"geometry":{"type":"Point","coordinates":[-52.093311,-23.3541254]}},{"type":"Feature","properties":{"nome":"Jardim Catuai","osm_id":8083297957,"osm_tipo":"node","tipo_lugar":"suburb"},"geometry":{"type":"Point","coordinates":[-52.0911679,-23.3637385]}},{"type":"Feature","properties":{"nome":"Jardim Mônaco","osm_id":8083297978,"osm_tipo":"node","tipo_lugar":"suburb"},"geometry":{"type":"Point","coordinates":[-52.0900869,-23.3621873]}},{"type":"Feature","properties":{"nome":"Jardim Novo Horizone","osm_id":8083297994,"osm_tipo":"node","tipo_lugar":"suburb"},"geometry":{"type":"Point","coordinates":[-52.1165818,-23.3334539]}},{"type":"Feature","properties":{"nome":"Jardim Cidade Alta","osm_id":8083297996,"osm_tipo":"node","tipo_lugar":"suburb"},"geometry":{"type":"Point","coordinates":[-52.1225685,-23.3334884]}},{"type":"Feature","properties":{"nome":"Jardim Santana","osm_id":8083297997,"osm_tipo":"node","tipo_lugar":"suburb"},"geometry":{"type":"Point","coordinates":[-52.1205676,-23.3316265]}},{"type":"Feature","properties":{"nome":"Jardim Maravilha","osm_id":8083298019,"osm_tipo":"node","tipo_lugar":"suburb"},"geometry":{"type":"Point","coordinates":[-52.1191889,-23.325277]}},{"type":"Feature","properties":{"nome":"Jardim Kariri","osm_id":8083298024,"osm_tipo":"node","tipo_lugar":"suburb"},"geometry":{"type":"Point","coordinates":[-52.1162492,-23.3222327]}},{"type":"Feature","properties":{"nome":"Conjunto Residencial Mauricio Cardoso","osm_id":8083298025,"osm_tipo":"node","tipo_lugar":"suburb"},"geometry":{"type":"Point","coordinates":[-52.1145809,-23.3222524]}},{"type":"Feature","properties":{"nome":"Jardim Guadiana","osm_id":8083298050,"osm_tipo":"node","tipo_lugar":"suburb"},"geometry":{"type":"Point","coordinates":[-52.1140176,-23.3352863]}},{"type":"Feature","properties":{"nome":"Conjunto Aldo Aquaroni","osm_id":8083298051,"osm_tipo":"node","tipo_lugar":"suburb"},"geometry":{"type":"Point","coordinates":[-52.1119443,-23.3343504]}},{"type":"Feature","properties":{"nome":"Conjunto Morada do Sol","osm_id":8083298054,"osm_tipo":"node","tipo_lugar":"suburb"},"geometry":{"type":"Point","coordinates":[-52.1102867,-23.3361138]}},{"type":"Feature","properties":{"nome":"Jardim Itália I","osm_id":8083298084,"osm_tipo":"node","tipo_lugar":"suburb"},"geometry":{"type":"Point","coordinates":[-52.1107453,-23.3387071]}},{"type":"Feature","properties":{"nome":"Jardim Itália II","osm_id":8083298086,"osm_tipo":"node","tipo_lugar":"suburb"},"geometry":{"type":"Point","coordinates":[-52.1101016,-23.3390469]}},{"type":"Feature","properties":{"nome":"Jardim Amanda","osm_id":8083298092,"osm_tipo":"node","tipo_lugar":"suburb"},"geometry":{"type":"Point","coordinates":[-52.1170753,-23.3382268]}},{"type":"Feature","properties":{"nome":"Jardim Paraíso II","osm_id":8083298129,"osm_tipo":"node","tipo_lugar":"suburb"},"geometry":{"type":"Point","coordinates":[-52.1121186,-23.3411722]}},{"type":"Feature","properties":{"nome":"Jardim Paraíso I","osm_id":8083298139,"osm_tipo":"node","tipo_lugar":"suburb"},"geometry":{"type":"Point","coordinates":[-52.1064699,-23.3399852]}},{"type":"Feature","properties":{"nome":"Jardim Bela Vista II","osm_id":8083298146,"osm_tipo":"node","tipo_lugar":"suburb"},"geometry":{"type":"Point","coordinates":[-52.1043617,-23.3410836]}},{"type":"Feature","properties":{"nome":"Jardim Santa Rosa","osm_id":8083298159,"osm_tipo":"node","tipo_lugar":"suburb"},"geometry":{"type":"Point","coordinates":[-52.1094257,-23.3426105]}},{"type":"Feature","properties":{"nome":"Chácaras Monte Alto","osm_id":8083298160,"osm_tipo":"node","tipo_lugar":"suburb"},"geometry":{"type":"Point","coordinates":[-52.1111691,-23.3436497]}},{"type":"Feature","properties":{"nome":"Jardim Ana Lígia","osm_id":8083298184,"osm_tipo":"node","tipo_lugar":"suburb"},"geometry":{"type":"Point","coordinates":[-52.106266,-23.347713]}},{"type":"Feature","properties":{"nome":"Jardim Nova Aliança","osm_id":8083298194,"osm_tipo":"node","tipo_lugar":"suburb"},"geometry":{"type":"Point","coordinates":[-52.1039325,-23.3449451]}},{"type":"Feature","properties":{"nome":"Conjunto Habitacional Lagoa Dourada","osm_id":8083298207,"osm_tipo":"node","tipo_lugar":"suburb"},"geometry":{"type":"Point","coordinates":[-52.1028355,-23.3433197]}},{"type":"Feature","properties":{"nome":"Jardim Bela Vista I","osm_id":8083298221,"osm_tipo":"node","tipo_lugar":"suburb"},"geometry":{"type":"Point","coordinates":[-52.1020389,-23.3413545]}},{"type":"Feature","properties":{"nome":"Jardim São Gregório","osm_id":8083298229,"osm_tipo":"node","tipo_lugar":"suburb"},"geometry":{"type":"Point","coordinates":[-52.100215,-23.3421672]}},{"type":"Feature","properties":{"nome":"Jardim Terraliz","osm_id":12897006661,"osm_tipo":"node","tipo_lugar":"suburb"},"geometry":{"type":"Point","coordinates":[-52.0852036,-23.3343611]}}]}