{"type":"FeatureCollection","features":[{"type":"Feature","properties":{"nome":"Jardim Mata Verde","osm_id":5119701558,"osm_tipo":"node","tipo_lugar":"suburb"},"geometry":{"type":"Point","coordinates":[-49.3344509,-25.7764369]}},{"type":"Feature","properties":{"nome":"Cohab","osm_id":5119724304,"osm_tipo":"node","tipo_lugar":"suburb"},"geometry":{"type":"Point","coordinates":[-49.3283181,-25.7718006]}},{"type":"Feature","properties":{"nome":"Lagoinha B","osm_id":5119724305,"osm_tipo":"node","tipo_lugar":"suburb"},"geometry":{"type":"Point","coordinates":[-49.3229966,-25.7607084]}},{"type":"Feature","properties":{"nome":"Lagoinha C","osm_id":5119724306,"osm_tipo":"node","tipo_lugar":"suburb"},"geometry":{"type":"Point","coordinates":[-49.3294768,-25.7541957]}},{"type":"Feature","properties":{"nome":"Vila Mandirituba","osm_id":5119724307,"osm_tipo":"node","tipo_lugar":"suburb"},"geometry":{"type":"Point","coordinates":[-49.321516,-25.7735976]}},{"type":"Feature","properties":{"nome":"Queimados I","osm_id":5119740259,"osm_tipo":"node","tipo_lugar":"suburb"},"geometry":{"type":"Point","coordinates":[-49.3373942,-25.7831034]}},{"type":"Feature","properties":{"nome":"Queimados II","osm_id":5119740260,"osm_tipo":"node","tipo_lugar":"suburb"},"geometry":{"type":"Point","coordinates":[-49.33424,-25.7906193]}},{"type":"Feature","properties":{"nome":"Vila São João","osm_id":5641780323,"osm_tipo":"node","tipo_lugar":"suburb"},"geometry":{"type":"Point","coordinates":[-49.3145182,-25.7736706]}},{"type":"Feature","properties":{"nome":"Areia Branca dos Assis","osm_id":7365599926,"osm_tipo":"node","tipo_lugar":"suburb"},"geometry":{"type":"Point","coordinates":[-49.3657582,-25.8649896]}},{"type":"Feature","properties":{"nome":"Centro","osm_id":7365677452,"osm_tipo":"node","tipo_lugar":"suburb"},"geometry":{"type":"Point","coordinates":[-49.3270131,-25.7765741]}}]}