{"type":"FeatureCollection","features":[{"type":"Feature","properties":{"nome":"Balneário Solymar","osm_id":4462422509,"osm_tipo":"node","tipo_lugar":"neighbourhood"},"geometry":{"type":"Point","coordinates":[-48.5082341,-25.7651868]}},{"type":"Feature","properties":{"nome":"Caiobá","osm_id":4596888464,"osm_tipo":"node","tipo_lugar":"suburb"},"geometry":{"type":"Point","coordinates":[-48.5397306,-25.8312233]}},{"type":"Feature","properties":{"nome":"Praia Mansa","osm_id":8627468096,"osm_tipo":"node","tipo_lugar":"suburb"},"geometry":{"type":"Point","coordinates":[-48.5415259,-25.8465]}},{"type":"Feature","properties":{"nome":"Tabuleiro","osm_id":8627495283,"osm_tipo":"node","tipo_lugar":"suburb"},"geometry":{"type":"Point","coordinates":[-48.5500051,-25.835679]}},{"type":"Feature","properties":{"nome":"Bela Vista","osm_id":8627729472,"osm_tipo":"node","tipo_lugar":"suburb"},"geometry":{"type":"Point","coordinates":[-48.5425687,-25.8222998]}},{"type":"Feature","properties":{"nome":"Centro","osm_id":8627729475,"osm_tipo":"node","tipo_lugar":"suburb"},"geometry":{"type":"Point","coordinates":[-48.5344691,-25.818365]}},{"type":"Feature","properties":{"nome":"Sertãozinho","osm_id":8627734725,"osm_tipo":"node","tipo_lugar":"suburb"},"geometry":{"type":"Point","coordinates":[-48.5492785,-25.8128042]}},{"type":"Feature","properties":{"nome":"Bom Retiro","osm_id":8627734727,"osm_tipo":"node","tipo_lugar":"suburb"},"geometry":{"type":"Point","coordinates":[-48.5384584,-25.8102134]}},{"type":"Feature","properties":{"nome":"Rio da Onça","osm_id":8630061839,"osm_tipo":"node","tipo_lugar":"suburb"},"geometry":{"type":"Point","coordinates":[-48.5421551,-25.8019514]}},{"type":"Feature","properties":{"nome":"Riviera","osm_id":8630061841,"osm_tipo":"node","tipo_lugar":"suburb"},"geometry":{"type":"Point","coordinates":[-48.5270287,-25.7949057]}},{"type":"Feature","properties":{"nome":"Praia Grande","osm_id":8630061850,"osm_tipo":"node","tipo_lugar":"suburb"},"geometry":{"type":"Point","coordinates":[-48.5201711,-25.7793097]}},{"type":"Feature","properties":{"nome":"Betaras","osm_id":8630134196,"osm_tipo":"node","tipo_lugar":"suburb"},"geometry":{"type":"Point","coordinates":[-48.5084027,-25.7601868]}},{"type":"Feature","properties":{"nome":"Albatroz","osm_id":8630134204,"osm_tipo":"node","tipo_lugar":"suburb"},"geometry":{"type":"Point","coordinates":[-48.4976015,-25.7357278]}},{"type":"Feature","properties":{"nome":"Gaivotas","osm_id":8630134205,"osm_tipo":"node","tipo_lugar":"suburb"},"geometry":{"type":"Point","coordinates":[-48.487039,-25.7192693]}},{"type":"Feature","properties":{"nome":"Balneário Inajá","osm_id":9356169508,"osm_tipo":"node","tipo_lugar":"suburb"},"geometry":{"type":"Point","coordinates":[-48.5164628,-25.7692506]}},{"type":"Feature","properties":{"nome":"Balneário Inajá","osm_id":13637368,"osm_tipo":"relation","tipo_lugar":"suburb"},"geometry":{"type":"MultiPolygon","coordinates":[[[[-48.50919,-25.7683453],[-48.5108063,-25.7713464],[-48.5116718,-25.7730366],[-48.50919,-25.7683453]]],[[[-48.5139185,-25.7666465],[-48.5126075,-25.7671055],[-48.5102482,-25.7679541],[-48.5139185,-25.7666465]]],[[[-48.5161588,-25.7658853],[-48.5152818,-25.7661601],[-48.5140024,-25.7666167],[-48.5161588,-25.7658853]]],[[[-48.5250568,-25.764095],[-48.5244024,-25.7626907],[-48.5161588,-25.7658853],[-48.5250568,-25.764095]]],[[[-48.516797,-25.7715227],[-48.5192025,-25.7705571],[-48.5202349,-25.7701427],[-48.516797,-25.7715227]]],[[[-48.5163139,-25.7710308],[-48.5148382,-25.7716555],[-48.5147095,-25.7717161],[-48.5163139,-25.7710308]]],[[[-48.5116718,-25.7730366],[-48.5143067,-25.7718912],[-48.5147095,-25.7717161],[-48.5116718,-25.7730366]]]]}}]}