{"type":"FeatureCollection","features":[{"type":"Feature","properties":{"nome":"Nova Rússia","osm_id":845102560,"osm_tipo":"node","tipo_lugar":"suburb"},"geometry":{"type":"Point","coordinates":[-50.1758163,-25.0815019]}},{"type":"Feature","properties":{"nome":"Boa Vista","osm_id":845102561,"osm_tipo":"node","tipo_lugar":"suburb"},"geometry":{"type":"Point","coordinates":[-50.1750737,-25.0667996]}},{"type":"Feature","properties":{"nome":"Chapada","osm_id":845102562,"osm_tipo":"node","tipo_lugar":"suburb"},"geometry":{"type":"Point","coordinates":[-50.1978175,-25.07904]}},{"type":"Feature","properties":{"nome":"Ronda","osm_id":845102563,"osm_tipo":"node","tipo_lugar":"suburb"},"geometry":{"type":"Point","coordinates":[-50.1752649,-25.09993]}},{"type":"Feature","properties":{"nome":"Contorno","osm_id":845102564,"osm_tipo":"node","tipo_lugar":"suburb"},"geometry":{"type":"Point","coordinates":[-50.1946271,-25.1003576]}},{"type":"Feature","properties":{"nome":"Órfãs","osm_id":845102566,"osm_tipo":"node","tipo_lugar":"suburb"},"geometry":{"type":"Point","coordinates":[-50.1599955,-25.0714876]}},{"type":"Feature","properties":{"nome":"Jardim Carvalho","osm_id":845102568,"osm_tipo":"node","tipo_lugar":"suburb"},"geometry":{"type":"Point","coordinates":[-50.1523608,-25.0759789]}},{"type":"Feature","properties":{"nome":"Neves","osm_id":845102572,"osm_tipo":"node","tipo_lugar":"suburb"},"geometry":{"type":"Point","coordinates":[-50.1296928,-25.0759076]}},{"type":"Feature","properties":{"nome":"Vila Estrela","osm_id":845102573,"osm_tipo":"node","tipo_lugar":"suburb"},"geometry":{"type":"Point","coordinates":[-50.1629864,-25.1067722]}},{"type":"Feature","properties":{"nome":"Oficinas","osm_id":845102574,"osm_tipo":"node","tipo_lugar":"suburb"},"geometry":{"type":"Point","coordinates":[-50.1484253,-25.1238763]}},{"type":"Feature","properties":{"nome":"Olarias","osm_id":845102576,"osm_tipo":"node","tipo_lugar":"suburb"},"geometry":{"type":"Point","coordinates":[-50.1527599,-25.1030126]}},{"type":"Feature","properties":{"nome":"Uvaranas","osm_id":845102578,"osm_tipo":"node","tipo_lugar":"suburb"},"geometry":{"type":"Point","coordinates":[-50.1162861,-25.0900218]}},{"type":"Feature","properties":{"nome":"Cará-Cará","osm_id":1084448346,"osm_tipo":"node","tipo_lugar":"suburb"},"geometry":{"type":"Point","coordinates":[-50.1294346,-25.1679813]}},{"type":"Feature","properties":{"nome":"Jardim São Gabriel","osm_id":2107369904,"osm_tipo":"node","tipo_lugar":"suburb"},"geometry":{"type":"Point","coordinates":[-50.1314563,-25.1069655]}},{"type":"Feature","properties":{"nome":"Jardim Canaã","osm_id":2108101881,"osm_tipo":"node","tipo_lugar":"suburb"},"geometry":{"type":"Point","coordinates":[-50.206414,-25.1140377]}},{"type":"Feature","properties":{"nome":"Chácara Nova Esperança","osm_id":4616182674,"osm_tipo":"node","tipo_lugar":"suburb"},"geometry":{"type":"Point","coordinates":[-50.1860375,-25.327078]}},{"type":"Feature","properties":{"nome":"Alvorada","osm_id":7802031733,"osm_tipo":"node","tipo_lugar":"neighbourhood"},"geometry":{"type":"Point","coordinates":[-50.1418483,-25.1776702]}},{"type":"Feature","properties":{"nome":"San Martin","osm_id":307812098,"osm_tipo":"way","tipo_lugar":"suburb"},"geometry":{"type":"Polygon","coordinates":[[[-50.1048737,-25.0715757],[-50.1041824,-25.0725579],[-50.0943215,-25.0712829],[-50.0930739,-25.0659279],[-50.0914943,-25.0653997],[-50.0946448,-25.0651644],[-50.1048737,-25.0715757]]]}}]}