{"type":"FeatureCollection","features":[{"type":"Feature","properties":{"nome":"Conjunto Habitacional Sabastião de Moura Tresse","osm_id":7239730363,"osm_tipo":"node","tipo_lugar":"neighbourhood"},"geometry":{"type":"Point","coordinates":[-51.0857044,-23.7260523]}},{"type":"Feature","properties":{"nome":"Parque Residencial Cristo Rei","osm_id":7239730364,"osm_tipo":"node","tipo_lugar":"neighbourhood"},"geometry":{"type":"Point","coordinates":[-51.0872696,-23.7248987]}},{"type":"Feature","properties":{"nome":"Jardim Esperança","osm_id":7241443449,"osm_tipo":"node","tipo_lugar":"neighbourhood"},"geometry":{"type":"Point","coordinates":[-51.0982069,-23.7153277]}},{"type":"Feature","properties":{"nome":"Jardim Juny","osm_id":7241443451,"osm_tipo":"node","tipo_lugar":"neighbourhood"},"geometry":{"type":"Point","coordinates":[-51.0981764,-23.7181549]}},{"type":"Feature","properties":{"nome":"Residencial São Roque","osm_id":7241443452,"osm_tipo":"node","tipo_lugar":"neighbourhood"},"geometry":{"type":"Point","coordinates":[-51.0915567,-23.718666]}},{"type":"Feature","properties":{"nome":"Vila Siena","osm_id":7243851732,"osm_tipo":"node","tipo_lugar":"neighbourhood"},"geometry":{"type":"Point","coordinates":[-51.1095862,-23.7161254]}},{"type":"Feature","properties":{"nome":"Residencial São Roque","osm_id":776037455,"osm_tipo":"way","tipo_lugar":"neighbourhood"},"geometry":{"type":"Polygon","coordinates":[[[-51.0942456,-23.7195661],[-51.0919021,-23.7201419],[-51.0887571,-23.7182415],[-51.091413,-23.7172373],[-51.0942456,-23.7195661]]]}}]}