{"type":"FeatureCollection","features":[{"type":"Feature","properties":{"nome":"Centro","osm_id":12773542045,"osm_tipo":"node","tipo_lugar":"suburb"},"geometry":{"type":"Point","coordinates":[-59.0923476,-3.8887407]}},{"type":"Feature","properties":{"nome":"Santa Maria","osm_id":12773542046,"osm_tipo":"node","tipo_lugar":"suburb"},"geometry":{"type":"Point","coordinates":[-59.0906686,-3.8910902]}},{"type":"Feature","properties":{"nome":"Nossa Senhora de Fátima","osm_id":12773542056,"osm_tipo":"node","tipo_lugar":"suburb"},"geometry":{"type":"Point","coordinates":[-59.0865433,-3.8843252]}},{"type":"Feature","properties":{"nome":"Aerolândia","osm_id":12773542090,"osm_tipo":"node","tipo_lugar":"suburb"},"geometry":{"type":"Point","coordinates":[-59.0824342,-3.8872046]}},{"type":"Feature","properties":{"nome":"Vale do Sol","osm_id":12773548965,"osm_tipo":"node","tipo_lugar":"suburb"},"geometry":{"type":"Point","coordinates":[-59.0852881,-3.9004349]}},{"type":"Feature","properties":{"nome":"Chicolândia","osm_id":12773548999,"osm_tipo":"node","tipo_lugar":"suburb"},"geometry":{"type":"Point","coordinates":[-59.0927446,-3.8998461]}},{"type":"Feature","properties":{"nome":"Santa Luzia","osm_id":12773549111,"osm_tipo":"node","tipo_lugar":"suburb"},"geometry":{"type":"Point","coordinates":[-59.0956467,-3.8928618]}}]}