{"type":"FeatureCollection","features":[{"type":"Feature","properties":{"nome":"Poço Três","osm_id":1881281054,"osm_tipo":"node","tipo_lugar":"suburb"},"geometry":{"type":"Point","coordinates":[-51.74197,-30.0757403]}},{"type":"Feature","properties":{"nome":"Rincão dos Américos","osm_id":2264791689,"osm_tipo":"node","tipo_lugar":"suburb"},"geometry":{"type":"Point","coordinates":[-51.7478459,-30.1469321]}},{"type":"Feature","properties":{"nome":"Princesa Isabel","osm_id":2735052898,"osm_tipo":"node","tipo_lugar":"suburb"},"geometry":{"type":"Point","coordinates":[-51.7255124,-30.0858309]}},{"type":"Feature","properties":{"nome":"Alto da Bela Vista","osm_id":2735052924,"osm_tipo":"node","tipo_lugar":"suburb"},"geometry":{"type":"Point","coordinates":[-51.7260768,-30.0792691]}},{"type":"Feature","properties":{"nome":"Santa Bárbara","osm_id":2736607065,"osm_tipo":"node","tipo_lugar":"suburb"},"geometry":{"type":"Point","coordinates":[-51.7324635,-30.0802395]}},{"type":"Feature","properties":{"nome":"Estados","osm_id":2739621976,"osm_tipo":"node","tipo_lugar":"suburb"},"geometry":{"type":"Point","coordinates":[-51.7373561,-30.084741]}},{"type":"Feature","properties":{"nome":"Três Figueiras","osm_id":2739622053,"osm_tipo":"node","tipo_lugar":"neighbourhood"},"geometry":{"type":"Point","coordinates":[-51.7373132,-30.0744098]}},{"type":"Feature","properties":{"nome":"Centro","osm_id":2740714327,"osm_tipo":"node","tipo_lugar":"suburb"},"geometry":{"type":"Point","coordinates":[-51.7300391,-30.0910809]}},{"type":"Feature","properties":{"nome":"Nossa Senhora Aparecida","osm_id":2748746846,"osm_tipo":"node","tipo_lugar":"suburb"},"geometry":{"type":"Point","coordinates":[-51.7308345,-30.0998836]}},{"type":"Feature","properties":{"nome":"Collovini","osm_id":2748796692,"osm_tipo":"node","tipo_lugar":"suburb"},"geometry":{"type":"Point","coordinates":[-51.7315941,-30.1075363]}},{"type":"Feature","properties":{"nome":"Liberal","osm_id":2750776166,"osm_tipo":"node","tipo_lugar":"suburb"},"geometry":{"type":"Point","coordinates":[-51.741529,-30.0919322]}},{"type":"Feature","properties":{"nome":"Vila Pinho","osm_id":2791833645,"osm_tipo":"node","tipo_lugar":"suburb"},"geometry":{"type":"Point","coordinates":[-51.7560266,-30.082605]}},{"type":"Feature","properties":{"nome":"Vila Ferraz","osm_id":2791833646,"osm_tipo":"node","tipo_lugar":"suburb"},"geometry":{"type":"Point","coordinates":[-51.7496645,-30.0873805]}},{"type":"Feature","properties":{"nome":"São Cristóvão","osm_id":2791833647,"osm_tipo":"node","tipo_lugar":"suburb"},"geometry":{"type":"Point","coordinates":[-51.7467129,-30.0813926]}},{"type":"Feature","properties":{"nome":"Vila Garcia","osm_id":2801548685,"osm_tipo":"node","tipo_lugar":"suburb"},"geometry":{"type":"Point","coordinates":[-51.7169325,-30.0570114]}},{"type":"Feature","properties":{"nome":"Parque Farroupilha","osm_id":2801549106,"osm_tipo":"node","tipo_lugar":"suburb"},"geometry":{"type":"Point","coordinates":[-51.7081177,-30.0398418]}},{"type":"Feature","properties":{"nome":"Atafona","osm_id":4006347089,"osm_tipo":"node","tipo_lugar":"suburb"},"geometry":{"type":"Point","coordinates":[-51.7243892,-30.0743292]}},{"type":"Feature","properties":{"nome":"Distrito Industrial","osm_id":8378957703,"osm_tipo":"node","tipo_lugar":"suburb"},"geometry":{"type":"Point","coordinates":[-51.7380791,-30.1104411]}},{"type":"Feature","properties":{"nome":"Loteamento Água Azul","osm_id":610293080,"osm_tipo":"way","tipo_lugar":"neighbourhood"},"geometry":{"type":"Polygon","coordinates":[[[-51.742276,-30.0820368],[-51.7413193,-30.0847112],[-51.7404788,-30.0820751],[-51.742276,-30.0820368]]]}}]}