{"type":"FeatureCollection","features":[{"type":"Feature","properties":{"nome":"Barra do Forqueta","osm_id":3498301603,"osm_tipo":"node","tipo_lugar":"suburb"},"geometry":{"type":"Point","coordinates":[-51.9596002,-29.414908]}},{"type":"Feature","properties":{"nome":"São José","osm_id":3498301604,"osm_tipo":"node","tipo_lugar":"suburb"},"geometry":{"type":"Point","coordinates":[-51.9533862,-29.4069254]}},{"type":"Feature","properties":{"nome":"Bela Vista","osm_id":3498301605,"osm_tipo":"node","tipo_lugar":"suburb"},"geometry":{"type":"Point","coordinates":[-51.9505434,-29.3920967]}},{"type":"Feature","properties":{"nome":"Rui Barbosa","osm_id":3498301606,"osm_tipo":"node","tipo_lugar":"suburb"},"geometry":{"type":"Point","coordinates":[-51.9678192,-29.3801393]}},{"type":"Feature","properties":{"nome":"Navegantes","osm_id":5312990939,"osm_tipo":"node","tipo_lugar":"suburb"},"geometry":{"type":"Point","coordinates":[-51.9395274,-29.4061731]}},{"type":"Feature","properties":{"nome":"Medianeira","osm_id":5312990943,"osm_tipo":"node","tipo_lugar":"suburb"},"geometry":{"type":"Point","coordinates":[-51.9635814,-29.3963811]}},{"type":"Feature","properties":{"nome":"Centro","osm_id":5312990952,"osm_tipo":"node","tipo_lugar":"suburb"},"geometry":{"type":"Point","coordinates":[-51.9420095,-29.3998665]}},{"type":"Feature","properties":{"nome":"Aimoré","osm_id":5312990960,"osm_tipo":"node","tipo_lugar":"suburb"},"geometry":{"type":"Point","coordinates":[-51.9268555,-29.3924162]}},{"type":"Feature","properties":{"nome":"Dona Rita","osm_id":5312990962,"osm_tipo":"node","tipo_lugar":"suburb"},"geometry":{"type":"Point","coordinates":[-51.9458989,-29.3695379]}},{"type":"Feature","properties":{"nome":"São Caetano","osm_id":5312990963,"osm_tipo":"node","tipo_lugar":"suburb"},"geometry":{"type":"Point","coordinates":[-51.9208688,-29.3818217]}},{"type":"Feature","properties":{"nome":"Dom Pedro II","osm_id":5312990965,"osm_tipo":"node","tipo_lugar":"suburb"},"geometry":{"type":"Point","coordinates":[-51.9409329,-29.3849949]}},{"type":"Feature","properties":{"nome":"Novo Horizonte","osm_id":5312990970,"osm_tipo":"node","tipo_lugar":"suburb"},"geometry":{"type":"Point","coordinates":[-51.9234047,-29.3755395]}}]}