{"type":"FeatureCollection","features":[{"type":"Feature","properties":{"nome":"Centro","osm_id":446239439,"osm_tipo":"node","tipo_lugar":"suburb"},"geometry":{"type":"Point","coordinates":[-51.5162911,-29.1664657]}},{"type":"Feature","properties":{"nome":"Santo Antão","osm_id":446242895,"osm_tipo":"node","tipo_lugar":"suburb"},"geometry":{"type":"Point","coordinates":[-51.5023452,-29.1913092]}},{"type":"Feature","properties":{"nome":"Conceição","osm_id":446243181,"osm_tipo":"node","tipo_lugar":"suburb"},"geometry":{"type":"Point","coordinates":[-51.5356005,-29.1680287]}},{"type":"Feature","properties":{"nome":"Humaitá","osm_id":446244172,"osm_tipo":"node","tipo_lugar":"suburb"},"geometry":{"type":"Point","coordinates":[-51.5163748,-29.1610498]}},{"type":"Feature","properties":{"nome":"Botafogo","osm_id":449184030,"osm_tipo":"node","tipo_lugar":"suburb"},"geometry":{"type":"Point","coordinates":[-51.5117114,-29.1787051]}},{"type":"Feature","properties":{"nome":"Santa Rita","osm_id":449184889,"osm_tipo":"node","tipo_lugar":"suburb"},"geometry":{"type":"Point","coordinates":[-51.5138465,-29.1846777]}},{"type":"Feature","properties":{"nome":"São Roque","osm_id":566339334,"osm_tipo":"node","tipo_lugar":"suburb"},"geometry":{"type":"Point","coordinates":[-51.5314361,-29.1378935]}},{"type":"Feature","properties":{"nome":"Aparecida","osm_id":566340288,"osm_tipo":"node","tipo_lugar":"suburb"},"geometry":{"type":"Point","coordinates":[-51.5395495,-29.1356195]}},{"type":"Feature","properties":{"nome":"Universitário","osm_id":566340550,"osm_tipo":"node","tipo_lugar":"suburb"},"geometry":{"type":"Point","coordinates":[-51.523895,-29.1510221]}},{"type":"Feature","properties":{"nome":"Progresso","osm_id":566340996,"osm_tipo":"node","tipo_lugar":"suburb"},"geometry":{"type":"Point","coordinates":[-51.5180033,-29.1564653]}},{"type":"Feature","properties":{"nome":"São Vendelino","osm_id":566341067,"osm_tipo":"node","tipo_lugar":"suburb"},"geometry":{"type":"Point","coordinates":[-51.5347294,-29.147013]}},{"type":"Feature","properties":{"nome":"Maria Goretti","osm_id":566341323,"osm_tipo":"node","tipo_lugar":"suburb"},"geometry":{"type":"Point","coordinates":[-51.5279774,-29.1567333]}},{"type":"Feature","properties":{"nome":"São Francisco","osm_id":566342474,"osm_tipo":"node","tipo_lugar":"suburb"},"geometry":{"type":"Point","coordinates":[-51.5081949,-29.1652107]}},{"type":"Feature","properties":{"nome":"Vila Nova","osm_id":566342545,"osm_tipo":"node","tipo_lugar":"suburb"},"geometry":{"type":"Point","coordinates":[-51.4935275,-29.160593]}},{"type":"Feature","properties":{"nome":"Planalto","osm_id":566342551,"osm_tipo":"node","tipo_lugar":"suburb"},"geometry":{"type":"Point","coordinates":[-51.5028511,-29.1673266]}},{"type":"Feature","properties":{"nome":"Licorsul","osm_id":566342744,"osm_tipo":"node","tipo_lugar":"suburb"},"geometry":{"type":"Point","coordinates":[-51.50034,-29.1598589]}},{"type":"Feature","properties":{"nome":"São Bento","osm_id":566344049,"osm_tipo":"node","tipo_lugar":"suburb"},"geometry":{"type":"Point","coordinates":[-51.5082192,-29.1701794]}},{"type":"Feature","properties":{"nome":"Imigrante","osm_id":566346651,"osm_tipo":"node","tipo_lugar":"suburb"},"geometry":{"type":"Point","coordinates":[-51.5010067,-29.1740337]}},{"type":"Feature","properties":{"nome":"Jardim Glória","osm_id":566346731,"osm_tipo":"node","tipo_lugar":"suburb"},"geometry":{"type":"Point","coordinates":[-51.5271372,-29.1761115]}},{"type":"Feature","properties":{"nome":"Santa Marta","osm_id":566346847,"osm_tipo":"node","tipo_lugar":"suburb"},"geometry":{"type":"Point","coordinates":[-51.4999735,-29.180227]}},{"type":"Feature","properties":{"nome":"Fenavinho","osm_id":566347209,"osm_tipo":"node","tipo_lugar":"suburb"},"geometry":{"type":"Point","coordinates":[-51.4941193,-29.1672024]}},{"type":"Feature","properties":{"nome":"Pomarosa","osm_id":566504235,"osm_tipo":"node","tipo_lugar":"suburb"},"geometry":{"type":"Point","coordinates":[-51.5182207,-29.177516]}},{"type":"Feature","properties":{"nome":"Vinosul","osm_id":566504304,"osm_tipo":"node","tipo_lugar":"suburb"},"geometry":{"type":"Point","coordinates":[-51.5236587,-29.1864496]}},{"type":"Feature","properties":{"nome":"Nossa Senhora do Carmo","osm_id":2498016878,"osm_tipo":"node","tipo_lugar":"suburb"},"geometry":{"type":"Point","coordinates":[-51.5451245,-29.1217646]}},{"type":"Feature","properties":{"nome":"São Valentin","osm_id":2498016880,"osm_tipo":"node","tipo_lugar":"suburb"},"geometry":{"type":"Point","coordinates":[-51.536177,-29.1067999]}},{"type":"Feature","properties":{"nome":"Caminhos da Eulália","osm_id":2498037464,"osm_tipo":"node","tipo_lugar":"suburb"},"geometry":{"type":"Point","coordinates":[-51.5504501,-29.1426375]}},{"type":"Feature","properties":{"nome":"São João","osm_id":2498037465,"osm_tipo":"node","tipo_lugar":"suburb"},"geometry":{"type":"Point","coordinates":[-51.5417768,-29.1526659]}},{"type":"Feature","properties":{"nome":"Municipal","osm_id":2533409172,"osm_tipo":"node","tipo_lugar":"suburb"},"geometry":{"type":"Point","coordinates":[-51.533837,-29.175597]}},{"type":"Feature","properties":{"nome":"Vinhedos","osm_id":2533409173,"osm_tipo":"node","tipo_lugar":"suburb"},"geometry":{"type":"Point","coordinates":[-51.5383721,-29.1595369]}},{"type":"Feature","properties":{"nome":"Merlot","osm_id":2545972210,"osm_tipo":"node","tipo_lugar":"suburb"},"geometry":{"type":"Point","coordinates":[-51.5345526,-29.1899487]}},{"type":"Feature","properties":{"nome":"Verona","osm_id":2545972217,"osm_tipo":"node","tipo_lugar":"suburb"},"geometry":{"type":"Point","coordinates":[-51.5123664,-29.1904008]}},{"type":"Feature","properties":{"nome":"Santa Helena","osm_id":2546025427,"osm_tipo":"node","tipo_lugar":"suburb"},"geometry":{"type":"Point","coordinates":[-51.5020879,-29.1850465]}},{"type":"Feature","properties":{"nome":"Borgo","osm_id":2556576062,"osm_tipo":"node","tipo_lugar":"suburb"},"geometry":{"type":"Point","coordinates":[-51.5087584,-29.1548664]}},{"type":"Feature","properties":{"nome":"Barracão","osm_id":2623033122,"osm_tipo":"node","tipo_lugar":"suburb"},"geometry":{"type":"Point","coordinates":[-51.477494,-29.1647088]}},{"type":"Feature","properties":{"nome":"Cohab","osm_id":2623033123,"osm_tipo":"node","tipo_lugar":"suburb"},"geometry":{"type":"Point","coordinates":[-51.5030377,-29.153106]}},{"type":"Feature","properties":{"nome":"Cruzeiro","osm_id":2623033124,"osm_tipo":"node","tipo_lugar":"suburb"},"geometry":{"type":"Point","coordinates":[-51.4749446,-29.1870143]}},{"type":"Feature","properties":{"nome":"Eucaliptos","osm_id":2623033125,"osm_tipo":"node","tipo_lugar":"suburb"},"geometry":{"type":"Point","coordinates":[-51.4898386,-29.1635986]}},{"type":"Feature","properties":{"nome":"Fátima","osm_id":2623033126,"osm_tipo":"node","tipo_lugar":"suburb"},"geometry":{"type":"Point","coordinates":[-51.4879892,-29.1795751]}},{"type":"Feature","properties":{"nome":"Industrial","osm_id":2623033127,"osm_tipo":"node","tipo_lugar":"suburb"},"geometry":{"type":"Point","coordinates":[-51.4955692,-29.1469202]}},{"type":"Feature","properties":{"nome":"Ouro Verde","osm_id":2623033128,"osm_tipo":"node","tipo_lugar":"suburb"},"geometry":{"type":"Point","coordinates":[-51.5162662,-29.1417932]}},{"type":"Feature","properties":{"nome":"Pradel","osm_id":2623033129,"osm_tipo":"node","tipo_lugar":"suburb"},"geometry":{"type":"Point","coordinates":[-51.5137508,-29.1297526]}},{"type":"Feature","properties":{"nome":"Salgado","osm_id":2623033130,"osm_tipo":"node","tipo_lugar":"suburb"},"geometry":{"type":"Point","coordinates":[-51.4881444,-29.1348656]}},{"type":"Feature","properties":{"nome":"Vila Nova II","osm_id":2623033131,"osm_tipo":"node","tipo_lugar":"suburb"},"geometry":{"type":"Point","coordinates":[-51.4845294,-29.158796]}},{"type":"Feature","properties":{"nome":"Zatt","osm_id":2623033132,"osm_tipo":"node","tipo_lugar":"suburb"},"geometry":{"type":"Point","coordinates":[-51.511705,-29.1365]}},{"type":"Feature","properties":{"nome":"Juventude da Enologia","osm_id":4795458048,"osm_tipo":"node","tipo_lugar":"suburb"},"geometry":{"type":"Point","coordinates":[-51.5229144,-29.1667408]}},{"type":"Feature","properties":{"nome":"Cidade Alta","osm_id":5496686065,"osm_tipo":"node","tipo_lugar":"suburb"},"geometry":{"type":"Point","coordinates":[-51.5196949,-29.1712381]}},{"type":"Feature","properties":{"nome":"Loteamento Colina do Sol","osm_id":10759579735,"osm_tipo":"node","tipo_lugar":"neighbourhood"},"geometry":{"type":"Point","coordinates":[-51.5349196,-29.1523255]}},{"type":"Feature","properties":{"nome":"Parque Residencial Morada da Serra","osm_id":11459314124,"osm_tipo":"node","tipo_lugar":"neighbourhood"},"geometry":{"type":"Point","coordinates":[-51.530833,-29.1372482]}},{"type":"Feature","properties":{"nome":"Parque João XXIII Vasco do Gama","osm_id":11459340777,"osm_tipo":"node","tipo_lugar":"neighbourhood"},"geometry":{"type":"Point","coordinates":[-51.5025343,-29.163343]}}]}