{"type":"FeatureCollection","features":[{"type":"Feature","properties":{"nome":"Centro","osm_id":5312991165,"osm_tipo":"node","tipo_lugar":"suburb"},"geometry":{"type":"Point","coordinates":[-51.9361038,-29.6011566]}},{"type":"Feature","properties":{"nome":"Fazenda Barros","osm_id":5312991166,"osm_tipo":"node","tipo_lugar":"suburb"},"geometry":{"type":"Point","coordinates":[-51.9198843,-29.6033788]}},{"type":"Feature","properties":{"nome":"Imigrante","osm_id":5312991167,"osm_tipo":"node","tipo_lugar":"suburb"},"geometry":{"type":"Point","coordinates":[-51.9436127,-29.6010708]}},{"type":"Feature","properties":{"nome":"São Jorge","osm_id":5312991168,"osm_tipo":"node","tipo_lugar":"suburb"},"geometry":{"type":"Point","coordinates":[-51.9337438,-29.6047083]}},{"type":"Feature","properties":{"nome":"Alto da Bronze","osm_id":5312991169,"osm_tipo":"node","tipo_lugar":"suburb"},"geometry":{"type":"Point","coordinates":[-51.9295362,-29.6022762]}},{"type":"Feature","properties":{"nome":"Getúlio Vargas","osm_id":5312991170,"osm_tipo":"node","tipo_lugar":"suburb"},"geometry":{"type":"Point","coordinates":[-51.9325275,-29.5962358]}},{"type":"Feature","properties":{"nome":"São Francisco","osm_id":5312991171,"osm_tipo":"node","tipo_lugar":"suburb"},"geometry":{"type":"Point","coordinates":[-51.9409785,-29.5963023]}},{"type":"Feature","properties":{"nome":"São João","osm_id":5312991172,"osm_tipo":"node","tipo_lugar":"suburb"},"geometry":{"type":"Point","coordinates":[-51.9263972,-29.5897161]}},{"type":"Feature","properties":{"nome":"Laranjeiras","osm_id":5312991173,"osm_tipo":"node","tipo_lugar":"suburb"},"geometry":{"type":"Point","coordinates":[-51.936084,-29.5878851]}},{"type":"Feature","properties":{"nome":"Centro Cidade Baixa","osm_id":5312991174,"osm_tipo":"node","tipo_lugar":"suburb"},"geometry":{"type":"Point","coordinates":[-51.942493,-29.6074424]}},{"type":"Feature","properties":{"nome":"Águas Boas","osm_id":5312991175,"osm_tipo":"node","tipo_lugar":"suburb"},"geometry":{"type":"Point","coordinates":[-51.9271447,-29.6081875]}},{"type":"Feature","properties":{"nome":"Goiabeira","osm_id":5312991176,"osm_tipo":"node","tipo_lugar":"suburb"},"geometry":{"type":"Point","coordinates":[-51.9339079,-29.6121968]}},{"type":"Feature","properties":{"nome":"Brasília","osm_id":5312991177,"osm_tipo":"node","tipo_lugar":"suburb"},"geometry":{"type":"Point","coordinates":[-51.9479029,-29.6071311]}},{"type":"Feature","properties":{"nome":"San'Diego","osm_id":5826882761,"osm_tipo":"node","tipo_lugar":"suburb"},"geometry":{"type":"Point","coordinates":[-51.9260001,-29.5992823]}}]}