{"type":"FeatureCollection","features":[{"type":"Feature","properties":{"nome":"Olaria","osm_id":462019034,"osm_tipo":"node","tipo_lugar":"suburb"},"geometry":{"type":"Point","coordinates":[-51.8065057,-30.8583212]}},{"type":"Feature","properties":{"nome":"Jardim do Forte","osm_id":462024953,"osm_tipo":"node","tipo_lugar":"suburb"},"geometry":{"type":"Point","coordinates":[-51.8227706,-30.8504739]}},{"type":"Feature","properties":{"nome":"Oliveira","osm_id":5312991960,"osm_tipo":"node","tipo_lugar":"suburb"},"geometry":{"type":"Point","coordinates":[-51.8111185,-30.8374314]}},{"type":"Feature","properties":{"nome":"Ouro Verde","osm_id":5312991961,"osm_tipo":"node","tipo_lugar":"suburb"},"geometry":{"type":"Point","coordinates":[-51.7927928,-30.8432714]}},{"type":"Feature","properties":{"nome":"Bom Sucesso","osm_id":5312991962,"osm_tipo":"node","tipo_lugar":"suburb"},"geometry":{"type":"Point","coordinates":[-51.8160365,-30.8420525]}},{"type":"Feature","properties":{"nome":"Dona Tereza","osm_id":5312991963,"osm_tipo":"node","tipo_lugar":"suburb"},"geometry":{"type":"Point","coordinates":[-51.8058389,-30.8434948]}},{"type":"Feature","properties":{"nome":"Maria da Graça","osm_id":5312991964,"osm_tipo":"node","tipo_lugar":"suburb"},"geometry":{"type":"Point","coordinates":[-51.8233228,-30.8607313]}},{"type":"Feature","properties":{"nome":"Doutor Rosinha","osm_id":5312991965,"osm_tipo":"node","tipo_lugar":"suburb"},"geometry":{"type":"Point","coordinates":[-51.794135,-30.8598541]}},{"type":"Feature","properties":{"nome":"Carvalho Bastos","osm_id":5312991966,"osm_tipo":"node","tipo_lugar":"suburb"},"geometry":{"type":"Point","coordinates":[-51.7932136,-30.8544037]}},{"type":"Feature","properties":{"nome":"Santa Bárbara","osm_id":5312991967,"osm_tipo":"node","tipo_lugar":"suburb"},"geometry":{"type":"Point","coordinates":[-51.7936722,-30.8491569]}},{"type":"Feature","properties":{"nome":"Gaúcho","osm_id":5312991968,"osm_tipo":"node","tipo_lugar":"suburb"},"geometry":{"type":"Point","coordinates":[-51.8239711,-30.85673]}},{"type":"Feature","properties":{"nome":"Cônego Luiz Walter Hanquet","osm_id":5312991969,"osm_tipo":"node","tipo_lugar":"suburb"},"geometry":{"type":"Point","coordinates":[-51.7882705,-30.8409999]}},{"type":"Feature","properties":{"nome":"General Antonio Netto","osm_id":5312991970,"osm_tipo":"node","tipo_lugar":"suburb"},"geometry":{"type":"Point","coordinates":[-51.8244237,-30.8386719]}},{"type":"Feature","properties":{"nome":"São Luiz","osm_id":5312991971,"osm_tipo":"node","tipo_lugar":"suburb"},"geometry":{"type":"Point","coordinates":[-51.7819699,-30.8590517]}},{"type":"Feature","properties":{"nome":"São Pedro","osm_id":5312991972,"osm_tipo":"node","tipo_lugar":"suburb"},"geometry":{"type":"Point","coordinates":[-51.7612545,-30.8517597]}},{"type":"Feature","properties":{"nome":"São Carlos","osm_id":5312991973,"osm_tipo":"node","tipo_lugar":"suburb"},"geometry":{"type":"Point","coordinates":[-51.718868,-30.8243751]}},{"type":"Feature","properties":{"nome":"São José","osm_id":5312991974,"osm_tipo":"node","tipo_lugar":"suburb"},"geometry":{"type":"Point","coordinates":[-51.7985232,-30.8563318]}},{"type":"Feature","properties":{"nome":"Centro","osm_id":5312991975,"osm_tipo":"node","tipo_lugar":"suburb"},"geometry":{"type":"Point","coordinates":[-51.8129593,-30.8513209]}},{"type":"Feature","properties":{"nome":"Getúlio Vargas","osm_id":5312991976,"osm_tipo":"node","tipo_lugar":"suburb"},"geometry":{"type":"Point","coordinates":[-51.8074289,-30.8661461]}},{"type":"Feature","properties":{"nome":"Vila Nova","osm_id":5312991977,"osm_tipo":"node","tipo_lugar":"suburb"},"geometry":{"type":"Point","coordinates":[-51.8021173,-30.8476847]}},{"type":"Feature","properties":{"nome":"Viégas","osm_id":5312991978,"osm_tipo":"node","tipo_lugar":"suburb"},"geometry":{"type":"Point","coordinates":[-51.8214789,-30.8728389]}},{"type":"Feature","properties":{"nome":"Parque Residencial do Arroio Duro","osm_id":5312991979,"osm_tipo":"node","tipo_lugar":"suburb"},"geometry":{"type":"Point","coordinates":[-51.812201,-30.8654887]}},{"type":"Feature","properties":{"nome":"Siá Juliana","osm_id":5312991980,"osm_tipo":"node","tipo_lugar":"suburb"},"geometry":{"type":"Point","coordinates":[-51.8204838,-30.8484362]}},{"type":"Feature","properties":{"nome":"Jardim","osm_id":5312991981,"osm_tipo":"node","tipo_lugar":"suburb"},"geometry":{"type":"Point","coordinates":[-51.8213861,-30.8639307]}},{"type":"Feature","properties":{"nome":"Santa Marta","osm_id":5312991982,"osm_tipo":"node","tipo_lugar":"suburb"},"geometry":{"type":"Point","coordinates":[-51.8186861,-30.8335575]}},{"type":"Feature","properties":{"nome":"Hípico","osm_id":5312991983,"osm_tipo":"node","tipo_lugar":"suburb"},"geometry":{"type":"Point","coordinates":[-51.8119446,-30.8424142]}},{"type":"Feature","properties":{"nome":"Centenário","osm_id":5312991984,"osm_tipo":"node","tipo_lugar":"suburb"},"geometry":{"type":"Point","coordinates":[-51.818886,-30.8448639]}},{"type":"Feature","properties":{"nome":"São João","osm_id":5312991985,"osm_tipo":"node","tipo_lugar":"suburb"},"geometry":{"type":"Point","coordinates":[-51.8194171,-30.8407823]}},{"type":"Feature","properties":{"nome":"Floresta","osm_id":5312991986,"osm_tipo":"node","tipo_lugar":"suburb"},"geometry":{"type":"Point","coordinates":[-51.8156125,-30.8358556]}}]}