{"type":"FeatureCollection","features":[{"type":"Feature","properties":{"nome":"Centro","osm_id":5071719553,"osm_tipo":"node","tipo_lugar":"suburb"},"geometry":{"type":"Point","coordinates":[-52.6770003,-31.3965038]}},{"type":"Feature","properties":{"nome":"Vila Nova","osm_id":5312991987,"osm_tipo":"node","tipo_lugar":"suburb"},"geometry":{"type":"Point","coordinates":[-52.6744577,-31.407511]}},{"type":"Feature","properties":{"nome":"Bairro Isabel","osm_id":5312991989,"osm_tipo":"node","tipo_lugar":"suburb"},"geometry":{"type":"Point","coordinates":[-52.6681325,-31.3955393]}},{"type":"Feature","properties":{"nome":"Uruguai","osm_id":5312991990,"osm_tipo":"node","tipo_lugar":"suburb"},"geometry":{"type":"Point","coordinates":[-52.6808576,-31.4015514]}},{"type":"Feature","properties":{"nome":"Prado","osm_id":5312991991,"osm_tipo":"node","tipo_lugar":"suburb"},"geometry":{"type":"Point","coordinates":[-52.6718919,-31.390237]}},{"type":"Feature","properties":{"nome":"Triângulo","osm_id":5312991992,"osm_tipo":"node","tipo_lugar":"suburb"},"geometry":{"type":"Point","coordinates":[-52.6859331,-31.3881099]}},{"type":"Feature","properties":{"nome":"Teixeiras","osm_id":5312991993,"osm_tipo":"node","tipo_lugar":"suburb"},"geometry":{"type":"Point","coordinates":[-52.6757994,-31.3839121]}},{"type":"Feature","properties":{"nome":"Vila Fonseca","osm_id":5312991994,"osm_tipo":"node","tipo_lugar":"suburb"},"geometry":{"type":"Point","coordinates":[-52.6845138,-31.4091229]}},{"type":"Feature","properties":{"nome":"Loteamento Alice - Reserva Urbanismo","osm_id":9879235785,"osm_tipo":"node","tipo_lugar":"neighbourhood"},"geometry":{"type":"Point","coordinates":[-52.6684731,-31.4119907]}},{"type":"Feature","properties":{"nome":"Loteamento Casarão - Reserva Urbanismo","osm_id":9879235786,"osm_tipo":"node","tipo_lugar":"neighbourhood"},"geometry":{"type":"Point","coordinates":[-52.6703211,-31.4106029]}}]}