{"type":"FeatureCollection","features":[{"type":"Feature","properties":{"nome":"Betania","osm_id":1946238529,"osm_tipo":"node","tipo_lugar":"neighbourhood"},"geometry":{"type":"Point","coordinates":[-82.8522464,8.5441965]}},{"type":"Feature","properties":{"nome":"Villa Darizara","osm_id":2081756586,"osm_tipo":"node","tipo_lugar":"neighbourhood"},"geometry":{"type":"Point","coordinates":[-82.8563732,8.5592821]}},{"type":"Feature","properties":{"nome":"Fátima","osm_id":2130647628,"osm_tipo":"node","tipo_lugar":"suburb"},"geometry":{"type":"Point","coordinates":[-51.1867844,-29.9448424]}},{"type":"Feature","properties":{"nome":"Nossa Senhora das Graças","osm_id":2130647629,"osm_tipo":"node","tipo_lugar":"suburb"},"geometry":{"type":"Point","coordinates":[-51.1709587,-29.9304434]}},{"type":"Feature","properties":{"nome":"Rio Branco","osm_id":2130647630,"osm_tipo":"node","tipo_lugar":"suburb"},"geometry":{"type":"Point","coordinates":[-51.1825246,-29.9579344]}},{"type":"Feature","properties":{"nome":"Niteroi","osm_id":2130647631,"osm_tipo":"node","tipo_lugar":"suburb"},"geometry":{"type":"Point","coordinates":[-51.1648792,-29.9512384]}},{"type":"Feature","properties":{"nome":"Igara","osm_id":2278742383,"osm_tipo":"node","tipo_lugar":"suburb"},"geometry":{"type":"Point","coordinates":[-51.1571047,-29.8976487]}},{"type":"Feature","properties":{"nome":"Mato Grande","osm_id":2600621908,"osm_tipo":"node","tipo_lugar":"suburb"},"geometry":{"type":"Point","coordinates":[-51.1954553,-29.9289151]}},{"type":"Feature","properties":{"nome":"Mathias Velho","osm_id":2600621913,"osm_tipo":"node","tipo_lugar":"suburb"},"geometry":{"type":"Point","coordinates":[-51.2095816,-29.8989475]}},{"type":"Feature","properties":{"nome":"La Bomba","osm_id":3635883985,"osm_tipo":"node","tipo_lugar":"neighbourhood"},"geometry":{"type":"Point","coordinates":[-82.8444839,8.5354002]}},{"type":"Feature","properties":{"nome":"El Cartín","osm_id":3635889916,"osm_tipo":"node","tipo_lugar":"neighbourhood"},"geometry":{"type":"Point","coordinates":[-82.840495,8.5379987]}},{"type":"Feature","properties":{"nome":"San Jorge Sur","osm_id":3635891400,"osm_tipo":"node","tipo_lugar":"neighbourhood"},"geometry":{"type":"Point","coordinates":[-82.8422565,8.5458291]}},{"type":"Feature","properties":{"nome":"Ciudadela El Triunfo","osm_id":3635892910,"osm_tipo":"node","tipo_lugar":"neighbourhood"},"geometry":{"type":"Point","coordinates":[-82.8568546,8.5624447]}},{"type":"Feature","properties":{"nome":"São José","osm_id":4108477604,"osm_tipo":"node","tipo_lugar":"suburb"},"geometry":{"type":"Point","coordinates":[-51.1721746,-29.8841276]}},{"type":"Feature","properties":{"nome":"Industrial","osm_id":4854494445,"osm_tipo":"node","tipo_lugar":"suburb"},"geometry":{"type":"Point","coordinates":[-51.1847622,-29.8764146]}},{"type":"Feature","properties":{"nome":"Brigadeira","osm_id":4854533126,"osm_tipo":"node","tipo_lugar":"suburb"},"geometry":{"type":"Point","coordinates":[-51.1548694,-29.87578]}},{"type":"Feature","properties":{"nome":"São Luís","osm_id":4856559784,"osm_tipo":"node","tipo_lugar":"suburb"},"geometry":{"type":"Point","coordinates":[-51.1874727,-29.8874071]}},{"type":"Feature","properties":{"nome":"Guajuviras","osm_id":4860717266,"osm_tipo":"node","tipo_lugar":"suburb"},"geometry":{"type":"Point","coordinates":[-51.1388127,-29.8954505]}},{"type":"Feature","properties":{"nome":"Harmonia","osm_id":4862651408,"osm_tipo":"node","tipo_lugar":"suburb"},"geometry":{"type":"Point","coordinates":[-51.2027975,-29.9139526]}},{"type":"Feature","properties":{"nome":"Centro","osm_id":4862672201,"osm_tipo":"node","tipo_lugar":"suburb"},"geometry":{"type":"Point","coordinates":[-51.1845017,-29.9162151]}},{"type":"Feature","properties":{"nome":"Marechal Rondon","osm_id":4862701625,"osm_tipo":"node","tipo_lugar":"suburb"},"geometry":{"type":"Point","coordinates":[-51.163007,-29.9223262]}},{"type":"Feature","properties":{"nome":"Olaria","osm_id":4862711021,"osm_tipo":"node","tipo_lugar":"suburb"},"geometry":{"type":"Point","coordinates":[-51.1250092,-29.9196174]}},{"type":"Feature","properties":{"nome":"La Libertad","osm_id":4923342871,"osm_tipo":"node","tipo_lugar":"neighbourhood"},"geometry":{"type":"Point","coordinates":[-82.8432185,8.5328955]}},{"type":"Feature","properties":{"nome":"Carlín Rodríguez","osm_id":4923342872,"osm_tipo":"node","tipo_lugar":"neighbourhood"},"geometry":{"type":"Point","coordinates":[-82.8469707,8.5357331]}},{"type":"Feature","properties":{"nome":"San Martín","osm_id":4923342873,"osm_tipo":"node","tipo_lugar":"neighbourhood"},"geometry":{"type":"Point","coordinates":[-82.8338605,8.569271]}},{"type":"Feature","properties":{"nome":"San Miguel","osm_id":4923342874,"osm_tipo":"node","tipo_lugar":"neighbourhood"},"geometry":{"type":"Point","coordinates":[-82.8459324,8.5757254]}},{"type":"Feature","properties":{"nome":"Planalto Canoense","osm_id":6571899985,"osm_tipo":"node","tipo_lugar":"neighbourhood"},"geometry":{"type":"Point","coordinates":[-51.1224439,-29.9211448]}},{"type":"Feature","properties":{"nome":"Santa Marta","osm_id":7247787750,"osm_tipo":"node","tipo_lugar":"neighbourhood"},"geometry":{"type":"Point","coordinates":[-82.8998846,8.5999496]}},{"type":"Feature","properties":{"nome":"Coloradito Sur","osm_id":7247787771,"osm_tipo":"node","tipo_lugar":"neighbourhood"},"geometry":{"type":"Point","coordinates":[-82.8922796,8.5940094]}},{"type":"Feature","properties":{"nome":"San Isidro","osm_id":7247856317,"osm_tipo":"node","tipo_lugar":"neighbourhood"},"geometry":{"type":"Point","coordinates":[-82.8574223,8.5822829]}},{"type":"Feature","properties":{"nome":"Las Torres","osm_id":8390838376,"osm_tipo":"node","tipo_lugar":"neighbourhood"},"geometry":{"type":"Point","coordinates":[-82.8377717,8.5080118]}},{"type":"Feature","properties":{"nome":"Betel","osm_id":8391072659,"osm_tipo":"node","tipo_lugar":"neighbourhood"},"geometry":{"type":"Point","coordinates":[-82.8369102,8.5251623]}},{"type":"Feature","properties":{"nome":"Campo Bello","osm_id":8391072660,"osm_tipo":"node","tipo_lugar":"neighbourhood"},"geometry":{"type":"Point","coordinates":[-82.8446987,8.5313104]}},{"type":"Feature","properties":{"nome":"La Brigada","osm_id":8391072661,"osm_tipo":"node","tipo_lugar":"neighbourhood"},"geometry":{"type":"Point","coordinates":[-82.842194,8.5410443]}},{"type":"Feature","properties":{"nome":"San Gil","osm_id":8391072662,"osm_tipo":"node","tipo_lugar":"neighbourhood"},"geometry":{"type":"Point","coordinates":[-82.8428497,8.5575151]}},{"type":"Feature","properties":{"nome":"San Jorge Norte","osm_id":8391072663,"osm_tipo":"node","tipo_lugar":"neighbourhood"},"geometry":{"type":"Point","coordinates":[-82.8386986,8.5509537]}},{"type":"Feature","properties":{"nome":"San Cristóbal","osm_id":8391885912,"osm_tipo":"node","tipo_lugar":"neighbourhood"},"geometry":{"type":"Point","coordinates":[-82.850483,8.5680737]}},{"type":"Feature","properties":{"nome":"Corregimiento 2 Norte","osm_id":9254124719,"osm_tipo":"node","tipo_lugar":"suburb"},"geometry":{"type":"Point","coordinates":[-74.275589,4.5837928]}},{"type":"Feature","properties":{"nome":"Asentamiento Padilla","osm_id":9283875826,"osm_tipo":"node","tipo_lugar":"neighbourhood"},"geometry":{"type":"Point","coordinates":[-82.8452848,8.5523783]}},{"type":"Feature","properties":{"nome":"Veracruz","osm_id":10538555700,"osm_tipo":"node","tipo_lugar":"neighbourhood"},"geometry":{"type":"Point","coordinates":[-82.8733637,8.5879339]}},{"type":"Feature","properties":{"nome":"Villarreal","osm_id":13188966211,"osm_tipo":"node","tipo_lugar":"neighbourhood"},"geometry":{"type":"Point","coordinates":[-82.8469642,8.5317953]}},{"type":"Feature","properties":{"nome":"Las Brisas","osm_id":13198340909,"osm_tipo":"node","tipo_lugar":"neighbourhood"},"geometry":{"type":"Point","coordinates":[-82.8737814,8.565192]}},{"type":"Feature","properties":{"nome":"Residencial Central Park","osm_id":16836808,"osm_tipo":"relation","tipo_lugar":"neighbourhood"},"geometry":{"type":"Polygon","coordinates":[[[-51.1946128,-29.9262717],[-51.2009132,-29.9261417],[-51.2042338,-29.9191259],[-51.1961972,-29.9220053],[-51.1946128,-29.9262717]]]}},{"type":"Feature","properties":{"nome":"Vila República","osm_id":16836809,"osm_tipo":"relation","tipo_lugar":"neighbourhood"},"geometry":{"type":"Polygon","coordinates":[[[-51.1946128,-29.9262717],[-51.1956938,-29.9221654],[-51.1961972,-29.9220053],[-51.1946128,-29.9262717]]]}}]}