{"type":"FeatureCollection","features":[{"type":"Feature","properties":{"nome":"São José","osm_id":4888242670,"osm_tipo":"node","tipo_lugar":"neighbourhood"},"geometry":{"type":"Point","coordinates":[-53.0711747,-28.0528559]}},{"type":"Feature","properties":{"nome":"Centro","osm_id":4888242671,"osm_tipo":"node","tipo_lugar":"neighbourhood"},"geometry":{"type":"Point","coordinates":[-53.0673981,-28.0578172]}},{"type":"Feature","properties":{"nome":"Elite","osm_id":4888242672,"osm_tipo":"node","tipo_lugar":"neighbourhood"},"geometry":{"type":"Point","coordinates":[-53.0580425,-28.0624754]}},{"type":"Feature","properties":{"nome":"Aparecida","osm_id":4888242673,"osm_tipo":"node","tipo_lugar":"neighbourhood"},"geometry":{"type":"Point","coordinates":[-53.0719471,-28.0589155]}},{"type":"Feature","properties":{"nome":"Progresso","osm_id":4888242674,"osm_tipo":"node","tipo_lugar":"neighbourhood"},"geometry":{"type":"Point","coordinates":[-53.0642224,-28.0528938]}},{"type":"Feature","properties":{"nome":"Santa Lúcia","osm_id":4888242675,"osm_tipo":"node","tipo_lugar":"neighbourhood"},"geometry":{"type":"Point","coordinates":[-53.0635357,-28.0692917]}},{"type":"Feature","properties":{"nome":"Fátima","osm_id":4888242676,"osm_tipo":"node","tipo_lugar":"neighbourhood"},"geometry":{"type":"Point","coordinates":[-53.0602741,-28.0574006]}}]}