{"type":"FeatureCollection","features":[{"type":"Feature","properties":{"nome":"Vila Piratini","osm_id":3667145245,"osm_tipo":"node","tipo_lugar":"neighbourhood"},"geometry":{"type":"Point","coordinates":[-51.6123095,-29.9665133]}},{"type":"Feature","properties":{"nome":"São Miguel","osm_id":3667145246,"osm_tipo":"node","tipo_lugar":"suburb"},"geometry":{"type":"Point","coordinates":[-51.6369481,-29.9829925]}},{"type":"Feature","properties":{"nome":"Centro","osm_id":5312991236,"osm_tipo":"node","tipo_lugar":"suburb"},"geometry":{"type":"Point","coordinates":[-51.6255488,-29.9594079]}},{"type":"Feature","properties":{"nome":"Vila Rosa","osm_id":5312991238,"osm_tipo":"node","tipo_lugar":"suburb"},"geometry":{"type":"Point","coordinates":[-51.6343989,-29.9587505]}},{"type":"Feature","properties":{"nome":"Otília","osm_id":5312991239,"osm_tipo":"node","tipo_lugar":"suburb"},"geometry":{"type":"Point","coordinates":[-51.6386569,-29.9693914]}},{"type":"Feature","properties":{"nome":"Orvisa","osm_id":5312991240,"osm_tipo":"node","tipo_lugar":"suburb"},"geometry":{"type":"Point","coordinates":[-51.6222561,-29.9664202]}},{"type":"Feature","properties":{"nome":"Piratini","osm_id":5312991241,"osm_tipo":"node","tipo_lugar":"suburb"},"geometry":{"type":"Point","coordinates":[-51.6148597,-29.9572504]}},{"type":"Feature","properties":{"nome":"Santo Antônio","osm_id":5312991242,"osm_tipo":"node","tipo_lugar":"suburb"},"geometry":{"type":"Point","coordinates":[-51.6099224,-29.9484601]}},{"type":"Feature","properties":{"nome":"Beira Rio","osm_id":5312991243,"osm_tipo":"node","tipo_lugar":"suburb"},"geometry":{"type":"Point","coordinates":[-51.6259408,-29.9511175]}},{"type":"Feature","properties":{"nome":"Parque dos Coqueiros","osm_id":5312991244,"osm_tipo":"node","tipo_lugar":"suburb"},"geometry":{"type":"Point","coordinates":[-51.6402427,-29.9609876]}},{"type":"Feature","properties":{"nome":"Cruz de Malta","osm_id":5312991245,"osm_tipo":"node","tipo_lugar":"suburb"},"geometry":{"type":"Point","coordinates":[-51.6340358,-29.964845]}},{"type":"Feature","properties":{"nome":"Colônia Penal","osm_id":5312991246,"osm_tipo":"node","tipo_lugar":"suburb"},"geometry":{"type":"Point","coordinates":[-51.5975325,-29.9472117]}},{"type":"Feature","properties":{"nome":"Sul América","osm_id":5427698860,"osm_tipo":"node","tipo_lugar":"suburb"},"geometry":{"type":"Point","coordinates":[-51.6296053,-29.9746394]}},{"type":"Feature","properties":{"nome":"Vila Cohab","osm_id":5427739054,"osm_tipo":"node","tipo_lugar":"neighbourhood"},"geometry":{"type":"Point","coordinates":[-51.6288328,-29.9789981]}},{"type":"Feature","properties":{"nome":"Parque Santa Fé","osm_id":6428955101,"osm_tipo":"node","tipo_lugar":"suburb"},"geometry":{"type":"Point","coordinates":[-51.6465504,-29.959795]}}]}