{"type":"FeatureCollection","features":[{"type":"Feature","properties":{"nome":"Santa Terezinha","osm_id":5312992558,"osm_tipo":"node","tipo_lugar":"suburb"},"geometry":{"type":"Point","coordinates":[-54.663659,-30.9857433]}},{"type":"Feature","properties":{"nome":"Doutor Moacyr Dias","osm_id":5312992559,"osm_tipo":"node","tipo_lugar":"suburb"},"geometry":{"type":"Point","coordinates":[-54.6526392,-30.987618]}},{"type":"Feature","properties":{"nome":"José Tude de Godoy","osm_id":5312992560,"osm_tipo":"node","tipo_lugar":"suburb"},"geometry":{"type":"Point","coordinates":[-54.6609189,-30.9751344]}},{"type":"Feature","properties":{"nome":"Getúlio Vargas","osm_id":5312992561,"osm_tipo":"node","tipo_lugar":"suburb"},"geometry":{"type":"Point","coordinates":[-54.6753695,-30.9634668]}},{"type":"Feature","properties":{"nome":"Centro","osm_id":5312992562,"osm_tipo":"node","tipo_lugar":"suburb"},"geometry":{"type":"Point","coordinates":[-54.673193,-30.9807713]}},{"type":"Feature","properties":{"nome":"Sagrada Face","osm_id":5312992563,"osm_tipo":"node","tipo_lugar":"suburb"},"geometry":{"type":"Point","coordinates":[-54.6853985,-30.9922116]}},{"type":"Feature","properties":{"nome":"São Gregório","osm_id":5312992564,"osm_tipo":"node","tipo_lugar":"suburb"},"geometry":{"type":"Point","coordinates":[-54.6740083,-30.9931378]}},{"type":"Feature","properties":{"nome":"Ataliba Coutinho da Rocha","osm_id":5312992565,"osm_tipo":"node","tipo_lugar":"suburb"},"geometry":{"type":"Point","coordinates":[-54.6506261,-30.9781832]}},{"type":"Feature","properties":{"nome":"Santa Maria","osm_id":5312992566,"osm_tipo":"node","tipo_lugar":"suburb"},"geometry":{"type":"Point","coordinates":[-54.6847976,-30.9787791]}},{"type":"Feature","properties":{"nome":"Oscar Vicente e Silva","osm_id":5312992567,"osm_tipo":"node","tipo_lugar":"suburb"},"geometry":{"type":"Point","coordinates":[-54.665692,-30.9932302]}},{"type":"Feature","properties":{"nome":"Cerejeiras","osm_id":10608289839,"osm_tipo":"node","tipo_lugar":"neighbourhood"},"geometry":{"type":"Point","coordinates":[-54.659398,-30.9731607]}},{"type":"Feature","properties":{"nome":"Morra da Serrinha","osm_id":12829502535,"osm_tipo":"node","tipo_lugar":"neighbourhood"},"geometry":{"type":"Point","coordinates":[-54.6383169,-30.9648337]}}]}