{"type":"FeatureCollection","features":[{"type":"Feature","properties":{"nome":"Palmas","osm_id":416646843,"osm_tipo":"node","tipo_lugar":"suburb"},"geometry":{"type":"Point","coordinates":[-51.9032343,-29.2887906]}},{"type":"Feature","properties":{"nome":"Jacarezinho","osm_id":5312991151,"osm_tipo":"node","tipo_lugar":"suburb"},"geometry":{"type":"Point","coordinates":[-51.9057135,-29.2012043]}},{"type":"Feature","properties":{"nome":"Planalto","osm_id":5312991152,"osm_tipo":"node","tipo_lugar":"suburb"},"geometry":{"type":"Point","coordinates":[-51.885418,-29.2277257]}},{"type":"Feature","properties":{"nome":"Porto Quinze","osm_id":5312991153,"osm_tipo":"node","tipo_lugar":"suburb"},"geometry":{"type":"Point","coordinates":[-51.86186,-29.2303881]}},{"type":"Feature","properties":{"nome":"Navegantes","osm_id":5312991154,"osm_tipo":"node","tipo_lugar":"suburb"},"geometry":{"type":"Point","coordinates":[-51.8609649,-29.2414102]}},{"type":"Feature","properties":{"nome":"Santa Clara","osm_id":5312991155,"osm_tipo":"node","tipo_lugar":"suburb"},"geometry":{"type":"Point","coordinates":[-51.8718773,-29.2513852]}},{"type":"Feature","properties":{"nome":"Santo Antão","osm_id":5312991156,"osm_tipo":"node","tipo_lugar":"suburb"},"geometry":{"type":"Point","coordinates":[-51.8820805,-29.2387457]}},{"type":"Feature","properties":{"nome":"Vila Amazonas","osm_id":5312991157,"osm_tipo":"node","tipo_lugar":"suburb"},"geometry":{"type":"Point","coordinates":[-51.879469,-29.2271504]}},{"type":"Feature","properties":{"nome":"Centro","osm_id":5312991158,"osm_tipo":"node","tipo_lugar":"suburb"},"geometry":{"type":"Point","coordinates":[-51.870257,-29.2376573]}},{"type":"Feature","properties":{"nome":"Vila Moça","osm_id":5312991159,"osm_tipo":"node","tipo_lugar":"suburb"},"geometry":{"type":"Point","coordinates":[-51.8745098,-29.2297495]}},{"type":"Feature","properties":{"nome":"São José","osm_id":5312991160,"osm_tipo":"node","tipo_lugar":"suburb"},"geometry":{"type":"Point","coordinates":[-51.8951923,-29.2172039]}},{"type":"Feature","properties":{"nome":"Barra do Jacaré","osm_id":5312991161,"osm_tipo":"node","tipo_lugar":"suburb"},"geometry":{"type":"Point","coordinates":[-51.8824642,-29.2196421]}},{"type":"Feature","properties":{"nome":"Lambari","osm_id":5312991162,"osm_tipo":"node","tipo_lugar":"suburb"},"geometry":{"type":"Point","coordinates":[-51.8939967,-29.2342732]}},{"type":"Feature","properties":{"nome":"Nossa Senhora Aparecida","osm_id":5312991163,"osm_tipo":"node","tipo_lugar":"suburb"},"geometry":{"type":"Point","coordinates":[-51.8655881,-29.2457584]}},{"type":"Feature","properties":{"nome":"Lajeadinho","osm_id":5312991164,"osm_tipo":"node","tipo_lugar":"suburb"},"geometry":{"type":"Point","coordinates":[-51.8762283,-29.267716]}},{"type":"Feature","properties":{"nome":"Loteamento Parque Perolim","osm_id":5636236815,"osm_tipo":"node","tipo_lugar":"neighbourhood"},"geometry":{"type":"Point","coordinates":[-51.8817437,-29.2695259]}},{"type":"Feature","properties":{"nome":"Cidade Alta","osm_id":8319604,"osm_tipo":"relation","tipo_lugar":"suburb"},"geometry":{"type":"MultiPolygon","coordinates":[[[[-51.883707,-29.2331945],[-51.883074,-29.2326678],[-51.8829422,-29.2325204],[-51.883707,-29.2331945]]],[[[-51.8844457,-29.2329037],[-51.884276,-29.2330473],[-51.8841,-29.2331682],[-51.8844457,-29.2329037]]],[[[-51.8889926,-29.225393],[-51.8870584,-29.2302436],[-51.8847409,-29.2326731],[-51.8889926,-29.225393]]],[[[-51.8889926,-29.225393],[-51.8890759,-29.2248697],[-51.8891384,-29.2246067],[-51.8889926,-29.225393]]],[[[-51.8891552,-29.2244754],[-51.8891558,-29.2241772],[-51.8894324,-29.2234985],[-51.8891552,-29.2244754]]],[[[-51.8894324,-29.2234985],[-51.8896094,-29.2231213],[-51.889732,-29.2227215],[-51.8894324,-29.2234985]]],[[[-51.8897886,-29.2205052],[-51.889925,-29.2214743],[-51.8899084,-29.2222998],[-51.8897886,-29.2205052]]],[[[-51.8859506,-29.2133973],[-51.8894254,-29.2193153],[-51.8897886,-29.2205052],[-51.8859506,-29.2133973]]],[[[-51.8858613,-29.2129148],[-51.8795013,-29.2164438],[-51.8758673,-29.2147291],[-51.8858613,-29.2129148]]],[[[-51.8758673,-29.2147291],[-51.87525,-29.2198093],[-51.8744023,-29.2233361],[-51.8758673,-29.2147291]]],[[[-51.8744023,-29.2233361],[-51.87395,-29.2242022],[-51.8735093,-29.2247422],[-51.8744023,-29.2233361]]],[[[-51.8809283,-29.2315116],[-51.8768513,-29.228979],[-51.8735093,-29.2247422],[-51.8809283,-29.2315116]]],[[[-51.8828805,-29.2324461],[-51.8824786,-29.2321365],[-51.8820414,-29.2321529],[-51.8809283,-29.2315116],[-51.8828805,-29.2324461]]]]}}]}