{"type":"FeatureCollection","features":[{"type":"Feature","properties":{"nome":"Esperança","osm_id":3345686501,"osm_tipo":"node","tipo_lugar":"neighbourhood"},"geometry":{"type":"Point","coordinates":[-52.5126536,-30.5411761]}},{"type":"Feature","properties":{"nome":"Alto da Rondinha","osm_id":3345688061,"osm_tipo":"node","tipo_lugar":"neighbourhood"},"geometry":{"type":"Point","coordinates":[-52.4993938,-30.5380551]}},{"type":"Feature","properties":{"nome":"Vila da Fonte","osm_id":3345712242,"osm_tipo":"node","tipo_lugar":"neighbourhood"},"geometry":{"type":"Point","coordinates":[-52.5361916,-30.5572625]}},{"type":"Feature","properties":{"nome":"Polo","osm_id":3345718899,"osm_tipo":"node","tipo_lugar":"neighbourhood"},"geometry":{"type":"Point","coordinates":[-52.5395175,-30.5527076]}},{"type":"Feature","properties":{"nome":"Paraiso II","osm_id":3345740693,"osm_tipo":"node","tipo_lugar":"neighbourhood"},"geometry":{"type":"Point","coordinates":[-52.5382515,-30.5458057]}},{"type":"Feature","properties":{"nome":"Paraiso I","osm_id":3345740694,"osm_tipo":"node","tipo_lugar":"neighbourhood"},"geometry":{"type":"Point","coordinates":[-52.5396838,-30.5478477]}},{"type":"Feature","properties":{"nome":"Castelo Branco","osm_id":3345750171,"osm_tipo":"node","tipo_lugar":"neighbourhood"},"geometry":{"type":"Point","coordinates":[-52.5353922,-30.5483746]}},{"type":"Feature","properties":{"nome":"Aldemar Xavier dos Santos","osm_id":3345831400,"osm_tipo":"node","tipo_lugar":"suburb"},"geometry":{"type":"Point","coordinates":[-52.5290247,-30.5408994]}},{"type":"Feature","properties":{"nome":"Climério","osm_id":3345831401,"osm_tipo":"node","tipo_lugar":"neighbourhood"},"geometry":{"type":"Point","coordinates":[-52.5325491,-30.5460367]}},{"type":"Feature","properties":{"nome":"Campos Verdes","osm_id":3345854948,"osm_tipo":"node","tipo_lugar":"neighbourhood"},"geometry":{"type":"Point","coordinates":[-52.5246806,-30.5339605]}},{"type":"Feature","properties":{"nome":"Ernesto Dorneles","osm_id":3345854950,"osm_tipo":"node","tipo_lugar":"neighbourhood"},"geometry":{"type":"Point","coordinates":[-52.530655,-30.5344873]}},{"type":"Feature","properties":{"nome":"Titã","osm_id":3345854951,"osm_tipo":"node","tipo_lugar":"neighbourhood"},"geometry":{"type":"Point","coordinates":[-52.5262025,-30.5378047]}},{"type":"Feature","properties":{"nome":"Manoela","osm_id":3345854953,"osm_tipo":"node","tipo_lugar":"neighbourhood"},"geometry":{"type":"Point","coordinates":[-52.5283697,-30.535513]}},{"type":"Feature","properties":{"nome":"Rodolfo Taborda","osm_id":3345856938,"osm_tipo":"node","tipo_lugar":"neighbourhood"},"geometry":{"type":"Point","coordinates":[-52.5149925,-30.536335]}},{"type":"Feature","properties":{"nome":"Elisa","osm_id":3345856939,"osm_tipo":"node","tipo_lugar":"neighbourhood"},"geometry":{"type":"Point","coordinates":[-52.5197239,-30.5371764]}},{"type":"Feature","properties":{"nome":"Nossa Senhora Conceição","osm_id":3345861916,"osm_tipo":"node","tipo_lugar":"neighbourhood"},"geometry":{"type":"Point","coordinates":[-52.5226099,-30.5308093]}},{"type":"Feature","properties":{"nome":"Funcionários","osm_id":3345861917,"osm_tipo":"node","tipo_lugar":"neighbourhood"},"geometry":{"type":"Point","coordinates":[-52.5232429,-30.5349308]}},{"type":"Feature","properties":{"nome":"Castro","osm_id":3345865377,"osm_tipo":"node","tipo_lugar":"neighbourhood"},"geometry":{"type":"Point","coordinates":[-52.5190852,-30.5514511]}},{"type":"Feature","properties":{"nome":"Carvalho","osm_id":3345865378,"osm_tipo":"node","tipo_lugar":"neighbourhood"},"geometry":{"type":"Point","coordinates":[-52.519155,-30.5470764]}},{"type":"Feature","properties":{"nome":"Vista Alegre","osm_id":3345882200,"osm_tipo":"node","tipo_lugar":"neighbourhood"},"geometry":{"type":"Point","coordinates":[-52.5142844,-30.5514509]}},{"type":"Feature","properties":{"nome":"Alto Alegre","osm_id":3345905405,"osm_tipo":"node","tipo_lugar":"neighbourhood"},"geometry":{"type":"Point","coordinates":[-52.5211613,-30.5569992]}},{"type":"Feature","properties":{"nome":"Coimbra","osm_id":3345905407,"osm_tipo":"node","tipo_lugar":"neighbourhood"},"geometry":{"type":"Point","coordinates":[-52.5168174,-30.5593414]}},{"type":"Feature","properties":{"nome":"Moradas da Colina","osm_id":3345916097,"osm_tipo":"node","tipo_lugar":"neighbourhood"},"geometry":{"type":"Point","coordinates":[-52.5100368,-30.5451674]}},{"type":"Feature","properties":{"nome":"Dona Lili","osm_id":3345916098,"osm_tipo":"node","tipo_lugar":"neighbourhood"},"geometry":{"type":"Point","coordinates":[-52.5382295,-30.5487714]}},{"type":"Feature","properties":{"nome":"Renner","osm_id":3345916102,"osm_tipo":"node","tipo_lugar":"neighbourhood"},"geometry":{"type":"Point","coordinates":[-52.5087805,-30.5391816]}},{"type":"Feature","properties":{"nome":"Assis Brasil","osm_id":3345916103,"osm_tipo":"node","tipo_lugar":"neighbourhood"},"geometry":{"type":"Point","coordinates":[-52.5073213,-30.5401971]}},{"type":"Feature","properties":{"nome":"Bárbara Santos","osm_id":3345916104,"osm_tipo":"node","tipo_lugar":"neighbourhood"},"geometry":{"type":"Point","coordinates":[-52.5174172,-30.5414718]}},{"type":"Feature","properties":{"nome":"Mariano da Rocha","osm_id":3345916107,"osm_tipo":"node","tipo_lugar":"neighbourhood"},"geometry":{"type":"Point","coordinates":[-52.5341949,-30.5512471]}},{"type":"Feature","properties":{"nome":"Lava-pés","osm_id":3345916108,"osm_tipo":"node","tipo_lugar":"neighbourhood"},"geometry":{"type":"Point","coordinates":[-52.5154002,-30.5427839]}},{"type":"Feature","properties":{"nome":"Centro","osm_id":3345932111,"osm_tipo":"node","tipo_lugar":"neighbourhood"},"geometry":{"type":"Point","coordinates":[-52.5227652,-30.5440224]}},{"type":"Feature","properties":{"nome":"Mitra","osm_id":3345932112,"osm_tipo":"node","tipo_lugar":"neighbourhood"},"geometry":{"type":"Point","coordinates":[-52.5292924,-30.5488361]}},{"type":"Feature","properties":{"nome":"Schuster","osm_id":3345932115,"osm_tipo":"node","tipo_lugar":"neighbourhood"},"geometry":{"type":"Point","coordinates":[-52.5262341,-30.5511002]}},{"type":"Feature","properties":{"nome":"Olaria","osm_id":3399628822,"osm_tipo":"node","tipo_lugar":"neighbourhood"},"geometry":{"type":"Point","coordinates":[-52.5367148,-30.550569]}},{"type":"Feature","properties":{"nome":"Loteamento Edegar","osm_id":5652566277,"osm_tipo":"node","tipo_lugar":"neighbourhood"},"geometry":{"type":"Point","coordinates":[-52.5285678,-30.5335843]}},{"type":"Feature","properties":{"nome":"Loteamento João Carlos de Freitas","osm_id":5652566278,"osm_tipo":"node","tipo_lugar":"neighbourhood"},"geometry":{"type":"Point","coordinates":[-52.5282151,-30.5359003]}},{"type":"Feature","properties":{"nome":"Desmembramento Adauto Costa","osm_id":5652566282,"osm_tipo":"node","tipo_lugar":"neighbourhood"},"geometry":{"type":"Point","coordinates":[-52.5270993,-30.5343201]}},{"type":"Feature","properties":{"nome":"Desmembramento João Maria dos Santos","osm_id":5652566283,"osm_tipo":"node","tipo_lugar":"neighbourhood"},"geometry":{"type":"Point","coordinates":[-52.5285772,-30.5347683]}},{"type":"Feature","properties":{"nome":"Loteamento Dona Carlota","osm_id":5652566286,"osm_tipo":"node","tipo_lugar":"neighbourhood"},"geometry":{"type":"Point","coordinates":[-52.5274962,-30.5452794]}},{"type":"Feature","properties":{"nome":"Cohab","osm_id":5652571187,"osm_tipo":"node","tipo_lugar":"neighbourhood"},"geometry":{"type":"Point","coordinates":[-52.5340971,-30.5481599]}},{"type":"Feature","properties":{"nome":"Loteamento dos Job","osm_id":5652571192,"osm_tipo":"node","tipo_lugar":"neighbourhood"},"geometry":{"type":"Point","coordinates":[-52.5251761,-30.5363532]}},{"type":"Feature","properties":{"nome":"Loteamento da Elisabete da Rosa Couto","osm_id":5652571228,"osm_tipo":"node","tipo_lugar":"neighbourhood"},"geometry":{"type":"Point","coordinates":[-52.5157186,-30.559785]}},{"type":"Feature","properties":{"nome":"Loteamento dos Hopp","osm_id":5652571229,"osm_tipo":"node","tipo_lugar":"neighbourhood"},"geometry":{"type":"Point","coordinates":[-52.5303152,-30.5364779]}},{"type":"Feature","properties":{"nome":"Loteamento do Etelvino","osm_id":5652571230,"osm_tipo":"node","tipo_lugar":"neighbourhood"},"geometry":{"type":"Point","coordinates":[-52.5054646,-30.5401372]}},{"type":"Feature","properties":{"nome":"Loteamento do Hermano","osm_id":5652571231,"osm_tipo":"node","tipo_lugar":"neighbourhood"},"geometry":{"type":"Point","coordinates":[-52.5228506,-30.5355492]}}]}