{"type":"FeatureCollection","features":[{"type":"Feature","properties":{"nome":"Brasil","osm_id":5312991535,"osm_tipo":"node","tipo_lugar":"suburb"},"geometry":{"type":"Point","coordinates":[-52.841286,-28.731201]}},{"type":"Feature","properties":{"nome":"Franciosi","osm_id":5312991536,"osm_tipo":"node","tipo_lugar":"suburb"},"geometry":{"type":"Point","coordinates":[-52.8389851,-28.726248]}},{"type":"Feature","properties":{"nome":"Tarumã","osm_id":5312991537,"osm_tipo":"node","tipo_lugar":"suburb"},"geometry":{"type":"Point","coordinates":[-52.8558016,-28.7372272]}},{"type":"Feature","properties":{"nome":"União","osm_id":5312991538,"osm_tipo":"node","tipo_lugar":"suburb"},"geometry":{"type":"Point","coordinates":[-52.8446504,-28.7331255]}},{"type":"Feature","properties":{"nome":"Centro","osm_id":5312991539,"osm_tipo":"node","tipo_lugar":"suburb"},"geometry":{"type":"Point","coordinates":[-52.846914,-28.7262146]}},{"type":"Feature","properties":{"nome":"Maravalha","osm_id":5312991540,"osm_tipo":"node","tipo_lugar":"suburb"},"geometry":{"type":"Point","coordinates":[-52.8502192,-28.7298951]}},{"type":"Feature","properties":{"nome":"Martini","osm_id":5312991541,"osm_tipo":"node","tipo_lugar":"suburb"},"geometry":{"type":"Point","coordinates":[-52.8322977,-28.7341811]}},{"type":"Feature","properties":{"nome":"Santa Júlia","osm_id":5312991542,"osm_tipo":"node","tipo_lugar":"suburb"},"geometry":{"type":"Point","coordinates":[-52.858221,-28.7295626]}},{"type":"Feature","properties":{"nome":"Cooperativa Velha","osm_id":5312991543,"osm_tipo":"node","tipo_lugar":"suburb"},"geometry":{"type":"Point","coordinates":[-52.8502751,-28.7400066]}},{"type":"Feature","properties":{"nome":"Jardim","osm_id":5312991544,"osm_tipo":"node","tipo_lugar":"suburb"},"geometry":{"type":"Point","coordinates":[-52.8407919,-28.734098]}},{"type":"Feature","properties":{"nome":"São Jorge","osm_id":5312991545,"osm_tipo":"node","tipo_lugar":"suburb"},"geometry":{"type":"Point","coordinates":[-52.8433712,-28.7215244]}},{"type":"Feature","properties":{"nome":"Norte América","osm_id":5652744362,"osm_tipo":"node","tipo_lugar":"suburb"},"geometry":{"type":"Point","coordinates":[-52.8406334,-28.7362522]}}]}