{"type":"FeatureCollection","features":[{"type":"Feature","properties":{"nome":"Monte Claro","osm_id":5312991508,"osm_tipo":"node","tipo_lugar":"suburb"},"geometry":{"type":"Point","coordinates":[-52.2391879,-27.8904126]}},{"type":"Feature","properties":{"nome":"Nossa Senhora Consoladora","osm_id":5312991509,"osm_tipo":"node","tipo_lugar":"suburb"},"geometry":{"type":"Point","coordinates":[-52.2312432,-27.8786457]}},{"type":"Feature","properties":{"nome":"Santo André","osm_id":5312991510,"osm_tipo":"node","tipo_lugar":"suburb"},"geometry":{"type":"Point","coordinates":[-52.2229306,-27.896434]}},{"type":"Feature","properties":{"nome":"Champagnat","osm_id":5312991511,"osm_tipo":"node","tipo_lugar":"suburb"},"geometry":{"type":"Point","coordinates":[-52.2344114,-27.8977377]}},{"type":"Feature","properties":{"nome":"Nossa Senhora dos Navegantes","osm_id":5312991512,"osm_tipo":"node","tipo_lugar":"suburb"},"geometry":{"type":"Point","coordinates":[-52.2359022,-27.8843165]}},{"type":"Feature","properties":{"nome":"Santa Catarina","osm_id":5312991513,"osm_tipo":"node","tipo_lugar":"suburb"},"geometry":{"type":"Point","coordinates":[-52.2209801,-27.8752594]}},{"type":"Feature","properties":{"nome":"São Pelegrino","osm_id":5312991514,"osm_tipo":"node","tipo_lugar":"suburb"},"geometry":{"type":"Point","coordinates":[-52.2336987,-27.8888774]}},{"type":"Feature","properties":{"nome":"São Cristóvão","osm_id":5312991515,"osm_tipo":"node","tipo_lugar":"suburb"},"geometry":{"type":"Point","coordinates":[-52.2116463,-27.901281]}},{"type":"Feature","properties":{"nome":"São José","osm_id":5312991516,"osm_tipo":"node","tipo_lugar":"suburb"},"geometry":{"type":"Point","coordinates":[-52.2417984,-27.8975897]}},{"type":"Feature","properties":{"nome":"XV de Novembro","osm_id":5312991517,"osm_tipo":"node","tipo_lugar":"suburb"},"geometry":{"type":"Point","coordinates":[-52.2433954,-27.8819735]}},{"type":"Feature","properties":{"nome":"Centro","osm_id":5631490711,"osm_tipo":"node","tipo_lugar":"suburb"},"geometry":{"type":"Point","coordinates":[-52.2257745,-27.8882698]}}]}