{"type":"FeatureCollection","features":[{"type":"Feature","properties":{"nome":"Barnabé","osm_id":416658118,"osm_tipo":"node","tipo_lugar":"suburb"},"geometry":{"type":"Point","coordinates":[-51.0267849,-29.9287244]}},{"type":"Feature","properties":{"nome":"Águas Mortas","osm_id":2925372180,"osm_tipo":"node","tipo_lugar":"suburb"},"geometry":{"type":"Point","coordinates":[-51.0650151,-29.8938153]}},{"type":"Feature","properties":{"nome":"Morada do Vale I","osm_id":2925372184,"osm_tipo":"node","tipo_lugar":"suburb"},"geometry":{"type":"Point","coordinates":[-51.0618402,-29.9194794]}},{"type":"Feature","properties":{"nome":"Morada do Vale II","osm_id":2925372185,"osm_tipo":"node","tipo_lugar":"suburb"},"geometry":{"type":"Point","coordinates":[-51.0490139,-29.9121139]}},{"type":"Feature","properties":{"nome":"Morada do Vale III","osm_id":2925372186,"osm_tipo":"node","tipo_lugar":"suburb"},"geometry":{"type":"Point","coordinates":[-51.0644846,-29.9265568]}},{"type":"Feature","properties":{"nome":"Cadiz","osm_id":4570843819,"osm_tipo":"node","tipo_lugar":"neighbourhood"},"geometry":{"type":"Point","coordinates":[-50.9394193,-29.8772392]}},{"type":"Feature","properties":{"nome":"Vila Nova Conquista","osm_id":4570843820,"osm_tipo":"node","tipo_lugar":"neighbourhood"},"geometry":{"type":"Point","coordinates":[-50.9300839,-29.884566]}},{"type":"Feature","properties":{"nome":"Santa Cecília","osm_id":4814489029,"osm_tipo":"node","tipo_lugar":"neighbourhood"},"geometry":{"type":"Point","coordinates":[-50.8907346,-29.9249758]}},{"type":"Feature","properties":{"nome":"Figueira","osm_id":4814489030,"osm_tipo":"node","tipo_lugar":"neighbourhood"},"geometry":{"type":"Point","coordinates":[-50.8863813,-29.9190887]}},{"type":"Feature","properties":{"nome":"Passo da Taquara","osm_id":4814489031,"osm_tipo":"node","tipo_lugar":"neighbourhood"},"geometry":{"type":"Point","coordinates":[-50.8519417,-29.9126721]}},{"type":"Feature","properties":{"nome":"Vale Ville","osm_id":5264733189,"osm_tipo":"node","tipo_lugar":"suburb"},"geometry":{"type":"Point","coordinates":[-51.0723127,-29.9483358]}},{"type":"Feature","properties":{"nome":"Vila Cledi","osm_id":5268445483,"osm_tipo":"node","tipo_lugar":"suburb"},"geometry":{"type":"Point","coordinates":[-50.9116849,-29.9180474]}},{"type":"Feature","properties":{"nome":"Rincão da Madalena","osm_id":5268862373,"osm_tipo":"node","tipo_lugar":"suburb"},"geometry":{"type":"Point","coordinates":[-50.9707347,-29.9277261]}},{"type":"Feature","properties":{"nome":"Nova Conquista","osm_id":5268862374,"osm_tipo":"node","tipo_lugar":"neighbourhood"},"geometry":{"type":"Point","coordinates":[-50.9706576,-29.9254372]}},{"type":"Feature","properties":{"nome":"Auxiliadora","osm_id":5268862375,"osm_tipo":"node","tipo_lugar":"neighbourhood"},"geometry":{"type":"Point","coordinates":[-50.9740604,-29.9278832]}},{"type":"Feature","properties":{"nome":"Nova Esperança","osm_id":5270541040,"osm_tipo":"node","tipo_lugar":"neighbourhood"},"geometry":{"type":"Point","coordinates":[-50.9711643,-29.9239049]}},{"type":"Feature","properties":{"nome":"Dakar","osm_id":5270798737,"osm_tipo":"node","tipo_lugar":"neighbourhood"},"geometry":{"type":"Point","coordinates":[-50.9953999,-29.879764]}},{"type":"Feature","properties":{"nome":"Estância Antiga","osm_id":5270798738,"osm_tipo":"node","tipo_lugar":"neighbourhood"},"geometry":{"type":"Point","coordinates":[-50.9837698,-29.8883372]}},{"type":"Feature","properties":{"nome":"Condado del Rey","osm_id":5270798739,"osm_tipo":"node","tipo_lugar":"neighbourhood"},"geometry":{"type":"Point","coordinates":[-50.9196312,-29.970049]}},{"type":"Feature","properties":{"nome":"Xará","osm_id":5270798740,"osm_tipo":"node","tipo_lugar":"neighbourhood"},"geometry":{"type":"Point","coordinates":[-50.8969491,-29.8960491]}},{"type":"Feature","properties":{"nome":"Recanto de Morungava","osm_id":5270798741,"osm_tipo":"node","tipo_lugar":"neighbourhood"},"geometry":{"type":"Point","coordinates":[-50.9280916,-29.8627059]}},{"type":"Feature","properties":{"nome":"Granville","osm_id":5270798742,"osm_tipo":"node","tipo_lugar":"suburb"},"geometry":{"type":"Point","coordinates":[-50.9502215,-29.9351426]}},{"type":"Feature","properties":{"nome":"Vila Neila","osm_id":5270798743,"osm_tipo":"node","tipo_lugar":"neighbourhood"},"geometry":{"type":"Point","coordinates":[-50.9147167,-29.9275117]}},{"type":"Feature","properties":{"nome":"Deolinda Goulart","osm_id":5270798744,"osm_tipo":"node","tipo_lugar":"suburb"},"geometry":{"type":"Point","coordinates":[-50.950511,-29.9424927]}},{"type":"Feature","properties":{"nome":"Cerro Azul","osm_id":5270798745,"osm_tipo":"node","tipo_lugar":"neighbourhood"},"geometry":{"type":"Point","coordinates":[-50.9272605,-29.8396119]}},{"type":"Feature","properties":{"nome":"Recanto do Itacolomi","osm_id":5270798746,"osm_tipo":"node","tipo_lugar":"neighbourhood"},"geometry":{"type":"Point","coordinates":[-50.9668649,-29.8798915]}},{"type":"Feature","properties":{"nome":"Parque São Cristóvão","osm_id":5270798747,"osm_tipo":"node","tipo_lugar":"neighbourhood"},"geometry":{"type":"Point","coordinates":[-51.0028926,-29.8889256]}},{"type":"Feature","properties":{"nome":"Palermo","osm_id":5270798748,"osm_tipo":"node","tipo_lugar":"neighbourhood"},"geometry":{"type":"Point","coordinates":[-51.0090906,-29.8801288]}},{"type":"Feature","properties":{"nome":"Rincão da Natureza","osm_id":5270798749,"osm_tipo":"node","tipo_lugar":"neighbourhood"},"geometry":{"type":"Point","coordinates":[-50.9521047,-29.897747]}},{"type":"Feature","properties":{"nome":"Vila Sônia","osm_id":5270798751,"osm_tipo":"node","tipo_lugar":"neighbourhood"},"geometry":{"type":"Point","coordinates":[-50.9799249,-29.9611902]}},{"type":"Feature","properties":{"nome":"Sítio Gaúcho","osm_id":5270798752,"osm_tipo":"node","tipo_lugar":"suburb"},"geometry":{"type":"Point","coordinates":[-50.9538205,-29.9356531]}},{"type":"Feature","properties":{"nome":"Dona Idalina","osm_id":5270798754,"osm_tipo":"node","tipo_lugar":"suburb"},"geometry":{"type":"Point","coordinates":[-50.9717562,-29.9420097]}},{"type":"Feature","properties":{"nome":"Parque dos Anjos","osm_id":5270798756,"osm_tipo":"node","tipo_lugar":"suburb"},"geometry":{"type":"Point","coordinates":[-50.9741152,-29.9502557]}},{"type":"Feature","properties":{"nome":"Parque Sinimbú","osm_id":5270798757,"osm_tipo":"node","tipo_lugar":"suburb"},"geometry":{"type":"Point","coordinates":[-50.9750232,-29.9451564]}},{"type":"Feature","properties":{"nome":"Morada Gaúcha","osm_id":5270798758,"osm_tipo":"node","tipo_lugar":"suburb"},"geometry":{"type":"Point","coordinates":[-50.9494266,-29.9485252]}},{"type":"Feature","properties":{"nome":"Jardim das Palmeiras","osm_id":5270798760,"osm_tipo":"node","tipo_lugar":"suburb"},"geometry":{"type":"Point","coordinates":[-50.976577,-29.9437093]}},{"type":"Feature","properties":{"nome":"Girassol","osm_id":5270798761,"osm_tipo":"node","tipo_lugar":"suburb"},"geometry":{"type":"Point","coordinates":[-50.968651,-29.9429666]}},{"type":"Feature","properties":{"nome":"Mira Flores","osm_id":5270798762,"osm_tipo":"node","tipo_lugar":"neighbourhood"},"geometry":{"type":"Point","coordinates":[-51.0381591,-29.8770479]}},{"type":"Feature","properties":{"nome":"Bela Vista","osm_id":5270798764,"osm_tipo":"node","tipo_lugar":"suburb"},"geometry":{"type":"Point","coordinates":[-50.9671504,-29.9586825]}},{"type":"Feature","properties":{"nome":"Mato Alto","osm_id":5270798765,"osm_tipo":"node","tipo_lugar":"suburb"},"geometry":{"type":"Point","coordinates":[-50.9626825,-29.9573172]}},{"type":"Feature","properties":{"nome":"Antonio Gomes Correa","osm_id":5270798766,"osm_tipo":"node","tipo_lugar":"neighbourhood"},"geometry":{"type":"Point","coordinates":[-50.9673488,-29.9484811]}},{"type":"Feature","properties":{"nome":"Santa Rita de Cássia","osm_id":5270798767,"osm_tipo":"node","tipo_lugar":"neighbourhood"},"geometry":{"type":"Point","coordinates":[-50.9651547,-29.9462457]}},{"type":"Feature","properties":{"nome":"Recanto Verde","osm_id":5270798768,"osm_tipo":"node","tipo_lugar":"neighbourhood"},"geometry":{"type":"Point","coordinates":[-51.0011717,-29.885342]}},{"type":"Feature","properties":{"nome":"Dona Mercedes","osm_id":5270798769,"osm_tipo":"node","tipo_lugar":"suburb"},"geometry":{"type":"Point","coordinates":[-50.9621345,-29.9468341]}},{"type":"Feature","properties":{"nome":"Santo Antônio","osm_id":5270798770,"osm_tipo":"node","tipo_lugar":"neighbourhood"},"geometry":{"type":"Point","coordinates":[-50.994469,-29.8976224]}},{"type":"Feature","properties":{"nome":"Granada","osm_id":5270798771,"osm_tipo":"node","tipo_lugar":"neighbourhood"},"geometry":{"type":"Point","coordinates":[-50.9383552,-29.8861575]}},{"type":"Feature","properties":{"nome":"Porto Seguro","osm_id":5270798772,"osm_tipo":"node","tipo_lugar":"suburb"},"geometry":{"type":"Point","coordinates":[-50.9632612,-29.9459332]}},{"type":"Feature","properties":{"nome":"São Marcos","osm_id":5270798773,"osm_tipo":"node","tipo_lugar":"neighbourhood"},"geometry":{"type":"Point","coordinates":[-50.979068,-29.86725]}},{"type":"Feature","properties":{"nome":"Sítio do Sobrado","osm_id":5270798774,"osm_tipo":"node","tipo_lugar":"suburb"},"geometry":{"type":"Point","coordinates":[-50.9575398,-29.9464418]}},{"type":"Feature","properties":{"nome":"Moradas do Sobrado","osm_id":5270798775,"osm_tipo":"node","tipo_lugar":"suburb"},"geometry":{"type":"Point","coordinates":[-50.9547058,-29.9440098]}},{"type":"Feature","properties":{"nome":"Loteamento da Lagoa","osm_id":5270798776,"osm_tipo":"node","tipo_lugar":"neighbourhood"},"geometry":{"type":"Point","coordinates":[-50.9561112,-29.9392332]}},{"type":"Feature","properties":{"nome":"Costa Verde","osm_id":5270798777,"osm_tipo":"node","tipo_lugar":"neighbourhood"},"geometry":{"type":"Point","coordinates":[-50.9726348,-29.8781061]}},{"type":"Feature","properties":{"nome":"Altaville","osm_id":5270798779,"osm_tipo":"node","tipo_lugar":"suburb"},"geometry":{"type":"Point","coordinates":[-50.952662,-29.9335979]}},{"type":"Feature","properties":{"nome":"Sol Nascente","osm_id":5270798780,"osm_tipo":"node","tipo_lugar":"suburb"},"geometry":{"type":"Point","coordinates":[-50.9399965,-29.93072]}},{"type":"Feature","properties":{"nome":"Jardim do Cedro","osm_id":5270798781,"osm_tipo":"node","tipo_lugar":"suburb"},"geometry":{"type":"Point","coordinates":[-50.9341498,-29.9272389]}},{"type":"Feature","properties":{"nome":"Itatiaia","osm_id":5270798782,"osm_tipo":"node","tipo_lugar":"suburb"},"geometry":{"type":"Point","coordinates":[-50.9325339,-29.9232789]}},{"type":"Feature","properties":{"nome":"Jardim das Acácias","osm_id":5270798783,"osm_tipo":"node","tipo_lugar":"suburb"},"geometry":{"type":"Point","coordinates":[-50.9302731,-29.9225875]}},{"type":"Feature","properties":{"nome":"Granjas Alto Gravataí","osm_id":5270798784,"osm_tipo":"node","tipo_lugar":"neighbourhood"},"geometry":{"type":"Point","coordinates":[-50.9268817,-29.9240547]}},{"type":"Feature","properties":{"nome":"Loteamento Princesa","osm_id":5270798785,"osm_tipo":"node","tipo_lugar":"neighbourhood"},"geometry":{"type":"Point","coordinates":[-50.9125903,-29.9251374]}},{"type":"Feature","properties":{"nome":"Jardim dos Alpes","osm_id":5270798786,"osm_tipo":"node","tipo_lugar":"neighbourhood"},"geometry":{"type":"Point","coordinates":[-51.0152809,-29.894117]}},{"type":"Feature","properties":{"nome":"Parque Itacolomi","osm_id":5270798787,"osm_tipo":"node","tipo_lugar":"neighbourhood"},"geometry":{"type":"Point","coordinates":[-50.9731581,-29.8669018]}},{"type":"Feature","properties":{"nome":"Dona Neiva","osm_id":5270798788,"osm_tipo":"node","tipo_lugar":"suburb"},"geometry":{"type":"Point","coordinates":[-50.9143023,-29.9207462]}},{"type":"Feature","properties":{"nome":"Padre Réus","osm_id":5270798789,"osm_tipo":"node","tipo_lugar":"suburb"},"geometry":{"type":"Point","coordinates":[-50.9144594,-29.9151848]}},{"type":"Feature","properties":{"nome":"Recanto do Ipiranga","osm_id":5270798790,"osm_tipo":"node","tipo_lugar":"neighbourhood"},"geometry":{"type":"Point","coordinates":[-51.0266439,-29.8758101]}},{"type":"Feature","properties":{"nome":"Sagrada Família","osm_id":5270798791,"osm_tipo":"node","tipo_lugar":"suburb"},"geometry":{"type":"Point","coordinates":[-50.9064666,-29.920266]}},{"type":"Feature","properties":{"nome":"Vila Imperial","osm_id":5270798792,"osm_tipo":"node","tipo_lugar":"neighbourhood"},"geometry":{"type":"Point","coordinates":[-50.9025558,-29.9142865]}},{"type":"Feature","properties":{"nome":"Guadalajara","osm_id":5270798793,"osm_tipo":"node","tipo_lugar":"neighbourhood"},"geometry":{"type":"Point","coordinates":[-50.8976214,-29.9076656]}},{"type":"Feature","properties":{"nome":"Passo dos Ferreiros","osm_id":5270798794,"osm_tipo":"node","tipo_lugar":"neighbourhood"},"geometry":{"type":"Point","coordinates":[-50.973283,-29.9441084]}},{"type":"Feature","properties":{"nome":"Las Palmas","osm_id":5270798795,"osm_tipo":"node","tipo_lugar":"neighbourhood"},"geometry":{"type":"Point","coordinates":[-50.9255439,-29.8683028]}},{"type":"Feature","properties":{"nome":"Parque Ipiranga","osm_id":5277350042,"osm_tipo":"node","tipo_lugar":"suburb"},"geometry":{"type":"Point","coordinates":[-51.0583548,-29.9065481]}},{"type":"Feature","properties":{"nome":"Garibaldino","osm_id":5277350043,"osm_tipo":"node","tipo_lugar":"suburb"},"geometry":{"type":"Point","coordinates":[-51.0482584,-29.9216401]}},{"type":"Feature","properties":{"nome":"Ibiza","osm_id":5277350044,"osm_tipo":"node","tipo_lugar":"suburb"},"geometry":{"type":"Point","coordinates":[-51.052558,-29.9165916]}},{"type":"Feature","properties":{"nome":"Jardim Esplanada","osm_id":5277350045,"osm_tipo":"node","tipo_lugar":"suburb"},"geometry":{"type":"Point","coordinates":[-51.0450455,-29.9123109]}},{"type":"Feature","properties":{"nome":"Monte Claro","osm_id":5277350046,"osm_tipo":"node","tipo_lugar":"suburb"},"geometry":{"type":"Point","coordinates":[-51.0651383,-29.8929205]}},{"type":"Feature","properties":{"nome":"Neópolis","osm_id":5277350049,"osm_tipo":"node","tipo_lugar":"suburb"},"geometry":{"type":"Point","coordinates":[-51.0231281,-29.902837]}},{"type":"Feature","properties":{"nome":"Parque Ipiranga","osm_id":5277350050,"osm_tipo":"node","tipo_lugar":"suburb"},"geometry":{"type":"Point","coordinates":[-51.0594592,-29.9103933]}},{"type":"Feature","properties":{"nome":"Parque Pioneiro","osm_id":5277350051,"osm_tipo":"node","tipo_lugar":"suburb"},"geometry":{"type":"Point","coordinates":[-51.0365861,-29.9034703]}},{"type":"Feature","properties":{"nome":"Parque dos Eucaliptos","osm_id":5277350052,"osm_tipo":"node","tipo_lugar":"suburb"},"geometry":{"type":"Point","coordinates":[-51.0365272,-29.9145666]}},{"type":"Feature","properties":{"nome":"Planaltina","osm_id":5277350053,"osm_tipo":"node","tipo_lugar":"suburb"},"geometry":{"type":"Point","coordinates":[-51.0428414,-29.9188378]}},{"type":"Feature","properties":{"nome":"Pôr do Sol","osm_id":5277350054,"osm_tipo":"node","tipo_lugar":"suburb"},"geometry":{"type":"Point","coordinates":[-51.034892,-29.9026364]}},{"type":"Feature","properties":{"nome":"Quinta do Sol","osm_id":5277350055,"osm_tipo":"node","tipo_lugar":"suburb"},"geometry":{"type":"Point","coordinates":[-51.0513863,-29.9133368]}},{"type":"Feature","properties":{"nome":"Recanto das Taquareiras","osm_id":5277350056,"osm_tipo":"node","tipo_lugar":"neighbourhood"},"geometry":{"type":"Point","coordinates":[-51.0623849,-29.9008059]}},{"type":"Feature","properties":{"nome":"Refúgio da Coxilha","osm_id":5277350057,"osm_tipo":"node","tipo_lugar":"neighbourhood"},"geometry":{"type":"Point","coordinates":[-51.0525545,-29.8921535]}},{"type":"Feature","properties":{"nome":"Rondon","osm_id":5277350058,"osm_tipo":"node","tipo_lugar":"suburb"},"geometry":{"type":"Point","coordinates":[-51.0615114,-29.9057633]}},{"type":"Feature","properties":{"nome":"Rosa Maria","osm_id":5277350059,"osm_tipo":"node","tipo_lugar":"suburb"},"geometry":{"type":"Point","coordinates":[-51.0432302,-29.9007889]}},{"type":"Feature","properties":{"nome":"Sertanejo","osm_id":5277350060,"osm_tipo":"node","tipo_lugar":"neighbourhood"},"geometry":{"type":"Point","coordinates":[-51.0333651,-29.8983952]}},{"type":"Feature","properties":{"nome":"Sítio Paquetá","osm_id":5277350061,"osm_tipo":"node","tipo_lugar":"neighbourhood"},"geometry":{"type":"Point","coordinates":[-51.0153206,-29.903545]}},{"type":"Feature","properties":{"nome":"Tom Jobim","osm_id":5277350062,"osm_tipo":"node","tipo_lugar":"suburb"},"geometry":{"type":"Point","coordinates":[-51.0581808,-29.9020531]}},{"type":"Feature","properties":{"nome":"Águas Claras","osm_id":5277350063,"osm_tipo":"node","tipo_lugar":"suburb"},"geometry":{"type":"Point","coordinates":[-51.060672,-29.9096984]}},{"type":"Feature","properties":{"nome":"Bom Princípio","osm_id":5278202391,"osm_tipo":"node","tipo_lugar":"suburb"},"geometry":{"type":"Point","coordinates":[-51.0749717,-29.9362205]}},{"type":"Feature","properties":{"nome":"Boa Vista","osm_id":5278202392,"osm_tipo":"node","tipo_lugar":"suburb"},"geometry":{"type":"Point","coordinates":[-51.0159238,-29.9439141]}},{"type":"Feature","properties":{"nome":"Passo das Canoas","osm_id":5278202393,"osm_tipo":"node","tipo_lugar":"suburb"},"geometry":{"type":"Point","coordinates":[-51.0078876,-29.9562624]}},{"type":"Feature","properties":{"nome":"Vila Elisa","osm_id":5278202394,"osm_tipo":"node","tipo_lugar":"suburb"},"geometry":{"type":"Point","coordinates":[-51.0594467,-29.9391879]}},{"type":"Feature","properties":{"nome":"São Vicente","osm_id":5278202395,"osm_tipo":"node","tipo_lugar":"suburb"},"geometry":{"type":"Point","coordinates":[-51.0575322,-29.9387233]}},{"type":"Feature","properties":{"nome":"São Judas Tadeu","osm_id":5278202396,"osm_tipo":"node","tipo_lugar":"suburb"},"geometry":{"type":"Point","coordinates":[-51.0668338,-29.9336062]}},{"type":"Feature","properties":{"nome":"Monte Belo","osm_id":5278202397,"osm_tipo":"node","tipo_lugar":"suburb"},"geometry":{"type":"Point","coordinates":[-51.0358581,-29.9413379]}},{"type":"Feature","properties":{"nome":"Parque Olinda","osm_id":5278202398,"osm_tipo":"node","tipo_lugar":"suburb"},"geometry":{"type":"Point","coordinates":[-51.0491928,-29.9413932]}},{"type":"Feature","properties":{"nome":"Cohab A","osm_id":5278202399,"osm_tipo":"node","tipo_lugar":"suburb"},"geometry":{"type":"Point","coordinates":[-51.0426616,-29.9393384]}},{"type":"Feature","properties":{"nome":"Industrial","osm_id":5278202400,"osm_tipo":"node","tipo_lugar":"suburb"},"geometry":{"type":"Point","coordinates":[-51.0281083,-29.9506281]}},{"type":"Feature","properties":{"nome":"Bom Fim","osm_id":5278202401,"osm_tipo":"node","tipo_lugar":"suburb"},"geometry":{"type":"Point","coordinates":[-51.0724953,-29.9348001]}},{"type":"Feature","properties":{"nome":"São Geraldo","osm_id":5278202402,"osm_tipo":"node","tipo_lugar":"suburb"},"geometry":{"type":"Point","coordinates":[-51.0249469,-29.9329383]}},{"type":"Feature","properties":{"nome":"San Martin","osm_id":5278202403,"osm_tipo":"node","tipo_lugar":"neighbourhood"},"geometry":{"type":"Point","coordinates":[-51.0438292,-29.9486247]}},{"type":"Feature","properties":{"nome":"Fundos do Bom Fim","osm_id":5278202404,"osm_tipo":"node","tipo_lugar":"suburb"},"geometry":{"type":"Point","coordinates":[-51.0652577,-29.9433606]}},{"type":"Feature","properties":{"nome":"Província","osm_id":5278202405,"osm_tipo":"node","tipo_lugar":"suburb"},"geometry":{"type":"Point","coordinates":[-51.0326578,-29.9376049]}},{"type":"Feature","properties":{"nome":"Vera Cruz","osm_id":5278202406,"osm_tipo":"node","tipo_lugar":"suburb"},"geometry":{"type":"Point","coordinates":[-51.0574191,-29.9295544]}},{"type":"Feature","properties":{"nome":"São Jerônimo","osm_id":5278202408,"osm_tipo":"node","tipo_lugar":"suburb"},"geometry":{"type":"Point","coordinates":[-51.030768,-29.9423431]}},{"type":"Feature","properties":{"nome":"San Diego","osm_id":5278202409,"osm_tipo":"node","tipo_lugar":"neighbourhood"},"geometry":{"type":"Point","coordinates":[-51.0442009,-29.9456951]}},{"type":"Feature","properties":{"nome":"São Luiz","osm_id":5278202410,"osm_tipo":"node","tipo_lugar":"suburb"},"geometry":{"type":"Point","coordinates":[-51.0480015,-29.946202]}},{"type":"Feature","properties":{"nome":"Vila Branca","osm_id":5278202411,"osm_tipo":"node","tipo_lugar":"suburb"},"geometry":{"type":"Point","coordinates":[-51.0444759,-29.9296102]}},{"type":"Feature","properties":{"nome":"Cruzeiro II","osm_id":5278202412,"osm_tipo":"node","tipo_lugar":"suburb"},"geometry":{"type":"Point","coordinates":[-51.0531959,-29.9486303]}},{"type":"Feature","properties":{"nome":"Cruzeiro","osm_id":5278202413,"osm_tipo":"node","tipo_lugar":"suburb"},"geometry":{"type":"Point","coordinates":[-51.0510166,-29.9415696]}},{"type":"Feature","properties":{"nome":"Santa Fé","osm_id":5278202414,"osm_tipo":"node","tipo_lugar":"suburb"},"geometry":{"type":"Point","coordinates":[-51.0538208,-29.9361455]}},{"type":"Feature","properties":{"nome":"Bonsucesso","osm_id":5278202415,"osm_tipo":"node","tipo_lugar":"suburb"},"geometry":{"type":"Point","coordinates":[-51.0365266,-29.9236196]}},{"type":"Feature","properties":{"nome":"Vila Central","osm_id":5278202416,"osm_tipo":"node","tipo_lugar":"suburb"},"geometry":{"type":"Point","coordinates":[-51.0547794,-29.9450509]}},{"type":"Feature","properties":{"nome":"Nossa Chácara","osm_id":5278202417,"osm_tipo":"node","tipo_lugar":"suburb"},"geometry":{"type":"Point","coordinates":[-51.0391704,-29.9459342]}},{"type":"Feature","properties":{"nome":"Parque do Sol","osm_id":5278202418,"osm_tipo":"node","tipo_lugar":"suburb"},"geometry":{"type":"Point","coordinates":[-51.0585191,-29.9518665]}},{"type":"Feature","properties":{"nome":"Novo Mundo","osm_id":5278202419,"osm_tipo":"node","tipo_lugar":"suburb"},"geometry":{"type":"Point","coordinates":[-51.0627637,-29.9530572]}},{"type":"Feature","properties":{"nome":"Parque Florido","osm_id":5278202420,"osm_tipo":"node","tipo_lugar":"suburb"},"geometry":{"type":"Point","coordinates":[-51.0616766,-29.9351315]}},{"type":"Feature","properties":{"nome":"Marrocos","osm_id":5278202721,"osm_tipo":"node","tipo_lugar":"suburb"},"geometry":{"type":"Point","coordinates":[-51.0221,-29.9412516]}},{"type":"Feature","properties":{"nome":"Vila Rica","osm_id":5278202722,"osm_tipo":"node","tipo_lugar":"suburb"},"geometry":{"type":"Point","coordinates":[-51.0668523,-29.9483338]}},{"type":"Feature","properties":{"nome":"Cohab B","osm_id":5278202723,"osm_tipo":"node","tipo_lugar":"suburb"},"geometry":{"type":"Point","coordinates":[-51.0270279,-29.940414]}},{"type":"Feature","properties":{"nome":"Cohab C","osm_id":5278202724,"osm_tipo":"node","tipo_lugar":"suburb"},"geometry":{"type":"Point","coordinates":[-51.0172434,-29.939974]}},{"type":"Feature","properties":{"nome":"Villa Lucchesi","osm_id":5278573072,"osm_tipo":"node","tipo_lugar":"neighbourhood"},"geometry":{"type":"Point","coordinates":[-50.9846709,-29.9272562]}},{"type":"Feature","properties":{"nome":"Paraíso","osm_id":5278573073,"osm_tipo":"node","tipo_lugar":"suburb"},"geometry":{"type":"Point","coordinates":[-51.007003,-29.9439531]}},{"type":"Feature","properties":{"nome":"Paradiso","osm_id":5278573074,"osm_tipo":"node","tipo_lugar":"suburb"},"geometry":{"type":"Point","coordinates":[-51.0027596,-29.9419034]}},{"type":"Feature","properties":{"nome":"Parque dos Búzios","osm_id":5278573075,"osm_tipo":"node","tipo_lugar":"suburb"},"geometry":{"type":"Point","coordinates":[-50.9943122,-29.9222945]}},{"type":"Feature","properties":{"nome":"Vila Nara","osm_id":5278573076,"osm_tipo":"node","tipo_lugar":"suburb"},"geometry":{"type":"Point","coordinates":[-51.0045564,-29.9206274]}},{"type":"Feature","properties":{"nome":"Parque São Vicente","osm_id":5278573077,"osm_tipo":"node","tipo_lugar":"suburb"},"geometry":{"type":"Point","coordinates":[-51.0132029,-29.9226466]}},{"type":"Feature","properties":{"nome":"Vila Natal","osm_id":5278573078,"osm_tipo":"node","tipo_lugar":"suburb"},"geometry":{"type":"Point","coordinates":[-50.9954341,-29.9290952]}},{"type":"Feature","properties":{"nome":"Santa Luzia","osm_id":5278573079,"osm_tipo":"node","tipo_lugar":"suburb"},"geometry":{"type":"Point","coordinates":[-50.9995823,-29.9332936]}},{"type":"Feature","properties":{"nome":"Salgado Filho","osm_id":5278573080,"osm_tipo":"node","tipo_lugar":"suburb"},"geometry":{"type":"Point","coordinates":[-51.0035694,-29.9330259]}},{"type":"Feature","properties":{"nome":"Parque Conceição","osm_id":5278573081,"osm_tipo":"node","tipo_lugar":"suburb"},"geometry":{"type":"Point","coordinates":[-50.9971161,-29.9191778]}},{"type":"Feature","properties":{"nome":"Vila Lourdes","osm_id":5278573082,"osm_tipo":"node","tipo_lugar":"suburb"},"geometry":{"type":"Point","coordinates":[-50.9879623,-29.9403438]}},{"type":"Feature","properties":{"nome":"Oriçó","osm_id":5278573083,"osm_tipo":"node","tipo_lugar":"suburb"},"geometry":{"type":"Point","coordinates":[-50.9879657,-29.9380299]}},{"type":"Feature","properties":{"nome":"Dom Feliciano","osm_id":5278573084,"osm_tipo":"node","tipo_lugar":"suburb"},"geometry":{"type":"Point","coordinates":[-50.9928802,-29.9354721]}},{"type":"Feature","properties":{"nome":"Dom João Becker","osm_id":5278573085,"osm_tipo":"node","tipo_lugar":"suburb"},"geometry":{"type":"Point","coordinates":[-50.9992564,-29.9378517]}},{"type":"Feature","properties":{"nome":"Diva Lessa de Jesus","osm_id":5278573086,"osm_tipo":"node","tipo_lugar":"suburb"},"geometry":{"type":"Point","coordinates":[-50.9962794,-29.942369]}},{"type":"Feature","properties":{"nome":"Vila Aliança","osm_id":5278573087,"osm_tipo":"node","tipo_lugar":"suburb"},"geometry":{"type":"Point","coordinates":[-51.0046345,-29.9287724]}},{"type":"Feature","properties":{"nome":"Passo das Pedras","osm_id":5278573088,"osm_tipo":"node","tipo_lugar":"suburb"},"geometry":{"type":"Point","coordinates":[-51.0006215,-29.9520425]}},{"type":"Feature","properties":{"nome":"Flamboyant","osm_id":5278573089,"osm_tipo":"node","tipo_lugar":"suburb"},"geometry":{"type":"Point","coordinates":[-50.9919366,-29.9311737]}},{"type":"Feature","properties":{"nome":"Timbaúva","osm_id":5278573090,"osm_tipo":"node","tipo_lugar":"suburb"},"geometry":{"type":"Point","coordinates":[-50.9897426,-29.9237745]}},{"type":"Feature","properties":{"nome":"Castelo Branco","osm_id":5278573091,"osm_tipo":"node","tipo_lugar":"suburb"},"geometry":{"type":"Point","coordinates":[-51.0068628,-29.9309886]}},{"type":"Feature","properties":{"nome":"Parque Ely","osm_id":5278573092,"osm_tipo":"node","tipo_lugar":"suburb"},"geometry":{"type":"Point","coordinates":[-50.9887776,-29.945934]}},{"type":"Feature","properties":{"nome":"Renascença","osm_id":5278573093,"osm_tipo":"node","tipo_lugar":"neighbourhood"},"geometry":{"type":"Point","coordinates":[-50.9871424,-29.9346248]}},{"type":"Feature","properties":{"nome":"Jansen","osm_id":5278573094,"osm_tipo":"node","tipo_lugar":"suburb"},"geometry":{"type":"Point","coordinates":[-51.0045143,-29.9390644]}},{"type":"Feature","properties":{"nome":"Santa Cruz","osm_id":5278573095,"osm_tipo":"node","tipo_lugar":"suburb"},"geometry":{"type":"Point","coordinates":[-51.0026247,-29.923942]}},{"type":"Feature","properties":{"nome":"Altos da Boa Vista","osm_id":5278573096,"osm_tipo":"node","tipo_lugar":"neighbourhood"},"geometry":{"type":"Point","coordinates":[-51.0024358,-29.9442168]}},{"type":"Feature","properties":{"nome":"Parque Jaqueline","osm_id":5278573097,"osm_tipo":"node","tipo_lugar":"suburb"},"geometry":{"type":"Point","coordinates":[-51.010577,-29.93901]}},{"type":"Feature","properties":{"nome":"Centro","osm_id":5278573098,"osm_tipo":"node","tipo_lugar":"suburb"},"geometry":{"type":"Point","coordinates":[-50.993458,-29.9419082]}},{"type":"Feature","properties":{"nome":"Jardim Guaianuba","osm_id":5278573099,"osm_tipo":"node","tipo_lugar":"suburb"},"geometry":{"type":"Point","coordinates":[-50.9924083,-29.9331902]}},{"type":"Feature","properties":{"nome":"Everest","osm_id":5278573100,"osm_tipo":"node","tipo_lugar":"suburb"},"geometry":{"type":"Point","coordinates":[-51.0135836,-29.9364975]}},{"type":"Feature","properties":{"nome":"União","osm_id":5278573101,"osm_tipo":"node","tipo_lugar":"suburb"},"geometry":{"type":"Point","coordinates":[-51.0098974,-29.9268095]}},{"type":"Feature","properties":{"nome":"Parque do Arvoredo","osm_id":5278573102,"osm_tipo":"node","tipo_lugar":"neighbourhood"},"geometry":{"type":"Point","coordinates":[-50.9947751,-29.9242207]}},{"type":"Feature","properties":{"nome":"Jardim da Figueira","osm_id":5278573103,"osm_tipo":"node","tipo_lugar":"suburb"},"geometry":{"type":"Point","coordinates":[-51.0087755,-29.9348535]}},{"type":"Feature","properties":{"nome":"Vila Angélica","osm_id":5278573104,"osm_tipo":"node","tipo_lugar":"neighbourhood"},"geometry":{"type":"Point","coordinates":[-50.9895731,-29.9441492]}},{"type":"Feature","properties":{"nome":"Caça e Pesca","osm_id":5432297393,"osm_tipo":"node","tipo_lugar":"suburb"},"geometry":{"type":"Point","coordinates":[-50.9769902,-29.9573466]}},{"type":"Feature","properties":{"nome":"Moradas Parque Do Lago","osm_id":5673234264,"osm_tipo":"node","tipo_lugar":"neighbourhood"},"geometry":{"type":"Point","coordinates":[-50.9778315,-29.9319428]}},{"type":"Feature","properties":{"nome":"Breno Jardim Garcia","osm_id":6754428908,"osm_tipo":"node","tipo_lugar":"suburb"},"geometry":{"type":"Point","coordinates":[-50.9177289,-29.9121621]}},{"type":"Feature","properties":{"nome":"Vila Dona Neila","osm_id":306577030,"osm_tipo":"way","tipo_lugar":"neighbourhood"},"geometry":{"type":"Polygon","coordinates":[[[-50.9173875,-29.9240096],[-50.9124344,-29.9308943],[-50.9113798,-29.9296098],[-50.9157783,-29.9233859],[-50.9173875,-29.9240096]]]}},{"type":"Feature","properties":{"nome":"Condominio Paseo Centralle","osm_id":503057011,"osm_tipo":"way","tipo_lugar":"neighbourhood"},"geometry":{"type":"Polygon","coordinates":[[[-50.9973588,-29.9468818],[-50.9958404,-29.9450142],[-50.9976322,-29.9459163],[-50.9973588,-29.9468818]]]}},{"type":"Feature","properties":{"nome":"Parque Ipiranga","osm_id":1430544626,"osm_tipo":"way","tipo_lugar":"suburb"},"geometry":{"type":"Polygon","coordinates":[[[-51.0628158,-29.9049242],[-51.0571176,-29.9052327],[-51.0536736,-29.9087574],[-51.0535985,-29.9112312],[-51.05892,-29.9130167],[-51.0608834,-29.9164482],[-51.0681897,-29.9142164],[-51.0628158,-29.9049242]]]}}]}