{"type":"FeatureCollection","features":[{"type":"Feature","properties":{"nome":"São Cristóvão","osm_id":5312991447,"osm_tipo":"node","tipo_lugar":"suburb"},"geometry":{"type":"Point","coordinates":[-51.8710466,-28.8481078]}},{"type":"Feature","properties":{"nome":"Santo André","osm_id":5312991448,"osm_tipo":"node","tipo_lugar":"suburb"},"geometry":{"type":"Point","coordinates":[-51.8866574,-28.8642377]}},{"type":"Feature","properties":{"nome":"Ferroviário","osm_id":5312991449,"osm_tipo":"node","tipo_lugar":"suburb"},"geometry":{"type":"Point","coordinates":[-51.9069104,-28.8490746]}},{"type":"Feature","properties":{"nome":"Centro","osm_id":5312991450,"osm_tipo":"node","tipo_lugar":"suburb"},"geometry":{"type":"Point","coordinates":[-51.8907751,-28.8475868]}},{"type":"Feature","properties":{"nome":"Imaculada Conceição","osm_id":5312991451,"osm_tipo":"node","tipo_lugar":"suburb"},"geometry":{"type":"Point","coordinates":[-51.8946574,-28.8390833]}},{"type":"Feature","properties":{"nome":"Canecão","osm_id":5312991452,"osm_tipo":"node","tipo_lugar":"suburb"},"geometry":{"type":"Point","coordinates":[-51.8970847,-28.8510526]}},{"type":"Feature","properties":{"nome":"Pinheirinho","osm_id":5312991453,"osm_tipo":"node","tipo_lugar":"suburb"},"geometry":{"type":"Point","coordinates":[-51.8848446,-28.8554038]}},{"type":"Feature","properties":{"nome":"Nossa Senhora da Saúde","osm_id":5312991454,"osm_tipo":"node","tipo_lugar":"suburb"},"geometry":{"type":"Point","coordinates":[-51.8962561,-28.8556256]}},{"type":"Feature","properties":{"nome":"Nossa Senhora da Paz","osm_id":5312991455,"osm_tipo":"node","tipo_lugar":"suburb"},"geometry":{"type":"Point","coordinates":[-51.8736646,-28.8550708]}},{"type":"Feature","properties":{"nome":"São José","osm_id":5312991456,"osm_tipo":"node","tipo_lugar":"suburb"},"geometry":{"type":"Point","coordinates":[-51.8864588,-28.839485]}},{"type":"Feature","properties":{"nome":"Planalto","osm_id":5312991457,"osm_tipo":"node","tipo_lugar":"suburb"},"geometry":{"type":"Point","coordinates":[-51.9014749,-28.8434985]}},{"type":"Feature","properties":{"nome":"Curtume","osm_id":5315973899,"osm_tipo":"node","tipo_lugar":"neighbourhood"},"geometry":{"type":"Point","coordinates":[-51.8994546,-28.8655518]}},{"type":"Feature","properties":{"nome":"Scalabrini","osm_id":5809513955,"osm_tipo":"node","tipo_lugar":"suburb"},"geometry":{"type":"Point","coordinates":[-51.8941784,-28.8733891]}},{"type":"Feature","properties":{"nome":"Loteamento Plátanos","osm_id":5809538152,"osm_tipo":"node","tipo_lugar":"neighbourhood"},"geometry":{"type":"Point","coordinates":[-51.8916249,-28.8708524]}},{"type":"Feature","properties":{"nome":"Distrito Industrial","osm_id":5809538253,"osm_tipo":"node","tipo_lugar":"neighbourhood"},"geometry":{"type":"Point","coordinates":[-51.8955367,-28.874197]}}]}