{"type":"FeatureCollection","features":[{"type":"Feature","properties":{"nome":"Vila Esperança","osm_id":4882556612,"osm_tipo":"node","tipo_lugar":"neighbourhood"},"geometry":{"type":"Point","coordinates":[-54.5531059,-28.1379426]}},{"type":"Feature","properties":{"nome":"Pampa","osm_id":4882556613,"osm_tipo":"node","tipo_lugar":"neighbourhood"},"geometry":{"type":"Point","coordinates":[-54.5644355,-28.1458895]}},{"type":"Feature","properties":{"nome":"Centro","osm_id":4882556614,"osm_tipo":"node","tipo_lugar":"neighbourhood"},"geometry":{"type":"Point","coordinates":[-54.5596719,-28.1453218]}},{"type":"Feature","properties":{"nome":"Santa Fé","osm_id":4882556615,"osm_tipo":"node","tipo_lugar":"neighbourhood"},"geometry":{"type":"Point","coordinates":[-54.5572687,-28.152133]}},{"type":"Feature","properties":{"nome":"Santa Tereza","osm_id":4882556616,"osm_tipo":"node","tipo_lugar":"neighbourhood"},"geometry":{"type":"Point","coordinates":[-54.5528913,-28.1435055]}}]}