{"type":"FeatureCollection","features":[{"type":"Feature","properties":{"nome":"Vila São Jorge","osm_id":3658247304,"osm_tipo":"node","tipo_lugar":"neighbourhood"},"geometry":{"type":"Point","coordinates":[-51.5232258,-28.1889691]}},{"type":"Feature","properties":{"nome":"São Sebastião","osm_id":5312991421,"osm_tipo":"node","tipo_lugar":"suburb"},"geometry":{"type":"Point","coordinates":[-51.5423787,-28.2112357]}},{"type":"Feature","properties":{"nome":"Medianeira","osm_id":5312991422,"osm_tipo":"node","tipo_lugar":"suburb"},"geometry":{"type":"Point","coordinates":[-51.5064884,-28.213422]}},{"type":"Feature","properties":{"nome":"Nunes","osm_id":5312991423,"osm_tipo":"node","tipo_lugar":"suburb"},"geometry":{"type":"Point","coordinates":[-51.513461,-28.217695]}},{"type":"Feature","properties":{"nome":"Pedregal","osm_id":5312991424,"osm_tipo":"node","tipo_lugar":"suburb"},"geometry":{"type":"Point","coordinates":[-51.5168623,-28.2085023]}},{"type":"Feature","properties":{"nome":"Rodrigues","osm_id":5312991425,"osm_tipo":"node","tipo_lugar":"suburb"},"geometry":{"type":"Point","coordinates":[-51.5135774,-28.2122818]}},{"type":"Feature","properties":{"nome":"Oliveira","osm_id":5312991426,"osm_tipo":"node","tipo_lugar":"suburb"},"geometry":{"type":"Point","coordinates":[-51.5224689,-28.2189013]}},{"type":"Feature","properties":{"nome":"Operário","osm_id":5312991427,"osm_tipo":"node","tipo_lugar":"suburb"},"geometry":{"type":"Point","coordinates":[-51.5154419,-28.2264102]}},{"type":"Feature","properties":{"nome":"São José","osm_id":5312991428,"osm_tipo":"node","tipo_lugar":"suburb"},"geometry":{"type":"Point","coordinates":[-51.5179977,-28.229304]}},{"type":"Feature","properties":{"nome":"Floresta","osm_id":5312991429,"osm_tipo":"node","tipo_lugar":"suburb"},"geometry":{"type":"Point","coordinates":[-51.5157194,-28.2224738]}},{"type":"Feature","properties":{"nome":"Gaúcha","osm_id":5312991430,"osm_tipo":"node","tipo_lugar":"suburb"},"geometry":{"type":"Point","coordinates":[-51.5383791,-28.215102]}},{"type":"Feature","properties":{"nome":"Colina da Lagoa","osm_id":5312991431,"osm_tipo":"node","tipo_lugar":"suburb"},"geometry":{"type":"Point","coordinates":[-51.5314392,-28.2146112]}},{"type":"Feature","properties":{"nome":"Nossa Senhora Consoladora","osm_id":5312991432,"osm_tipo":"node","tipo_lugar":"suburb"},"geometry":{"type":"Point","coordinates":[-51.5336622,-28.2058017]}},{"type":"Feature","properties":{"nome":"Cohab","osm_id":5312991433,"osm_tipo":"node","tipo_lugar":"suburb"},"geometry":{"type":"Point","coordinates":[-51.5124845,-28.2238143]}},{"type":"Feature","properties":{"nome":"Nossa Senhora Aparecida","osm_id":5312991434,"osm_tipo":"node","tipo_lugar":"suburb"},"geometry":{"type":"Point","coordinates":[-51.5380424,-28.2073922]}},{"type":"Feature","properties":{"nome":"Manoel Vieira da Fonseca","osm_id":5312991435,"osm_tipo":"node","tipo_lugar":"suburb"},"geometry":{"type":"Point","coordinates":[-51.5338202,-28.2034788]}},{"type":"Feature","properties":{"nome":"Ernani Dias de Moraes","osm_id":5312991436,"osm_tipo":"node","tipo_lugar":"suburb"},"geometry":{"type":"Point","coordinates":[-51.5315777,-28.1997843]}},{"type":"Feature","properties":{"nome":"Gentil","osm_id":5312991437,"osm_tipo":"node","tipo_lugar":"suburb"},"geometry":{"type":"Point","coordinates":[-51.5228708,-28.2000886]}},{"type":"Feature","properties":{"nome":"Suzana","osm_id":5312991438,"osm_tipo":"node","tipo_lugar":"suburb"},"geometry":{"type":"Point","coordinates":[-51.5281065,-28.1983527]}},{"type":"Feature","properties":{"nome":"Distrito Industrial I","osm_id":5312991439,"osm_tipo":"node","tipo_lugar":"suburb"},"geometry":{"type":"Point","coordinates":[-51.4970507,-28.2344762]}},{"type":"Feature","properties":{"nome":"Centro","osm_id":5312991440,"osm_tipo":"node","tipo_lugar":"suburb"},"geometry":{"type":"Point","coordinates":[-51.5262979,-28.2091328]}},{"type":"Feature","properties":{"nome":"Alto Pedregal","osm_id":5312991441,"osm_tipo":"node","tipo_lugar":"suburb"},"geometry":{"type":"Point","coordinates":[-51.5166109,-28.2041695]}},{"type":"Feature","properties":{"nome":"Pajé","osm_id":5312991442,"osm_tipo":"node","tipo_lugar":"suburb"},"geometry":{"type":"Point","coordinates":[-51.5084584,-28.2288417]}},{"type":"Feature","properties":{"nome":"Industrial Santa Terezinha","osm_id":5312991443,"osm_tipo":"node","tipo_lugar":"suburb"},"geometry":{"type":"Point","coordinates":[-51.5010017,-28.2423686]}},{"type":"Feature","properties":{"nome":"São Cristovão","osm_id":5312991444,"osm_tipo":"node","tipo_lugar":"suburb"},"geometry":{"type":"Point","coordinates":[-51.5158287,-28.2285018]}},{"type":"Feature","properties":{"nome":"Distrito Industrial II","osm_id":5312991445,"osm_tipo":"node","tipo_lugar":"suburb"},"geometry":{"type":"Point","coordinates":[-51.5118331,-28.2279126]}},{"type":"Feature","properties":{"nome":"Boa Vista","osm_id":5312991446,"osm_tipo":"node","tipo_lugar":"suburb"},"geometry":{"type":"Point","coordinates":[-51.5392531,-28.2243913]}}]}