{"type":"FeatureCollection","features":[{"type":"Feature","properties":{"nome":"Centro","osm_id":4882550141,"osm_tipo":"node","tipo_lugar":"neighbourhood"},"geometry":{"type":"Point","coordinates":[-52.047342,-30.1295032]}},{"type":"Feature","properties":{"nome":"Santa Albina","osm_id":4882550142,"osm_tipo":"node","tipo_lugar":"neighbourhood"},"geometry":{"type":"Point","coordinates":[-52.0451104,-30.1404521]}},{"type":"Feature","properties":{"nome":"São José","osm_id":4882550143,"osm_tipo":"node","tipo_lugar":"neighbourhood"},"geometry":{"type":"Point","coordinates":[-52.0422351,-30.1457592]}},{"type":"Feature","properties":{"nome":"Recreio","osm_id":4882550145,"osm_tipo":"node","tipo_lugar":"neighbourhood"},"geometry":{"type":"Point","coordinates":[-52.0389306,-30.1511772]}},{"type":"Feature","properties":{"nome":"São Miguel","osm_id":4882550146,"osm_tipo":"node","tipo_lugar":"neighbourhood"},"geometry":{"type":"Point","coordinates":[-52.0350253,-30.1380398]}}]}