{"type":"FeatureCollection","features":[{"type":"Feature","properties":{"nome":"Centro","osm_id":3819271150,"osm_tipo":"node","tipo_lugar":"neighbourhood"},"geometry":{"type":"Point","coordinates":[-50.2705783,-29.8870309]}},{"type":"Feature","properties":{"nome":"Pitangas","osm_id":5240250139,"osm_tipo":"node","tipo_lugar":"neighbourhood"},"geometry":{"type":"Point","coordinates":[-50.2565289,-29.8990705]}},{"type":"Feature","properties":{"nome":"Caravagio","osm_id":5240250140,"osm_tipo":"node","tipo_lugar":"neighbourhood"},"geometry":{"type":"Point","coordinates":[-50.2505208,-29.8966894]}},{"type":"Feature","properties":{"nome":"Sulbrasileiro","osm_id":5240250141,"osm_tipo":"node","tipo_lugar":"neighbourhood"},"geometry":{"type":"Point","coordinates":[-50.2629984,-29.8973126]}},{"type":"Feature","properties":{"nome":"Porto Lacustre","osm_id":5240250142,"osm_tipo":"node","tipo_lugar":"neighbourhood"},"geometry":{"type":"Point","coordinates":[-50.2566148,-29.8917039]}},{"type":"Feature","properties":{"nome":"Albatroz","osm_id":5240250143,"osm_tipo":"node","tipo_lugar":"neighbourhood"},"geometry":{"type":"Point","coordinates":[-50.2528382,-29.9042788]}},{"type":"Feature","properties":{"nome":"Glória","osm_id":5240250144,"osm_tipo":"node","tipo_lugar":"neighbourhood"},"geometry":{"type":"Point","coordinates":[-50.2692695,-29.9017328]}},{"type":"Feature","properties":{"nome":"Panorâmico","osm_id":5240250145,"osm_tipo":"node","tipo_lugar":"neighbourhood"},"geometry":{"type":"Point","coordinates":[-50.2417299,-29.8924793]}},{"type":"Feature","properties":{"nome":"Medianeira","osm_id":5240250146,"osm_tipo":"node","tipo_lugar":"neighbourhood"},"geometry":{"type":"Point","coordinates":[-50.2379037,-29.8967638]}},{"type":"Feature","properties":{"nome":"Caiu do Céu","osm_id":5240250147,"osm_tipo":"node","tipo_lugar":"neighbourhood"},"geometry":{"type":"Point","coordinates":[-50.2609921,-29.885267]}},{"type":"Feature","properties":{"nome":"Encosta da Serra","osm_id":5240250148,"osm_tipo":"node","tipo_lugar":"neighbourhood"},"geometry":{"type":"Point","coordinates":[-50.2719785,-29.8846345]}},{"type":"Feature","properties":{"nome":"Farroupilha","osm_id":5240250149,"osm_tipo":"node","tipo_lugar":"neighbourhood"},"geometry":{"type":"Point","coordinates":[-50.2471305,-29.8938618]}},{"type":"Feature","properties":{"nome":"Vila da Serra","osm_id":5240250150,"osm_tipo":"node","tipo_lugar":"neighbourhood"},"geometry":{"type":"Point","coordinates":[-50.2464868,-29.887053]}},{"type":"Feature","properties":{"nome":"Popular","osm_id":5240250151,"osm_tipo":"node","tipo_lugar":"neighbourhood"},"geometry":{"type":"Point","coordinates":[-50.2737594,-29.9049485]}},{"type":"Feature","properties":{"nome":"Parque do Sol","osm_id":5240250154,"osm_tipo":"node","tipo_lugar":"neighbourhood"},"geometry":{"type":"Point","coordinates":[-50.2759052,-29.8989403]}},{"type":"Feature","properties":{"nome":"Parque Real","osm_id":5240250159,"osm_tipo":"node","tipo_lugar":"neighbourhood"},"geometry":{"type":"Point","coordinates":[-50.2798534,-29.8939921]}},{"type":"Feature","properties":{"nome":"Laranjeiras","osm_id":5240250168,"osm_tipo":"node","tipo_lugar":"neighbourhood"},"geometry":{"type":"Point","coordinates":[-50.301826,-29.8963546]}},{"type":"Feature","properties":{"nome":"Serramar","osm_id":12180019638,"osm_tipo":"node","tipo_lugar":"suburb"},"geometry":{"type":"Point","coordinates":[-50.2577284,-29.9374264]}},{"type":"Feature","properties":{"nome":"Capão da Areia","osm_id":13686624277,"osm_tipo":"node","tipo_lugar":"suburb"},"geometry":{"type":"Point","coordinates":[-50.2480128,-29.9352741]}}]}