{"type":"FeatureCollection","features":[{"type":"Feature","properties":{"nome":"Angelo Furian","osm_id":4821924905,"osm_tipo":"node","tipo_lugar":"neighbourhood"},"geometry":{"type":"Point","coordinates":[-53.6564615,-28.4161394]}},{"type":"Feature","properties":{"nome":"Rio Branco","osm_id":4821924906,"osm_tipo":"node","tipo_lugar":"neighbourhood"},"geometry":{"type":"Point","coordinates":[-53.660753,-28.4229521]}},{"type":"Feature","properties":{"nome":"Centro","osm_id":4821924907,"osm_tipo":"node","tipo_lugar":"neighbourhood"},"geometry":{"type":"Point","coordinates":[-53.6558553,-28.4212396]}},{"type":"Feature","properties":{"nome":"Modelo","osm_id":4821924909,"osm_tipo":"node","tipo_lugar":"neighbourhood"},"geometry":{"type":"Point","coordinates":[-53.6536445,-28.4262233]}},{"type":"Feature","properties":{"nome":"Renascer","osm_id":4821924912,"osm_tipo":"node","tipo_lugar":"neighbourhood"},"geometry":{"type":"Point","coordinates":[-53.6516483,-28.4237883]}},{"type":"Feature","properties":{"nome":"Catarina Bresolin Mastella","osm_id":4821925446,"osm_tipo":"node","tipo_lugar":"neighbourhood"},"geometry":{"type":"Point","coordinates":[-53.6505019,-28.4180824]}}]}