{"type":"FeatureCollection","features":[{"type":"Feature","properties":{"nome":"Santo Inácio","osm_id":4839385111,"osm_tipo":"node","tipo_lugar":"neighbourhood"},"geometry":{"type":"Point","coordinates":[-51.5113661,-29.4357994]}},{"type":"Feature","properties":{"nome":"Linha do Meio","osm_id":4839385112,"osm_tipo":"node","tipo_lugar":"neighbourhood"},"geometry":{"type":"Point","coordinates":[-51.5144205,-29.4484174]}},{"type":"Feature","properties":{"nome":"Bela Vista","osm_id":4839385113,"osm_tipo":"node","tipo_lugar":"neighbourhood"},"geometry":{"type":"Point","coordinates":[-51.5128327,-29.4457921]}},{"type":"Feature","properties":{"nome":"Vila Nova","osm_id":4839385114,"osm_tipo":"node","tipo_lugar":"neighbourhood"},"geometry":{"type":"Point","coordinates":[-51.5052366,-29.4417278]}},{"type":"Feature","properties":{"nome":"Liberdade","osm_id":4839385115,"osm_tipo":"node","tipo_lugar":"neighbourhood"},"geometry":{"type":"Point","coordinates":[-51.5079288,-29.4450774]}},{"type":"Feature","properties":{"nome":"Centro","osm_id":4839385116,"osm_tipo":"node","tipo_lugar":"neighbourhood"},"geometry":{"type":"Point","coordinates":[-51.5113491,-29.4398234]}},{"type":"Feature","properties":{"nome":"Estação São Salvador","osm_id":4839385117,"osm_tipo":"node","tipo_lugar":"neighbourhood"},"geometry":{"type":"Point","coordinates":[-51.5060735,-29.4348883]}}]}