{"type":"FeatureCollection","features":[{"type":"Feature","properties":{"nome":"Hermenegildo","osm_id":416647259,"osm_tipo":"node","tipo_lugar":"suburb"},"geometry":{"type":"Point","coordinates":[-53.2622545,-33.664882]}},{"type":"Feature","properties":{"nome":"Centro","osm_id":5198958347,"osm_tipo":"node","tipo_lugar":"neighbourhood"},"geometry":{"type":"Point","coordinates":[-53.3651018,-33.5201093]}},{"type":"Feature","properties":{"nome":"Donatos","osm_id":5201107045,"osm_tipo":"node","tipo_lugar":"neighbourhood"},"geometry":{"type":"Point","coordinates":[-53.3603704,-33.5152612]}},{"type":"Feature","properties":{"nome":"Coxilha","osm_id":5206723599,"osm_tipo":"node","tipo_lugar":"neighbourhood"},"geometry":{"type":"Point","coordinates":[-53.3711529,-33.5279085]}},{"type":"Feature","properties":{"nome":"Cardeal","osm_id":5206744066,"osm_tipo":"node","tipo_lugar":"neighbourhood"},"geometry":{"type":"Point","coordinates":[-53.3575957,-33.5260216]}},{"type":"Feature","properties":{"nome":"Brasiliano","osm_id":5206767198,"osm_tipo":"node","tipo_lugar":"neighbourhood"},"geometry":{"type":"Point","coordinates":[-53.3493997,-33.5302783]}},{"type":"Feature","properties":{"nome":"Vitoriense","osm_id":5215215064,"osm_tipo":"node","tipo_lugar":"neighbourhood"},"geometry":{"type":"Point","coordinates":[-53.355403,-33.5203597]}},{"type":"Feature","properties":{"nome":"Santa Julia","osm_id":5215225012,"osm_tipo":"node","tipo_lugar":"neighbourhood"},"geometry":{"type":"Point","coordinates":[-53.3451247,-33.5319868]}},{"type":"Feature","properties":{"nome":"Bento Gonçalves","osm_id":5215239072,"osm_tipo":"node","tipo_lugar":"neighbourhood"},"geometry":{"type":"Point","coordinates":[-53.3630848,-33.5334893]}},{"type":"Feature","properties":{"nome":"Vila Rodrigues","osm_id":5223560333,"osm_tipo":"node","tipo_lugar":"neighbourhood"},"geometry":{"type":"Point","coordinates":[-53.3786416,-33.5267459]}},{"type":"Feature","properties":{"nome":"Coab II","osm_id":5223571014,"osm_tipo":"node","tipo_lugar":"neighbourhood"},"geometry":{"type":"Point","coordinates":[-53.3743715,-33.5189554]}},{"type":"Feature","properties":{"nome":"Getúlio Vargas","osm_id":5223593454,"osm_tipo":"node","tipo_lugar":"neighbourhood"},"geometry":{"type":"Point","coordinates":[-53.3782554,-33.5188749]}},{"type":"Feature","properties":{"nome":"Vila Nova","osm_id":5223609734,"osm_tipo":"node","tipo_lugar":"neighbourhood"},"geometry":{"type":"Point","coordinates":[-53.3805835,-33.5324966]}},{"type":"Feature","properties":{"nome":"Jacinto","osm_id":5231429922,"osm_tipo":"node","tipo_lugar":"neighbourhood"},"geometry":{"type":"Point","coordinates":[-53.3554351,-33.5231705]}},{"type":"Feature","properties":{"nome":"Aviação","osm_id":5231441795,"osm_tipo":"node","tipo_lugar":"neighbourhood"},"geometry":{"type":"Point","coordinates":[-53.354373,-33.5091604]}},{"type":"Feature","properties":{"nome":"Porto Pindorama","osm_id":5231461720,"osm_tipo":"node","tipo_lugar":"neighbourhood"},"geometry":{"type":"Point","coordinates":[-53.415066,-33.506593]}},{"type":"Feature","properties":{"nome":"São Miguel","osm_id":5231499659,"osm_tipo":"node","tipo_lugar":"neighbourhood"},"geometry":{"type":"Point","coordinates":[-53.3506715,-33.51756]}}]}