{"type":"FeatureCollection","features":[{"type":"Feature","properties":{"nome":"Barrio Meiggs","osm_id":250932459,"osm_tipo":"node","tipo_lugar":"neighbourhood"},"geometry":{"type":"Point","coordinates":[-70.6763884,-33.4519908]}},{"type":"Feature","properties":{"nome":"Barrio Franklin","osm_id":1234855549,"osm_tipo":"node","tipo_lugar":"neighbourhood"},"geometry":{"type":"Point","coordinates":[-70.6451423,-33.4731019]}},{"type":"Feature","properties":{"nome":"Barrio República","osm_id":1234856342,"osm_tipo":"node","tipo_lugar":"neighbourhood"},"geometry":{"type":"Point","coordinates":[-70.6674296,-33.4527404]}},{"type":"Feature","properties":{"nome":"Barrio Brasil","osm_id":1234857130,"osm_tipo":"node","tipo_lugar":"neighbourhood"},"geometry":{"type":"Point","coordinates":[-70.6658915,-33.4406468]}},{"type":"Feature","properties":{"nome":"Bairro das Majapoas","osm_id":1492576843,"osm_tipo":"node","tipo_lugar":"neighbourhood"},"geometry":{"type":"Point","coordinates":[-8.5125562,38.3852751]}},{"type":"Feature","properties":{"nome":"Bairro do Laranjal","osm_id":1593630806,"osm_tipo":"node","tipo_lugar":"neighbourhood"},"geometry":{"type":"Point","coordinates":[-8.4961275,38.3753801]}},{"type":"Feature","properties":{"nome":"Junquillo Arriba","osm_id":1825100662,"osm_tipo":"node","tipo_lugar":"neighbourhood"},"geometry":{"type":"Point","coordinates":[-84.317602,9.8350788]}},{"type":"Feature","properties":{"nome":"Junquillo Abajo","osm_id":1991141325,"osm_tipo":"node","tipo_lugar":"neighbourhood"},"geometry":{"type":"Point","coordinates":[-84.309563,9.841324]}},{"type":"Feature","properties":{"nome":"Santa Cecilia","osm_id":1991679724,"osm_tipo":"node","tipo_lugar":"neighbourhood"},"geometry":{"type":"Point","coordinates":[-84.3094895,9.8449837]}},{"type":"Feature","properties":{"nome":"San Isidro","osm_id":1991679728,"osm_tipo":"node","tipo_lugar":"neighbourhood"},"geometry":{"type":"Point","coordinates":[-84.312658,9.8418807]}},{"type":"Feature","properties":{"nome":"Magallanes","osm_id":2255868144,"osm_tipo":"node","tipo_lugar":"neighbourhood"},"geometry":{"type":"Point","coordinates":[-84.5073598,10.0684744]}},{"type":"Feature","properties":{"nome":"La Flor","osm_id":3060482584,"osm_tipo":"node","tipo_lugar":"neighbourhood"},"geometry":{"type":"Point","coordinates":[-83.8151071,9.8690214]}},{"type":"Feature","properties":{"nome":"Santiaguito","osm_id":3326442275,"osm_tipo":"node","tipo_lugar":"neighbourhood"},"geometry":{"type":"Point","coordinates":[-84.4794562,10.0787755]}},{"type":"Feature","properties":{"nome":"La Mina","osm_id":3830218605,"osm_tipo":"node","tipo_lugar":"neighbourhood"},"geometry":{"type":"Point","coordinates":[-84.4511944,10.0179238]}},{"type":"Feature","properties":{"nome":"Arahuay","osm_id":4428262030,"osm_tipo":"node","tipo_lugar":"neighbourhood"},"geometry":{"type":"Point","coordinates":[-71.9740249,-13.53695]}},{"type":"Feature","properties":{"nome":"Kuychiro","osm_id":4435313917,"osm_tipo":"node","tipo_lugar":"neighbourhood"},"geometry":{"type":"Point","coordinates":[-71.9792527,-13.5482201]}},{"type":"Feature","properties":{"nome":"Zapote","osm_id":4562158408,"osm_tipo":"node","tipo_lugar":"neighbourhood"},"geometry":{"type":"Point","coordinates":[-84.3313838,9.8703958]}},{"type":"Feature","properties":{"nome":"Barrio Lastarria","osm_id":4899630866,"osm_tipo":"node","tipo_lugar":"neighbourhood"},"geometry":{"type":"Point","coordinates":[-70.6410161,-33.4379661]}},{"type":"Feature","properties":{"nome":"La Arboleda","osm_id":4919768865,"osm_tipo":"node","tipo_lugar":"neighbourhood"},"geometry":{"type":"Point","coordinates":[-80.9799516,8.0833609]}},{"type":"Feature","properties":{"nome":"Villas del Sur","osm_id":4919769497,"osm_tipo":"node","tipo_lugar":"neighbourhood"},"geometry":{"type":"Point","coordinates":[-80.9853176,8.0818487]}},{"type":"Feature","properties":{"nome":"Altos de Santa Ines","osm_id":4919769579,"osm_tipo":"node","tipo_lugar":"neighbourhood"},"geometry":{"type":"Point","coordinates":[-80.9871738,8.08566]}},{"type":"Feature","properties":{"nome":"Santa Ines","osm_id":4919770233,"osm_tipo":"node","tipo_lugar":"neighbourhood"},"geometry":{"type":"Point","coordinates":[-80.9855875,8.0889283]}},{"type":"Feature","properties":{"nome":"La Felicidad","osm_id":4919771628,"osm_tipo":"node","tipo_lugar":"neighbourhood"},"geometry":{"type":"Point","coordinates":[-80.9852965,8.0909451]}},{"type":"Feature","properties":{"nome":"La Tronosa","osm_id":4919774587,"osm_tipo":"node","tipo_lugar":"neighbourhood"},"geometry":{"type":"Point","coordinates":[-80.9857338,8.0932301]}},{"type":"Feature","properties":{"nome":"Santa Monica","osm_id":4922952349,"osm_tipo":"node","tipo_lugar":"neighbourhood"},"geometry":{"type":"Point","coordinates":[-80.9748425,8.0867226]}},{"type":"Feature","properties":{"nome":"Condado del Sur","osm_id":4922954808,"osm_tipo":"node","tipo_lugar":"neighbourhood"},"geometry":{"type":"Point","coordinates":[-80.9766373,8.0935899]}},{"type":"Feature","properties":{"nome":"Mar Bella","osm_id":4922955836,"osm_tipo":"node","tipo_lugar":"neighbourhood"},"geometry":{"type":"Point","coordinates":[-80.9775964,8.0884557]}},{"type":"Feature","properties":{"nome":"26 de Noviembre","osm_id":4922968359,"osm_tipo":"node","tipo_lugar":"neighbourhood"},"geometry":{"type":"Point","coordinates":[-80.9676979,8.0961769]}},{"type":"Feature","properties":{"nome":"Miramar","osm_id":4922968360,"osm_tipo":"node","tipo_lugar":"neighbourhood"},"geometry":{"type":"Point","coordinates":[-80.9640386,8.092957]}},{"type":"Feature","properties":{"nome":"El Educador","osm_id":4922974325,"osm_tipo":"node","tipo_lugar":"neighbourhood"},"geometry":{"type":"Point","coordinates":[-80.9616504,8.0924908]}},{"type":"Feature","properties":{"nome":"San José del Higuerón","osm_id":5067052366,"osm_tipo":"node","tipo_lugar":"neighbourhood"},"geometry":{"type":"Point","coordinates":[-84.567369,10.0316258]}},{"type":"Feature","properties":{"nome":"Alto Salas","osm_id":5067596275,"osm_tipo":"node","tipo_lugar":"neighbourhood"},"geometry":{"type":"Point","coordinates":[-84.4893139,10.0503773]}},{"type":"Feature","properties":{"nome":"Alto Santiago","osm_id":5067596276,"osm_tipo":"node","tipo_lugar":"neighbourhood"},"geometry":{"type":"Point","coordinates":[-84.4969651,10.0532595]}},{"type":"Feature","properties":{"nome":"Constancia","osm_id":5082578899,"osm_tipo":"node","tipo_lugar":"neighbourhood"},"geometry":{"type":"Point","coordinates":[-84.5039259,10.0472164]}},{"type":"Feature","properties":{"nome":"Arias","osm_id":5084461254,"osm_tipo":"node","tipo_lugar":"neighbourhood"},"geometry":{"type":"Point","coordinates":[-84.4919601,10.0696467]}},{"type":"Feature","properties":{"nome":"La Ese","osm_id":5087076011,"osm_tipo":"node","tipo_lugar":"neighbourhood"},"geometry":{"type":"Point","coordinates":[-84.5093024,10.0340119]}},{"type":"Feature","properties":{"nome":"Urbanización Roccopata","osm_id":5180910065,"osm_tipo":"node","tipo_lugar":"neighbourhood"},"geometry":{"type":"Point","coordinates":[-71.9845333,-13.5275317]}},{"type":"Feature","properties":{"nome":"Barriada Brisamar","osm_id":5268041407,"osm_tipo":"node","tipo_lugar":"neighbourhood"},"geometry":{"type":"Point","coordinates":[-80.949844,8.0840436]}},{"type":"Feature","properties":{"nome":"Comunidad Campesina Chocco","osm_id":5307332493,"osm_tipo":"node","tipo_lugar":"neighbourhood"},"geometry":{"type":"Point","coordinates":[-71.9788605,-13.5559073]}},{"type":"Feature","properties":{"nome":"Riachuelo","osm_id":5312991901,"osm_tipo":"node","tipo_lugar":"suburb"},"geometry":{"type":"Point","coordinates":[-54.8574626,-29.1948326]}},{"type":"Feature","properties":{"nome":"Zamperetti","osm_id":5312991902,"osm_tipo":"node","tipo_lugar":"suburb"},"geometry":{"type":"Point","coordinates":[-54.8553057,-29.207984]}},{"type":"Feature","properties":{"nome":"Santiago Pompeo","osm_id":5312991903,"osm_tipo":"node","tipo_lugar":"suburb"},"geometry":{"type":"Point","coordinates":[-54.8647972,-29.1834485]}},{"type":"Feature","properties":{"nome":"Céu Aberto","osm_id":5312991904,"osm_tipo":"node","tipo_lugar":"suburb"},"geometry":{"type":"Point","coordinates":[-54.8526087,-29.2016375]}},{"type":"Feature","properties":{"nome":"Alto da Boa Vista","osm_id":5312991905,"osm_tipo":"node","tipo_lugar":"suburb"},"geometry":{"type":"Point","coordinates":[-54.8613239,-29.211249]}},{"type":"Feature","properties":{"nome":"Belizário","osm_id":5312991906,"osm_tipo":"node","tipo_lugar":"suburb"},"geometry":{"type":"Point","coordinates":[-54.8797233,-29.1996104]}},{"type":"Feature","properties":{"nome":"Maria Alice Gomes","osm_id":5312991907,"osm_tipo":"node","tipo_lugar":"suburb"},"geometry":{"type":"Point","coordinates":[-54.8626819,-29.2015453]}},{"type":"Feature","properties":{"nome":"Castilhos","osm_id":5312991908,"osm_tipo":"node","tipo_lugar":"suburb"},"geometry":{"type":"Point","coordinates":[-54.8692773,-29.2056483]}},{"type":"Feature","properties":{"nome":"Missões","osm_id":5312991909,"osm_tipo":"node","tipo_lugar":"suburb"},"geometry":{"type":"Point","coordinates":[-54.8889162,-29.1738479]}},{"type":"Feature","properties":{"nome":"Carlos Humberto","osm_id":5312991910,"osm_tipo":"node","tipo_lugar":"suburb"},"geometry":{"type":"Point","coordinates":[-54.8683067,-29.1727206]}},{"type":"Feature","properties":{"nome":"João Evangelista","osm_id":5312991911,"osm_tipo":"node","tipo_lugar":"suburb"},"geometry":{"type":"Point","coordinates":[-54.8779404,-29.2027089]}},{"type":"Feature","properties":{"nome":"Vista Alegre","osm_id":5312991912,"osm_tipo":"node","tipo_lugar":"suburb"},"geometry":{"type":"Point","coordinates":[-54.8832321,-29.1740674]}},{"type":"Feature","properties":{"nome":"Jardim dos Eucaliptos","osm_id":5312991913,"osm_tipo":"node","tipo_lugar":"suburb"},"geometry":{"type":"Point","coordinates":[-54.8642901,-29.1738126]}},{"type":"Feature","properties":{"nome":"Ana Martins Bonato","osm_id":5312991914,"osm_tipo":"node","tipo_lugar":"suburb"},"geometry":{"type":"Point","coordinates":[-54.8489649,-29.1638024]}},{"type":"Feature","properties":{"nome":"Atalaia","osm_id":5312991915,"osm_tipo":"node","tipo_lugar":"suburb"},"geometry":{"type":"Point","coordinates":[-54.8782061,-29.1577527]}},{"type":"Feature","properties":{"nome":"São Jorge","osm_id":5312991916,"osm_tipo":"node","tipo_lugar":"suburb"},"geometry":{"type":"Point","coordinates":[-54.8523669,-29.1841416]}},{"type":"Feature","properties":{"nome":"João Goulart","osm_id":5312991917,"osm_tipo":"node","tipo_lugar":"suburb"},"geometry":{"type":"Point","coordinates":[-54.8613013,-29.1799243]}},{"type":"Feature","properties":{"nome":"Monsenhor Assis","osm_id":5312991918,"osm_tipo":"node","tipo_lugar":"suburb"},"geometry":{"type":"Point","coordinates":[-54.848479,-29.1750625]}},{"type":"Feature","properties":{"nome":"Centro","osm_id":5312991919,"osm_tipo":"node","tipo_lugar":"suburb"},"geometry":{"type":"Point","coordinates":[-54.8671696,-29.1922056]}},{"type":"Feature","properties":{"nome":"Vila Nova","osm_id":5312991920,"osm_tipo":"node","tipo_lugar":"suburb"},"geometry":{"type":"Point","coordinates":[-54.8758138,-29.1788599]}},{"type":"Feature","properties":{"nome":"Lulu Genro","osm_id":5312991921,"osm_tipo":"node","tipo_lugar":"suburb"},"geometry":{"type":"Point","coordinates":[-54.8561118,-29.1900279]}},{"type":"Feature","properties":{"nome":"Guabiroba","osm_id":5312991922,"osm_tipo":"node","tipo_lugar":"suburb"},"geometry":{"type":"Point","coordinates":[-54.8851119,-29.1649568]}},{"type":"Feature","properties":{"nome":"Vila Rica","osm_id":5312991923,"osm_tipo":"node","tipo_lugar":"suburb"},"geometry":{"type":"Point","coordinates":[-54.8760371,-29.1684014]}},{"type":"Feature","properties":{"nome":"Itú","osm_id":5312991924,"osm_tipo":"node","tipo_lugar":"suburb"},"geometry":{"type":"Point","coordinates":[-54.8805446,-29.1859496]}},{"type":"Feature","properties":{"nome":"Nei Pereira","osm_id":5312991925,"osm_tipo":"node","tipo_lugar":"suburb"},"geometry":{"type":"Point","coordinates":[-54.8707724,-29.1806982]}},{"type":"Feature","properties":{"nome":"Daer","osm_id":5312991926,"osm_tipo":"node","tipo_lugar":"suburb"},"geometry":{"type":"Point","coordinates":[-54.8631019,-29.1777309]}},{"type":"Feature","properties":{"nome":"São Vicente","osm_id":5312991927,"osm_tipo":"node","tipo_lugar":"suburb"},"geometry":{"type":"Point","coordinates":[-54.8797147,-29.1928067]}},{"type":"Feature","properties":{"nome":"Irmã Dulce","osm_id":5312991928,"osm_tipo":"node","tipo_lugar":"suburb"},"geometry":{"type":"Point","coordinates":[-54.8683365,-29.1827594]}},{"type":"Feature","properties":{"nome":"Francisco Bolognesi","osm_id":5323162504,"osm_tipo":"node","tipo_lugar":"neighbourhood"},"geometry":{"type":"Point","coordinates":[-71.9871821,-13.5317799]}},{"type":"Feature","properties":{"nome":"Zarzuela","osm_id":5323162505,"osm_tipo":"node","tipo_lugar":"neighbourhood"},"geometry":{"type":"Point","coordinates":[-71.9835434,-13.5305454]}},{"type":"Feature","properties":{"nome":"Dignidad Nacional","osm_id":5323162506,"osm_tipo":"node","tipo_lugar":"neighbourhood"},"geometry":{"type":"Point","coordinates":[-71.9898787,-13.5286345]}},{"type":"Feature","properties":{"nome":"Santiago","osm_id":5323162507,"osm_tipo":"node","tipo_lugar":"suburb"},"geometry":{"type":"Point","coordinates":[-71.983246,-13.5253753]}},{"type":"Feature","properties":{"nome":"Ramiro Prialé","osm_id":5323178435,"osm_tipo":"node","tipo_lugar":"neighbourhood"},"geometry":{"type":"Point","coordinates":[-71.9843075,-13.5339495]}},{"type":"Feature","properties":{"nome":"Qoripata","osm_id":5323178436,"osm_tipo":"node","tipo_lugar":"neighbourhood"},"geometry":{"type":"Point","coordinates":[-71.9749486,-13.5276766]}},{"type":"Feature","properties":{"nome":"Huancaro","osm_id":5323188536,"osm_tipo":"node","tipo_lugar":"neighbourhood"},"geometry":{"type":"Point","coordinates":[-71.9803792,-13.536386]}},{"type":"Feature","properties":{"nome":"Jardines de Roma","osm_id":5358902527,"osm_tipo":"node","tipo_lugar":"neighbourhood"},"geometry":{"type":"Point","coordinates":[-84.1080282,10.0042346]}},{"type":"Feature","properties":{"nome":"Jardines Universitarios 2","osm_id":5358902528,"osm_tipo":"node","tipo_lugar":"neighbourhood"},"geometry":{"type":"Point","coordinates":[-84.1079794,10.0016722]}},{"type":"Feature","properties":{"nome":"La Suiza","osm_id":5358944370,"osm_tipo":"node","tipo_lugar":"neighbourhood"},"geometry":{"type":"Point","coordinates":[-84.0964994,10.0087975]}},{"type":"Feature","properties":{"nome":"Eletrecitários","osm_id":5555364563,"osm_tipo":"node","tipo_lugar":"suburb"},"geometry":{"type":"Point","coordinates":[-54.8661948,-29.164004]}},{"type":"Feature","properties":{"nome":"Jardim das Palmeiras","osm_id":5555364567,"osm_tipo":"node","tipo_lugar":"suburb"},"geometry":{"type":"Point","coordinates":[-54.870894,-29.1981005]}},{"type":"Feature","properties":{"nome":"Jardim das Paineiras","osm_id":5555364568,"osm_tipo":"node","tipo_lugar":"suburb"},"geometry":{"type":"Point","coordinates":[-54.8691344,-29.1999736]}},{"type":"Feature","properties":{"nome":"Gaspar Dutra","osm_id":5555364570,"osm_tipo":"node","tipo_lugar":"suburb"},"geometry":{"type":"Point","coordinates":[-54.8568392,-29.175733]}},{"type":"Feature","properties":{"nome":"Paritilla","osm_id":5921426442,"osm_tipo":"node","tipo_lugar":"neighbourhood"},"geometry":{"type":"Point","coordinates":[-80.9786429,8.1084588]}},{"type":"Feature","properties":{"nome":"Alto Alfaro","osm_id":5921427073,"osm_tipo":"node","tipo_lugar":"neighbourhood"},"geometry":{"type":"Point","coordinates":[-80.9753384,8.1099379]}},{"type":"Feature","properties":{"nome":"El Progreso","osm_id":5921433087,"osm_tipo":"node","tipo_lugar":"neighbourhood"},"geometry":{"type":"Point","coordinates":[-80.977511,8.1094785]}},{"type":"Feature","properties":{"nome":"La Española","osm_id":5921441235,"osm_tipo":"node","tipo_lugar":"neighbourhood"},"geometry":{"type":"Point","coordinates":[-80.978288,8.1110509]}},{"type":"Feature","properties":{"nome":"El Hatillo","osm_id":5921452759,"osm_tipo":"node","tipo_lugar":"neighbourhood"},"geometry":{"type":"Point","coordinates":[-80.9761947,8.1111739]}},{"type":"Feature","properties":{"nome":"Vista Bella","osm_id":5921468564,"osm_tipo":"node","tipo_lugar":"neighbourhood"},"geometry":{"type":"Point","coordinates":[-80.988968,8.1062784]}},{"type":"Feature","properties":{"nome":"Alto de la Cruz No.1","osm_id":5921476010,"osm_tipo":"node","tipo_lugar":"neighbourhood"},"geometry":{"type":"Point","coordinates":[-80.9933748,8.1063209]}},{"type":"Feature","properties":{"nome":"Las Colinas","osm_id":5921522507,"osm_tipo":"node","tipo_lugar":"neighbourhood"},"geometry":{"type":"Point","coordinates":[-80.9875108,8.0991319]}},{"type":"Feature","properties":{"nome":"Bajada de Los Chorros","osm_id":5921525419,"osm_tipo":"node","tipo_lugar":"neighbourhood"},"geometry":{"type":"Point","coordinates":[-80.9876074,8.1023915]}},{"type":"Feature","properties":{"nome":"Luz Mar","osm_id":5921526477,"osm_tipo":"node","tipo_lugar":"neighbourhood"},"geometry":{"type":"Point","coordinates":[-80.9836998,8.1044598]}},{"type":"Feature","properties":{"nome":"El Carmen","osm_id":5921536502,"osm_tipo":"node","tipo_lugar":"neighbourhood"},"geometry":{"type":"Point","coordinates":[-80.9854053,8.1059458]}},{"type":"Feature","properties":{"nome":"Paso Las Tablas","osm_id":5921540114,"osm_tipo":"node","tipo_lugar":"neighbourhood"},"geometry":{"type":"Point","coordinates":[-80.981272,8.106202]}},{"type":"Feature","properties":{"nome":"Paraiso","osm_id":5921540329,"osm_tipo":"node","tipo_lugar":"neighbourhood"},"geometry":{"type":"Point","coordinates":[-80.9769568,8.1018767]}},{"type":"Feature","properties":{"nome":"El Prado","osm_id":5921540330,"osm_tipo":"node","tipo_lugar":"neighbourhood"},"geometry":{"type":"Point","coordinates":[-80.9711923,8.0965271]}},{"type":"Feature","properties":{"nome":"Las Margaritas","osm_id":5921541682,"osm_tipo":"node","tipo_lugar":"neighbourhood"},"geometry":{"type":"Point","coordinates":[-80.9813847,8.1043671]}},{"type":"Feature","properties":{"nome":"Urracá","osm_id":5921548279,"osm_tipo":"node","tipo_lugar":"neighbourhood"},"geometry":{"type":"Point","coordinates":[-80.9722295,8.1037036]}},{"type":"Feature","properties":{"nome":"Las Veraneras","osm_id":5921559219,"osm_tipo":"node","tipo_lugar":"neighbourhood"},"geometry":{"type":"Point","coordinates":[-80.9634675,8.0967938]}},{"type":"Feature","properties":{"nome":"Altos del Sol","osm_id":5921571482,"osm_tipo":"node","tipo_lugar":"neighbourhood"},"geometry":{"type":"Point","coordinates":[-80.9536399,8.0931345]}},{"type":"Feature","properties":{"nome":"Villa Serena","osm_id":5921580870,"osm_tipo":"node","tipo_lugar":"neighbourhood"},"geometry":{"type":"Point","coordinates":[-80.9496059,8.0923273]}},{"type":"Feature","properties":{"nome":"La Florecita","osm_id":5921582280,"osm_tipo":"node","tipo_lugar":"suburb"},"geometry":{"type":"Point","coordinates":[-80.9536184,8.0869312]}},{"type":"Feature","properties":{"nome":"La Florecita Abajo","osm_id":5921585142,"osm_tipo":"node","tipo_lugar":"neighbourhood"},"geometry":{"type":"Point","coordinates":[-80.9499492,8.079347]}},{"type":"Feature","properties":{"nome":"Villas de Barbarena","osm_id":5921587656,"osm_tipo":"node","tipo_lugar":"neighbourhood"},"geometry":{"type":"Point","coordinates":[-80.9586395,8.0897567]}},{"type":"Feature","properties":{"nome":"Barbarena","osm_id":5921588152,"osm_tipo":"node","tipo_lugar":"neighbourhood"},"geometry":{"type":"Point","coordinates":[-80.9586181,8.0933045]}},{"type":"Feature","properties":{"nome":"Altos de Barbarena","osm_id":5921592100,"osm_tipo":"node","tipo_lugar":"neighbourhood"},"geometry":{"type":"Point","coordinates":[-80.9583391,8.0868888]}},{"type":"Feature","properties":{"nome":"Altos de Miramar","osm_id":5921592103,"osm_tipo":"node","tipo_lugar":"neighbourhood"},"geometry":{"type":"Point","coordinates":[-80.9623088,8.0871773]}},{"type":"Feature","properties":{"nome":"Las Acacias","osm_id":5921594884,"osm_tipo":"node","tipo_lugar":"neighbourhood"},"geometry":{"type":"Point","coordinates":[-80.965336,8.0963017]}},{"type":"Feature","properties":{"nome":"San Felipe o La Pastrana","osm_id":5921596675,"osm_tipo":"node","tipo_lugar":"neighbourhood"},"geometry":{"type":"Point","coordinates":[-80.9703125,8.0941045]}},{"type":"Feature","properties":{"nome":"Verdún","osm_id":5921601003,"osm_tipo":"node","tipo_lugar":"neighbourhood"},"geometry":{"type":"Point","coordinates":[-80.9738826,8.0949535]}},{"type":"Feature","properties":{"nome":"La Alameda","osm_id":5921611179,"osm_tipo":"node","tipo_lugar":"neighbourhood"},"geometry":{"type":"Point","coordinates":[-80.975516,8.0911243]}},{"type":"Feature","properties":{"nome":"La Primavera","osm_id":5921612103,"osm_tipo":"node","tipo_lugar":"neighbourhood"},"geometry":{"type":"Point","coordinates":[-80.977576,8.0931451]}},{"type":"Feature","properties":{"nome":"Villa Flores","osm_id":5921612642,"osm_tipo":"node","tipo_lugar":"neighbourhood"},"geometry":{"type":"Point","coordinates":[-80.9796681,8.0896293]}},{"type":"Feature","properties":{"nome":"Colinas de Santa Ines","osm_id":5921618865,"osm_tipo":"node","tipo_lugar":"neighbourhood"},"geometry":{"type":"Point","coordinates":[-80.9862341,8.0844138]}},{"type":"Feature","properties":{"nome":"San Francisco #2","osm_id":5921619987,"osm_tipo":"node","tipo_lugar":"neighbourhood"},"geometry":{"type":"Point","coordinates":[-80.9921175,8.0899426]}},{"type":"Feature","properties":{"nome":"San Francisco #1","osm_id":5921620351,"osm_tipo":"node","tipo_lugar":"neighbourhood"},"geometry":{"type":"Point","coordinates":[-80.9882297,8.0897673]}},{"type":"Feature","properties":{"nome":"La Cruz de Los Reyes","osm_id":5921622189,"osm_tipo":"node","tipo_lugar":"neighbourhood"},"geometry":{"type":"Point","coordinates":[-80.9905974,8.0875128]}},{"type":"Feature","properties":{"nome":"Rio Escondido #2","osm_id":5921624523,"osm_tipo":"node","tipo_lugar":"neighbourhood"},"geometry":{"type":"Point","coordinates":[-80.9918453,8.0924122]}},{"type":"Feature","properties":{"nome":"Rio Escondido #1","osm_id":5921627666,"osm_tipo":"node","tipo_lugar":"neighbourhood"},"geometry":{"type":"Point","coordinates":[-80.9889807,8.0932726]}},{"type":"Feature","properties":{"nome":"San Vicente","osm_id":5921628037,"osm_tipo":"node","tipo_lugar":"neighbourhood"},"geometry":{"type":"Point","coordinates":[-80.9862528,8.0947889]}},{"type":"Feature","properties":{"nome":"Barriada La Gloria","osm_id":5921630092,"osm_tipo":"node","tipo_lugar":"neighbourhood"},"geometry":{"type":"Point","coordinates":[-80.9812023,8.0916156]}},{"type":"Feature","properties":{"nome":"Santa Lucía","osm_id":6110392759,"osm_tipo":"node","tipo_lugar":"neighbourhood"},"geometry":{"type":"Point","coordinates":[-84.4469097,10.0333757]}},{"type":"Feature","properties":{"nome":"La Chola","osm_id":6110917061,"osm_tipo":"node","tipo_lugar":"neighbourhood"},"geometry":{"type":"Point","coordinates":[-84.4407066,10.0201933]}},{"type":"Feature","properties":{"nome":"Bajo Las Palmas","osm_id":6278691247,"osm_tipo":"node","tipo_lugar":"neighbourhood"},"geometry":{"type":"Point","coordinates":[-84.4362594,10.0329056]}},{"type":"Feature","properties":{"nome":"Montserrat","osm_id":6284617048,"osm_tipo":"node","tipo_lugar":"neighbourhood"},"geometry":{"type":"Point","coordinates":[-84.48232,10.0716112]}},{"type":"Feature","properties":{"nome":"Entrada de Martincito","osm_id":6585567733,"osm_tipo":"node","tipo_lugar":"neighbourhood"},"geometry":{"type":"Point","coordinates":[-80.9779286,8.0835765]}},{"type":"Feature","properties":{"nome":"Villas Del Sur","osm_id":6585567734,"osm_tipo":"node","tipo_lugar":"neighbourhood"},"geometry":{"type":"Point","coordinates":[-80.9815657,8.0825887]}},{"type":"Feature","properties":{"nome":"Francisco Bolognesi (ampliación)","osm_id":6975621913,"osm_tipo":"node","tipo_lugar":"neighbourhood"},"geometry":{"type":"Point","coordinates":[-71.9866437,-13.5293763]}},{"type":"Feature","properties":{"nome":"Don Pablo","osm_id":7416006257,"osm_tipo":"node","tipo_lugar":"neighbourhood"},"geometry":{"type":"Point","coordinates":[-80.9973237,8.1076484]}},{"type":"Feature","properties":{"nome":"La Hilda #1","osm_id":7449493223,"osm_tipo":"node","tipo_lugar":"neighbourhood"},"geometry":{"type":"Point","coordinates":[-80.9731261,8.1070305]}},{"type":"Feature","properties":{"nome":"Pamplona","osm_id":7597256097,"osm_tipo":"node","tipo_lugar":"neighbourhood"},"geometry":{"type":"Point","coordinates":[-80.9789157,8.0750362]}},{"type":"Feature","properties":{"nome":"Altos de Martincito","osm_id":7597256098,"osm_tipo":"node","tipo_lugar":"neighbourhood"},"geometry":{"type":"Point","coordinates":[-80.9729719,8.0784247]}},{"type":"Feature","properties":{"nome":"Martincito","osm_id":7597256099,"osm_tipo":"node","tipo_lugar":"neighbourhood"},"geometry":{"type":"Point","coordinates":[-80.9662557,8.0693425]}},{"type":"Feature","properties":{"nome":"Santa Clara","osm_id":7597256100,"osm_tipo":"node","tipo_lugar":"neighbourhood"},"geometry":{"type":"Point","coordinates":[-80.9798384,8.0698949]}},{"type":"Feature","properties":{"nome":"Ccachona","osm_id":7753549713,"osm_tipo":"node","tipo_lugar":"neighbourhood"},"geometry":{"type":"Point","coordinates":[-71.9865862,-13.5502156]}},{"type":"Feature","properties":{"nome":"Hermanos Ayar","osm_id":7753549715,"osm_tipo":"node","tipo_lugar":"neighbourhood"},"geometry":{"type":"Point","coordinates":[-71.9939345,-13.5299958]}},{"type":"Feature","properties":{"nome":"Luis Vallejo Santoni","osm_id":7753549720,"osm_tipo":"node","tipo_lugar":"neighbourhood"},"geometry":{"type":"Point","coordinates":[-71.9858794,-13.5432119]}},{"type":"Feature","properties":{"nome":"Manahuanunca 2","osm_id":7753549722,"osm_tipo":"node","tipo_lugar":"neighbourhood"},"geometry":{"type":"Point","coordinates":[-71.9849328,-13.5401231]}},{"type":"Feature","properties":{"nome":"Banco Pata","osm_id":7792066173,"osm_tipo":"node","tipo_lugar":"neighbourhood"},"geometry":{"type":"Point","coordinates":[-71.9692283,-13.5324469]}},{"type":"Feature","properties":{"nome":"Valle de Barbarena","osm_id":8156078627,"osm_tipo":"node","tipo_lugar":"neighbourhood"},"geometry":{"type":"Point","coordinates":[-80.9620389,8.0894318]}},{"type":"Feature","properties":{"nome":"Verdún Hill","osm_id":8156395386,"osm_tipo":"node","tipo_lugar":"neighbourhood"},"geometry":{"type":"Point","coordinates":[-80.9685319,8.0922414]}},{"type":"Feature","properties":{"nome":"Bajo Badilla","osm_id":8303933042,"osm_tipo":"node","tipo_lugar":"neighbourhood"},"geometry":{"type":"Point","coordinates":[-84.2785518,9.7852768]}},{"type":"Feature","properties":{"nome":"Pueblo Nuevo","osm_id":8303970815,"osm_tipo":"node","tipo_lugar":"neighbourhood"},"geometry":{"type":"Point","coordinates":[-84.303944,9.848065]}},{"type":"Feature","properties":{"nome":"Cañales Abajo","osm_id":8303973850,"osm_tipo":"node","tipo_lugar":"neighbourhood"},"geometry":{"type":"Point","coordinates":[-84.2962545,9.8154815]}},{"type":"Feature","properties":{"nome":"Cañales Arriba","osm_id":8303973851,"osm_tipo":"node","tipo_lugar":"neighbourhood"},"geometry":{"type":"Point","coordinates":[-84.3065494,9.8237276]}},{"type":"Feature","properties":{"nome":"Junquillo Abajo","osm_id":8303973938,"osm_tipo":"node","tipo_lugar":"neighbourhood"},"geometry":{"type":"Point","coordinates":[-84.305208,9.8376085]}},{"type":"Feature","properties":{"nome":"Las Brisas","osm_id":8303998123,"osm_tipo":"node","tipo_lugar":"neighbourhood"},"geometry":{"type":"Point","coordinates":[-84.3234264,9.8484405]}},{"type":"Feature","properties":{"nome":"Cirrí","osm_id":8309101227,"osm_tipo":"node","tipo_lugar":"neighbourhood"},"geometry":{"type":"Point","coordinates":[-84.3276748,9.8553432]}},{"type":"Feature","properties":{"nome":"Don Bosco","osm_id":8744290002,"osm_tipo":"node","tipo_lugar":"neighbourhood"},"geometry":{"type":"Point","coordinates":[-80.9750037,8.0992347]}},{"type":"Feature","properties":{"nome":"Los Chorros","osm_id":8781140636,"osm_tipo":"node","tipo_lugar":"neighbourhood"},"geometry":{"type":"Point","coordinates":[-80.9924769,8.1037848]}},{"type":"Feature","properties":{"nome":"Los Potreros","osm_id":8796165616,"osm_tipo":"node","tipo_lugar":"neighbourhood"},"geometry":{"type":"Point","coordinates":[-80.9708637,8.0956751]}},{"type":"Feature","properties":{"nome":"Población Matadero","osm_id":9000087735,"osm_tipo":"node","tipo_lugar":"neighbourhood"},"geometry":{"type":"Point","coordinates":[-70.6403025,-33.4757426]}},{"type":"Feature","properties":{"nome":"Barrio Matta","osm_id":9005878093,"osm_tipo":"node","tipo_lugar":"neighbourhood"},"geometry":{"type":"Point","coordinates":[-70.6350322,-33.4562961]}},{"type":"Feature","properties":{"nome":"Cotovias","osm_id":9403140318,"osm_tipo":"node","tipo_lugar":"neighbourhood"},"geometry":{"type":"Point","coordinates":[-8.5083441,38.3888996]}},{"type":"Feature","properties":{"nome":"Cascares","osm_id":9453839104,"osm_tipo":"node","tipo_lugar":"neighbourhood"},"geometry":{"type":"Point","coordinates":[-83.8020704,9.8667858]}},{"type":"Feature","properties":{"nome":"El Beneficio","osm_id":9453839106,"osm_tipo":"node","tipo_lugar":"neighbourhood"},"geometry":{"type":"Point","coordinates":[-83.7974058,9.8699482]}},{"type":"Feature","properties":{"nome":"Las Trojas","osm_id":9453839107,"osm_tipo":"node","tipo_lugar":"neighbourhood"},"geometry":{"type":"Point","coordinates":[-83.7927022,9.8767095]}},{"type":"Feature","properties":{"nome":"Casa Blanca","osm_id":9453839108,"osm_tipo":"node","tipo_lugar":"neighbourhood"},"geometry":{"type":"Point","coordinates":[-83.7952235,9.8732849]}},{"type":"Feature","properties":{"nome":"Veintiuno de Noviembre","osm_id":9453957964,"osm_tipo":"node","tipo_lugar":"neighbourhood"},"geometry":{"type":"Point","coordinates":[-83.7986338,9.8679033]}},{"type":"Feature","properties":{"nome":"Barrio Bellas Artes","osm_id":10727400432,"osm_tipo":"node","tipo_lugar":"neighbourhood"},"geometry":{"type":"Point","coordinates":[-70.6456979,-33.4378965]}},{"type":"Feature","properties":{"nome":"Conjunto Virginia Opazo","osm_id":10863898391,"osm_tipo":"node","tipo_lugar":"neighbourhood"},"geometry":{"type":"Point","coordinates":[-70.6691139,-33.4493816]}},{"type":"Feature","properties":{"nome":"Barrio Balmaceda","osm_id":10866044656,"osm_tipo":"node","tipo_lugar":"neighbourhood"},"geometry":{"type":"Point","coordinates":[-70.6744173,-33.4315709]}},{"type":"Feature","properties":{"nome":"Barrio Panamá","osm_id":10866044657,"osm_tipo":"node","tipo_lugar":"neighbourhood"},"geometry":{"type":"Point","coordinates":[-70.6658074,-33.432417]}},{"type":"Feature","properties":{"nome":"Barrio Concha y Toro","osm_id":10882467325,"osm_tipo":"node","tipo_lugar":"neighbourhood"},"geometry":{"type":"Point","coordinates":[-70.6660592,-33.4459042]}},{"type":"Feature","properties":{"nome":"Barrio Cívico","osm_id":10882467326,"osm_tipo":"node","tipo_lugar":"neighbourhood"},"geometry":{"type":"Point","coordinates":[-70.6535367,-33.4445787]}},{"type":"Feature","properties":{"nome":"Barrio Ejército","osm_id":10882467327,"osm_tipo":"node","tipo_lugar":"neighbourhood"},"geometry":{"type":"Point","coordinates":[-70.6616537,-33.4521907]}},{"type":"Feature","properties":{"nome":"Barrio Dieciocho","osm_id":10882467328,"osm_tipo":"node","tipo_lugar":"neighbourhood"},"geometry":{"type":"Point","coordinates":[-70.6577685,-33.4488204]}},{"type":"Feature","properties":{"nome":"Centro Histórico","osm_id":10882467329,"osm_tipo":"node","tipo_lugar":"neighbourhood"},"geometry":{"type":"Point","coordinates":[-70.6505796,-33.4377752]}},{"type":"Feature","properties":{"nome":"Barrio La Bolsa","osm_id":10882467337,"osm_tipo":"node","tipo_lugar":"neighbourhood"},"geometry":{"type":"Point","coordinates":[-70.6511964,-33.4427211]}},{"type":"Feature","properties":{"nome":"Barrio París-Londres","osm_id":10882467338,"osm_tipo":"node","tipo_lugar":"neighbourhood"},"geometry":{"type":"Point","coordinates":[-70.6484271,-33.4446459]}},{"type":"Feature","properties":{"nome":"Barrio San Diego","osm_id":10882467339,"osm_tipo":"node","tipo_lugar":"neighbourhood"},"geometry":{"type":"Point","coordinates":[-70.6509953,-33.4475162]}},{"type":"Feature","properties":{"nome":"Barrio Santa Isabel","osm_id":10882467340,"osm_tipo":"node","tipo_lugar":"neighbourhood"},"geometry":{"type":"Point","coordinates":[-70.638928,-33.4489686]}},{"type":"Feature","properties":{"nome":"Barrio San Isidro","osm_id":10882467341,"osm_tipo":"node","tipo_lugar":"neighbourhood"},"geometry":{"type":"Point","coordinates":[-70.642718,-33.4460682]}},{"type":"Feature","properties":{"nome":"Barrio San Borja","osm_id":10882467342,"osm_tipo":"node","tipo_lugar":"neighbourhood"},"geometry":{"type":"Point","coordinates":[-70.6376513,-33.4430982]}},{"type":"Feature","properties":{"nome":"Barrio San Vicente","osm_id":10882674879,"osm_tipo":"node","tipo_lugar":"neighbourhood"},"geometry":{"type":"Point","coordinates":[-70.6743902,-33.4634818]}},{"type":"Feature","properties":{"nome":"Barrio Viel","osm_id":10882674880,"osm_tipo":"node","tipo_lugar":"neighbourhood"},"geometry":{"type":"Point","coordinates":[-70.6555637,-33.4655359]}},{"type":"Feature","properties":{"nome":"Barrio Huemul","osm_id":10882674881,"osm_tipo":"node","tipo_lugar":"neighbourhood"},"geometry":{"type":"Point","coordinates":[-70.6513661,-33.4747586]}},{"type":"Feature","properties":{"nome":"Barrio Pedro Montt","osm_id":10882674882,"osm_tipo":"node","tipo_lugar":"neighbourhood"},"geometry":{"type":"Point","coordinates":[-70.6643547,-33.473584]}},{"type":"Feature","properties":{"nome":"Barrio San Eugenio","osm_id":10882674883,"osm_tipo":"node","tipo_lugar":"neighbourhood"},"geometry":{"type":"Point","coordinates":[-70.6736324,-33.470559]}},{"type":"Feature","properties":{"nome":"Barrio Victoria","osm_id":10882674884,"osm_tipo":"node","tipo_lugar":"neighbourhood"},"geometry":{"type":"Point","coordinates":[-70.6486691,-33.4635288]}},{"type":"Feature","properties":{"nome":"Barrio Matta Sur","osm_id":10882674885,"osm_tipo":"node","tipo_lugar":"neighbourhood"},"geometry":{"type":"Point","coordinates":[-70.6397106,-33.4618282]}},{"type":"Feature","properties":{"nome":"Barrio Sierra Bella","osm_id":10882674886,"osm_tipo":"node","tipo_lugar":"neighbourhood"},"geometry":{"type":"Point","coordinates":[-70.631389,-33.4708477]}},{"type":"Feature","properties":{"nome":"Barrio Bogotá","osm_id":10882674887,"osm_tipo":"node","tipo_lugar":"neighbourhood"},"geometry":{"type":"Point","coordinates":[-70.6365536,-33.4659453]}},{"type":"Feature","properties":{"nome":"Barrio Santa Elena","osm_id":10882674888,"osm_tipo":"node","tipo_lugar":"neighbourhood"},"geometry":{"type":"Point","coordinates":[-70.6288583,-33.4649877]}},{"type":"Feature","properties":{"nome":"Barrio Copiapó","osm_id":10882674889,"osm_tipo":"node","tipo_lugar":"neighbourhood"},"geometry":{"type":"Point","coordinates":[-70.6528909,-33.4560929]}},{"type":"Feature","properties":{"nome":"Barrio Club Hípico","osm_id":10882674890,"osm_tipo":"node","tipo_lugar":"neighbourhood"},"geometry":{"type":"Point","coordinates":[-70.6644258,-33.4642828]}},{"type":"Feature","properties":{"nome":"Barrio San Alfonso","osm_id":10882674891,"osm_tipo":"node","tipo_lugar":"neighbourhood"},"geometry":{"type":"Point","coordinates":[-70.6752914,-33.4564017]}},{"type":"Feature","properties":{"nome":"Barrio Santa Ana","osm_id":10917526069,"osm_tipo":"node","tipo_lugar":"neighbourhood"},"geometry":{"type":"Point","coordinates":[-70.6583242,-33.4381721]}},{"type":"Feature","properties":{"nome":"Ana Beatriz","osm_id":11260650974,"osm_tipo":"node","tipo_lugar":"neighbourhood"},"geometry":{"type":"Point","coordinates":[-84.0984735,10.0093124]}},{"type":"Feature","properties":{"nome":"Piedra Blanca","osm_id":11260650975,"osm_tipo":"node","tipo_lugar":"neighbourhood"},"geometry":{"type":"Point","coordinates":[-84.1011171,10.0074919]}},{"type":"Feature","properties":{"nome":"Villa Laguna","osm_id":11260650976,"osm_tipo":"node","tipo_lugar":"neighbourhood"},"geometry":{"type":"Point","coordinates":[-84.1027362,10.0089474]}},{"type":"Feature","properties":{"nome":"Bajo Mora","osm_id":11380521406,"osm_tipo":"node","tipo_lugar":"neighbourhood"},"geometry":{"type":"Point","coordinates":[-84.2907693,9.7881266]}},{"type":"Feature","properties":{"nome":"San Isidro","osm_id":11380669056,"osm_tipo":"node","tipo_lugar":"neighbourhood"},"geometry":{"type":"Point","coordinates":[-84.3212187,9.8410741]}},{"type":"Feature","properties":{"nome":"Barrio Suboficiales de Carabineros","osm_id":12140566368,"osm_tipo":"node","tipo_lugar":"neighbourhood"},"geometry":{"type":"Point","coordinates":[-70.6710247,-33.4290215]}},{"type":"Feature","properties":{"nome":"Barrio Judicial","osm_id":12784910962,"osm_tipo":"node","tipo_lugar":"neighbourhood"},"geometry":{"type":"Point","coordinates":[-70.6581808,-33.4751576]}},{"type":"Feature","properties":{"nome":"Barrio Mapocho","osm_id":12825024914,"osm_tipo":"node","tipo_lugar":"neighbourhood"},"geometry":{"type":"Point","coordinates":[-70.6507343,-33.432996]}},{"type":"Feature","properties":{"nome":"Alcácer do Sal (Santiago)","osm_id":13302595089,"osm_tipo":"node","tipo_lugar":"suburb"},"geometry":{"type":"Point","coordinates":[-8.5079501,38.371587]}},{"type":"Feature","properties":{"nome":"Barrio Yungay","osm_id":13695438694,"osm_tipo":"node","tipo_lugar":"neighbourhood"},"geometry":{"type":"Point","coordinates":[-70.6717283,-33.4429349]}},{"type":"Feature","properties":{"nome":"Población Madrid","osm_id":13702879164,"osm_tipo":"node","tipo_lugar":"neighbourhood"},"geometry":{"type":"Point","coordinates":[-70.6354941,-33.4548898]}},{"type":"Feature","properties":{"nome":"Conjunto residencial calle Serrano","osm_id":13703452109,"osm_tipo":"node","tipo_lugar":"neighbourhood"},"geometry":{"type":"Point","coordinates":[-70.6469635,-33.456335]}},{"type":"Feature","properties":{"nome":"Bairro dos Pescadores","osm_id":167174980,"osm_tipo":"way","tipo_lugar":"neighbourhood"},"geometry":{"type":"Polygon","coordinates":[[[-9.0970429,38.4441537],[-9.0966305,38.444706],[-9.0961709,38.4442888],[-9.0970429,38.4441537]]]}},{"type":"Feature","properties":{"nome":"Las Barreras","osm_id":382328333,"osm_tipo":"way","tipo_lugar":"suburb"},"geometry":{"type":"Polygon","coordinates":[[[-80.9940353,8.1057081],[-80.9963045,8.1018529],[-80.996766,8.1033677],[-80.9993541,8.102643],[-80.9988425,8.1053874],[-81.0071851,8.1032474],[-81.0041128,8.1083448],[-81.002352,8.1060126],[-81.0016563,8.1081448],[-80.9964076,8.1084361],[-80.9962213,8.1064243],[-80.9940353,8.1057081]]]}},{"type":"Feature","properties":{"nome":"Los Chorros","osm_id":396480850,"osm_tipo":"way","tipo_lugar":"neighbourhood"},"geometry":{"type":"Polygon","coordinates":[[[-80.9936778,8.1072415],[-80.9916822,8.1072096],[-80.9917037,8.1058925],[-80.9900557,8.1082599],[-80.986682,8.107707],[-80.9917144,8.1026529],[-80.9948301,8.1037455],[-80.9936778,8.1072415]]]}},{"type":"Feature","properties":{"nome":"Santa Clara","osm_id":396488108,"osm_tipo":"way","tipo_lugar":"neighbourhood"},"geometry":{"type":"Polygon","coordinates":[[[-80.9799064,8.0713844],[-80.9782113,8.0693236],[-80.9776497,8.0627033],[-80.9735137,8.0606677],[-80.9746993,8.0581673],[-80.9788513,8.0628414],[-80.9793592,8.0681763],[-80.9813656,8.0694192],[-80.9799064,8.0713844]]]}},{"type":"Feature","properties":{"nome":"Martincito","osm_id":396542445,"osm_tipo":"way","tipo_lugar":"neighbourhood"},"geometry":{"type":"Polygon","coordinates":[[[-80.9756572,8.0801523],[-80.9722239,8.0783943],[-80.9722722,8.0768115],[-80.9756572,8.0801523]]]}},{"type":"Feature","properties":{"nome":"Altos de Martincito","osm_id":396542450,"osm_tipo":"way","tipo_lugar":"neighbourhood"},"geometry":{"type":"Polygon","coordinates":[[[-80.9685252,8.0715738],[-80.9598751,8.0671163],[-80.9636972,8.0656145],[-80.9650276,8.0684349],[-80.9666906,8.0665918],[-80.9644966,8.0665838],[-80.9661591,8.0650987],[-80.9682355,8.0676328],[-80.9661649,8.0682914],[-80.9685252,8.0715738]]]}},{"type":"Feature","properties":{"nome":"Pamplona","osm_id":396578145,"osm_tipo":"way","tipo_lugar":"neighbourhood"},"geometry":{"type":"Polygon","coordinates":[[[-80.9789148,8.0779541],[-80.9773309,8.0774323],[-80.9790971,8.0735896],[-80.9789148,8.0779541]]]}},{"type":"Feature","properties":{"nome":"Barriada Brisamar","osm_id":545020802,"osm_tipo":"way","tipo_lugar":"neighbourhood"},"geometry":{"type":"Polygon","coordinates":[[[-80.9528066,8.0853726],[-80.948199,8.0882715],[-80.9475212,8.0833952],[-80.9501454,8.0832087],[-80.9528066,8.0853726]]]}},{"type":"Feature","properties":{"nome":"La Florecita Abajo","osm_id":552012940,"osm_tipo":"way","tipo_lugar":"neighbourhood"},"geometry":{"type":"Polygon","coordinates":[[[-80.9510712,8.0786949],[-80.9498805,8.0767934],[-80.9508215,8.0763941],[-80.9510712,8.0786949]]]}},{"type":"Feature","properties":{"nome":"Barriada La Hilda","osm_id":796535900,"osm_tipo":"way","tipo_lugar":"neighbourhood"},"geometry":{"type":"Polygon","coordinates":[[[-80.9726164,8.1066322],[-80.9746066,8.1060374],[-80.9726674,8.1077661],[-80.9726164,8.1066322]]]}},{"type":"Feature","properties":{"nome":"Valle de Barbarena","osm_id":876350039,"osm_tipo":"way","tipo_lugar":"neighbourhood"},"geometry":{"type":"Polygon","coordinates":[[[-80.9623852,8.0901855],[-80.9604768,8.0891571],[-80.962456,8.0886423],[-80.9623852,8.0901855]]]}},{"type":"Feature","properties":{"nome":"Gaspar Dutra","osm_id":977060426,"osm_tipo":"way","tipo_lugar":"suburb"},"geometry":{"type":"Polygon","coordinates":[[[-54.8508305,-29.176794],[-54.8543752,-29.1808634],[-54.8625482,-29.1749153],[-54.8591012,-29.1709765],[-54.8508305,-29.176794]]]}},{"type":"Feature","properties":{"nome":"Barriada Don Bosco","osm_id":8903314,"osm_tipo":"relation","tipo_lugar":"neighbourhood"},"geometry":{"type":"MultiPolygon","coordinates":[[[[-80.9723063,8.0986624],[-80.9730755,8.0980735],[-80.9746156,8.0976091],[-80.9723063,8.0986624]]],[[[-80.9723063,8.0986624],[-80.9716786,8.0990677],[-80.9707559,8.0994142],[-80.9723063,8.0986624]]],[[[-80.9665394,8.1000968],[-80.9679091,8.1001241],[-80.9707559,8.0994142],[-80.9665394,8.1000968]]],[[[-80.9677081,8.1008171],[-80.9670378,8.100353],[-80.9665394,8.1000968],[-80.9677081,8.1008171]]],[[[-80.9746455,8.1024153],[-80.9738263,8.1008254],[-80.9686173,8.1005786],[-80.9746455,8.1024153]]],[[[-80.9746156,8.0976091],[-80.9748345,8.098271],[-80.9767825,8.0979332],[-80.9746156,8.0976091]]]]}}]}