{"type":"FeatureCollection","features":[{"type":"Feature","properties":{"nome":"Canções","osm_id":4850423748,"osm_tipo":"node","tipo_lugar":"neighbourhood"},"geometry":{"type":"Point","coordinates":[-51.600895,-27.7775821]}},{"type":"Feature","properties":{"nome":"Altos da Esperança","osm_id":4850423749,"osm_tipo":"node","tipo_lugar":"neighbourhood"},"geometry":{"type":"Point","coordinates":[-51.6002084,-27.7689246]}},{"type":"Feature","properties":{"nome":"São Francisco","osm_id":4850423750,"osm_tipo":"node","tipo_lugar":"neighbourhood"},"geometry":{"type":"Point","coordinates":[-51.5869046,-27.772608]}},{"type":"Feature","properties":{"nome":"Braço","osm_id":4850423751,"osm_tipo":"node","tipo_lugar":"neighbourhood"},"geometry":{"type":"Point","coordinates":[-51.5896511,-27.7672918]}},{"type":"Feature","properties":{"nome":"Planalto","osm_id":4850423752,"osm_tipo":"node","tipo_lugar":"neighbourhood"},"geometry":{"type":"Point","coordinates":[-51.589737,-27.7755318]}},{"type":"Feature","properties":{"nome":"Operário","osm_id":4850423753,"osm_tipo":"node","tipo_lugar":"neighbourhood"},"geometry":{"type":"Point","coordinates":[-51.5915394,-27.7780758]}},{"type":"Feature","properties":{"nome":"Nossa Senhora da Saúde","osm_id":4850423754,"osm_tipo":"node","tipo_lugar":"neighbourhood"},"geometry":{"type":"Point","coordinates":[-51.6097356,-27.7759114]}},{"type":"Feature","properties":{"nome":"Centro","osm_id":4850423755,"osm_tipo":"node","tipo_lugar":"neighbourhood"},"geometry":{"type":"Point","coordinates":[-51.5963674,-27.773206]}}]}