{"type":"FeatureCollection","features":[{"type":"Feature","properties":{"nome":"Polo","osm_id":5312991316,"osm_tipo":"node","tipo_lugar":"suburb"},"geometry":{"type":"Point","coordinates":[-51.0613642,-28.9784702]}},{"type":"Feature","properties":{"nome":"Santini","osm_id":5312991317,"osm_tipo":"node","tipo_lugar":"suburb"},"geometry":{"type":"Point","coordinates":[-51.075038,-28.981433]}},{"type":"Feature","properties":{"nome":"Henrique Pante","osm_id":5312991318,"osm_tipo":"node","tipo_lugar":"suburb"},"geometry":{"type":"Point","coordinates":[-51.0604547,-28.9733422]}},{"type":"Feature","properties":{"nome":"Michelon","osm_id":5312991319,"osm_tipo":"node","tipo_lugar":"suburb"},"geometry":{"type":"Point","coordinates":[-51.0776787,-28.9486354]}},{"type":"Feature","properties":{"nome":"Bela Vista","osm_id":5312991320,"osm_tipo":"node","tipo_lugar":"suburb"},"geometry":{"type":"Point","coordinates":[-51.0932387,-28.9397953]}},{"type":"Feature","properties":{"nome":"São José","osm_id":5312991321,"osm_tipo":"node","tipo_lugar":"suburb"},"geometry":{"type":"Point","coordinates":[-51.0444763,-28.9648442]}},{"type":"Feature","properties":{"nome":"Industrial","osm_id":5312991322,"osm_tipo":"node","tipo_lugar":"suburb"},"geometry":{"type":"Point","coordinates":[-51.0757341,-28.9579587]}},{"type":"Feature","properties":{"nome":"Francisco Doncatto","osm_id":5312991323,"osm_tipo":"node","tipo_lugar":"suburb"},"geometry":{"type":"Point","coordinates":[-51.0791954,-28.9753095]}},{"type":"Feature","properties":{"nome":"Centro","osm_id":6113873227,"osm_tipo":"node","tipo_lugar":"suburb"},"geometry":{"type":"Point","coordinates":[-51.0671975,-28.9675854]}},{"type":"Feature","properties":{"nome":"Progresso","osm_id":8146895515,"osm_tipo":"node","tipo_lugar":"suburb"},"geometry":{"type":"Point","coordinates":[-51.0869387,-28.961477]}},{"type":"Feature","properties":{"nome":"Santo Antônio","osm_id":8147046357,"osm_tipo":"node","tipo_lugar":"suburb"},"geometry":{"type":"Point","coordinates":[-51.0811998,-28.9686086]}}]}