{"type":"FeatureCollection","features":[{"type":"Feature","properties":{"nome":"Progresso","osm_id":5312991931,"osm_tipo":"node","tipo_lugar":"suburb"},"geometry":{"type":"Point","coordinates":[-54.1742129,-29.6251521]}},{"type":"Feature","properties":{"nome":"Santa Luzia","osm_id":5312991932,"osm_tipo":"node","tipo_lugar":"suburb"},"geometry":{"type":"Point","coordinates":[-54.168423,-29.6100914]}},{"type":"Feature","properties":{"nome":"Nova Alemanha","osm_id":5312991933,"osm_tipo":"node","tipo_lugar":"suburb"},"geometry":{"type":"Point","coordinates":[-54.189547,-29.6149516]}},{"type":"Feature","properties":{"nome":"Linhares","osm_id":5312991934,"osm_tipo":"node","tipo_lugar":"suburb"},"geometry":{"type":"Point","coordinates":[-54.1663024,-29.6214685]}},{"type":"Feature","properties":{"nome":"Maturino de Oliveira Bello","osm_id":5312991935,"osm_tipo":"node","tipo_lugar":"suburb"},"geometry":{"type":"Point","coordinates":[-54.1878342,-29.6217485]}},{"type":"Feature","properties":{"nome":"Schmidt","osm_id":5312991936,"osm_tipo":"node","tipo_lugar":"suburb"},"geometry":{"type":"Point","coordinates":[-54.179853,-29.6121547]}},{"type":"Feature","properties":{"nome":"Trevo","osm_id":5312991937,"osm_tipo":"node","tipo_lugar":"suburb"},"geometry":{"type":"Point","coordinates":[-54.1894446,-29.6400578]}},{"type":"Feature","properties":{"nome":"Santo Antônio","osm_id":5312991938,"osm_tipo":"node","tipo_lugar":"suburb"},"geometry":{"type":"Point","coordinates":[-54.1785217,-29.6331871]}},{"type":"Feature","properties":{"nome":"Oliveira","osm_id":5312991939,"osm_tipo":"node","tipo_lugar":"suburb"},"geometry":{"type":"Point","coordinates":[-54.1866979,-29.6190652]}},{"type":"Feature","properties":{"nome":"Riveira","osm_id":5312991940,"osm_tipo":"node","tipo_lugar":"suburb"},"geometry":{"type":"Point","coordinates":[-54.1864908,-29.6320577]}},{"type":"Feature","properties":{"nome":"Gaúcha","osm_id":5312991941,"osm_tipo":"node","tipo_lugar":"suburb"},"geometry":{"type":"Point","coordinates":[-54.1959786,-29.6207042]}},{"type":"Feature","properties":{"nome":"Canto Verde","osm_id":5312991942,"osm_tipo":"node","tipo_lugar":"suburb"},"geometry":{"type":"Point","coordinates":[-54.1833821,-29.622902]}},{"type":"Feature","properties":{"nome":"Cohab Loteamento Recanto","osm_id":5485670702,"osm_tipo":"node","tipo_lugar":"neighbourhood"},"geometry":{"type":"Point","coordinates":[-54.1876347,-29.6112282]}}]}