{"type":"FeatureCollection","features":[{"type":"Feature","properties":{"nome":"Itachere","osm_id":5312993029,"osm_tipo":"node","tipo_lugar":"suburb"},"geometry":{"type":"Point","coordinates":[-56.0089449,-28.6382197]}},{"type":"Feature","properties":{"nome":"Passo","osm_id":5312993030,"osm_tipo":"node","tipo_lugar":"suburb"},"geometry":{"type":"Point","coordinates":[-56.0302794,-28.6275079]}},{"type":"Feature","properties":{"nome":"Bairro José Pareira Alvarez","osm_id":5312993031,"osm_tipo":"node","tipo_lugar":"suburb"},"geometry":{"type":"Point","coordinates":[-56.0196348,-28.6544045]}},{"type":"Feature","properties":{"nome":"Centro","osm_id":5312993032,"osm_tipo":"node","tipo_lugar":"suburb"},"geometry":{"type":"Point","coordinates":[-56.0058023,-28.6601185]}},{"type":"Feature","properties":{"nome":"Doutor Florêncio Aquino Guimarães","osm_id":5312993033,"osm_tipo":"node","tipo_lugar":"suburb"},"geometry":{"type":"Point","coordinates":[-56.0120436,-28.6670371]}},{"type":"Feature","properties":{"nome":"Bettin","osm_id":5312993034,"osm_tipo":"node","tipo_lugar":"suburb"},"geometry":{"type":"Point","coordinates":[-55.9949805,-28.6684101]}},{"type":"Feature","properties":{"nome":"Paraboi","osm_id":5312993035,"osm_tipo":"node","tipo_lugar":"suburb"},"geometry":{"type":"Point","coordinates":[-56.0048875,-28.6709376]}},{"type":"Feature","properties":{"nome":"Maria do Carmo","osm_id":5312993036,"osm_tipo":"node","tipo_lugar":"suburb"},"geometry":{"type":"Point","coordinates":[-56.0149074,-28.6579996]}},{"type":"Feature","properties":{"nome":"Pirahy","osm_id":5312993037,"osm_tipo":"node","tipo_lugar":"suburb"},"geometry":{"type":"Point","coordinates":[-55.9935371,-28.6609817]}},{"type":"Feature","properties":{"nome":"Tiro","osm_id":5312993038,"osm_tipo":"node","tipo_lugar":"suburb"},"geometry":{"type":"Point","coordinates":[-55.9965609,-28.6492677]}}]}