{"type":"FeatureCollection","features":[{"type":"Feature","properties":{"nome":"América","osm_id":4933464120,"osm_tipo":"node","tipo_lugar":"neighbourhood"},"geometry":{"type":"Point","coordinates":[-52.8756524,-28.61685]}},{"type":"Feature","properties":{"nome":"Oito de Maio","osm_id":4933464121,"osm_tipo":"node","tipo_lugar":"neighbourhood"},"geometry":{"type":"Point","coordinates":[-52.8667796,-28.6236497]}},{"type":"Feature","properties":{"nome":"Progresso","osm_id":4933464122,"osm_tipo":"node","tipo_lugar":"neighbourhood"},"geometry":{"type":"Point","coordinates":[-52.8711785,-28.6360614]}},{"type":"Feature","properties":{"nome":"Vila Brasília","osm_id":4933464123,"osm_tipo":"node","tipo_lugar":"neighbourhood"},"geometry":{"type":"Point","coordinates":[-52.8550335,-28.6269817]}},{"type":"Feature","properties":{"nome":"Seminário","osm_id":4933464124,"osm_tipo":"node","tipo_lugar":"neighbourhood"},"geometry":{"type":"Point","coordinates":[-52.8625096,-28.6343664]}},{"type":"Feature","properties":{"nome":"Vila Cohab","osm_id":4933464125,"osm_tipo":"node","tipo_lugar":"neighbourhood"},"geometry":{"type":"Point","coordinates":[-52.8574456,-28.6300347]}},{"type":"Feature","properties":{"nome":"Vila Promorar","osm_id":4933464126,"osm_tipo":"node","tipo_lugar":"neighbourhood"},"geometry":{"type":"Point","coordinates":[-52.85015,-28.6296203]}},{"type":"Feature","properties":{"nome":"Centro","osm_id":4933464127,"osm_tipo":"node","tipo_lugar":"neighbourhood"},"geometry":{"type":"Point","coordinates":[-52.8691185,-28.6267951]}},{"type":"Feature","properties":{"nome":"Vila Elisa Trevisan","osm_id":4933464128,"osm_tipo":"node","tipo_lugar":"neighbourhood"},"geometry":{"type":"Point","coordinates":[-52.8784741,-28.6222747]}},{"type":"Feature","properties":{"nome":"Azul","osm_id":4933464129,"osm_tipo":"node","tipo_lugar":"neighbourhood"},"geometry":{"type":"Point","coordinates":[-52.8678311,-28.6174527]}},{"type":"Feature","properties":{"nome":"Pompéia","osm_id":4933464130,"osm_tipo":"node","tipo_lugar":"neighbourhood"},"geometry":{"type":"Point","coordinates":[-52.8747834,-28.6275956]}},{"type":"Feature","properties":{"nome":"Vila São Judas Tadeu","osm_id":4933464131,"osm_tipo":"node","tipo_lugar":"neighbourhood"},"geometry":{"type":"Point","coordinates":[-52.8639794,-28.6226891]}},{"type":"Feature","properties":{"nome":"Esquina da Sorte","osm_id":9078273661,"osm_tipo":"node","tipo_lugar":"neighbourhood"},"geometry":{"type":"Point","coordinates":[-52.7794428,-28.6426632]}},{"type":"Feature","properties":{"nome":"Linha Cel. Gervásio","osm_id":9078273662,"osm_tipo":"node","tipo_lugar":"neighbourhood"},"geometry":{"type":"Point","coordinates":[-52.8184425,-28.6419807]}}]}