{"type":"FeatureCollection","features":[{"type":"Feature","properties":{"nome":"São Tomé","osm_id":3657658355,"osm_tipo":"node","tipo_lugar":"suburb"},"geometry":{"type":"Point","coordinates":[-50.7384418,-29.6672565]}},{"type":"Feature","properties":{"nome":"Três Pinheiros","osm_id":3657658357,"osm_tipo":"node","tipo_lugar":"neighbourhood"},"geometry":{"type":"Point","coordinates":[-50.7164372,-29.7411009]}},{"type":"Feature","properties":{"nome":"Morro do Leôncio","osm_id":5276525206,"osm_tipo":"node","tipo_lugar":"suburb"},"geometry":{"type":"Point","coordinates":[-50.7813637,-29.6562401]}},{"type":"Feature","properties":{"nome":"Sagrada Família","osm_id":5276525207,"osm_tipo":"node","tipo_lugar":"suburb"},"geometry":{"type":"Point","coordinates":[-50.7801448,-29.6432547]}},{"type":"Feature","properties":{"nome":"Morro da Cruz","osm_id":5276525208,"osm_tipo":"node","tipo_lugar":"suburb"},"geometry":{"type":"Point","coordinates":[-50.7777899,-29.6385487]}},{"type":"Feature","properties":{"nome":"Santa Rosa","osm_id":5276525209,"osm_tipo":"node","tipo_lugar":"suburb"},"geometry":{"type":"Point","coordinates":[-50.7730285,-29.6424629]}},{"type":"Feature","properties":{"nome":"Nossa Senhora de Fátima","osm_id":5276525211,"osm_tipo":"node","tipo_lugar":"suburb"},"geometry":{"type":"Point","coordinates":[-50.7889456,-29.6435386]}},{"type":"Feature","properties":{"nome":"Fogão Gaúcho","osm_id":5276525212,"osm_tipo":"node","tipo_lugar":"suburb"},"geometry":{"type":"Point","coordinates":[-50.790527,-29.6395348]}},{"type":"Feature","properties":{"nome":"Eldorado","osm_id":5276525213,"osm_tipo":"node","tipo_lugar":"suburb"},"geometry":{"type":"Point","coordinates":[-50.7965776,-29.6313025]}},{"type":"Feature","properties":{"nome":"Jardim do Prado","osm_id":5276525214,"osm_tipo":"node","tipo_lugar":"suburb"},"geometry":{"type":"Point","coordinates":[-50.7899082,-29.6486627]}},{"type":"Feature","properties":{"nome":"Recreio","osm_id":5276525215,"osm_tipo":"node","tipo_lugar":"suburb"},"geometry":{"type":"Point","coordinates":[-50.790888,-29.6548321]}},{"type":"Feature","properties":{"nome":"Cruzeiro do Sul","osm_id":5276525216,"osm_tipo":"node","tipo_lugar":"suburb"},"geometry":{"type":"Point","coordinates":[-50.7878283,-29.665512]}},{"type":"Feature","properties":{"nome":"Empresa","osm_id":5276525217,"osm_tipo":"node","tipo_lugar":"suburb"},"geometry":{"type":"Point","coordinates":[-50.7778759,-29.6694999]}},{"type":"Feature","properties":{"nome":"Santa Terezinha","osm_id":5276525218,"osm_tipo":"node","tipo_lugar":"suburb"},"geometry":{"type":"Point","coordinates":[-50.7740083,-29.6595523]}},{"type":"Feature","properties":{"nome":"Petrópolis","osm_id":5276525219,"osm_tipo":"node","tipo_lugar":"suburb"},"geometry":{"type":"Point","coordinates":[-50.7725988,-29.6519192]}},{"type":"Feature","properties":{"nome":"Tucanos","osm_id":5276525220,"osm_tipo":"node","tipo_lugar":"suburb"},"geometry":{"type":"Point","coordinates":[-50.7633511,-29.6516952]}},{"type":"Feature","properties":{"nome":"Mundo Novo","osm_id":5276526121,"osm_tipo":"node","tipo_lugar":"suburb"},"geometry":{"type":"Point","coordinates":[-50.7623885,-29.6565051]}},{"type":"Feature","properties":{"nome":"Medianeira","osm_id":5276526122,"osm_tipo":"node","tipo_lugar":"suburb"},"geometry":{"type":"Point","coordinates":[-50.7640214,-29.6625397]}},{"type":"Feature","properties":{"nome":"Santa Maria","osm_id":5276526123,"osm_tipo":"node","tipo_lugar":"suburb"},"geometry":{"type":"Point","coordinates":[-50.7998091,-29.6387728]}},{"type":"Feature","properties":{"nome":"Picada Francesa","osm_id":5312990978,"osm_tipo":"node","tipo_lugar":"suburb"},"geometry":{"type":"Point","coordinates":[-50.7921246,-29.6229626]}},{"type":"Feature","properties":{"nome":"Ronda","osm_id":5312990990,"osm_tipo":"node","tipo_lugar":"suburb"},"geometry":{"type":"Point","coordinates":[-50.7972201,-29.6552759]}},{"type":"Feature","properties":{"nome":"Ideal","osm_id":5312990994,"osm_tipo":"node","tipo_lugar":"suburb"},"geometry":{"type":"Point","coordinates":[-50.7637221,-29.6730025]}},{"type":"Feature","properties":{"nome":"Centro","osm_id":5312990995,"osm_tipo":"node","tipo_lugar":"suburb"},"geometry":{"type":"Point","coordinates":[-50.7810408,-29.6485409]}},{"type":"Feature","properties":{"nome":"Km 4","osm_id":5312990996,"osm_tipo":"node","tipo_lugar":"suburb"},"geometry":{"type":"Point","coordinates":[-50.7743213,-29.6236149]}},{"type":"Feature","properties":{"nome":"Condomínio Emirados","osm_id":15638207,"osm_tipo":"relation","tipo_lugar":"neighbourhood"},"geometry":{"type":"Polygon","coordinates":[[[-50.7824662,-29.6583287],[-50.7841383,-29.6584608],[-50.7831223,-29.6595634],[-50.7824662,-29.6583287]]]}},{"type":"Feature","properties":{"nome":"Condomínio Jardim Europa","osm_id":15638209,"osm_tipo":"relation","tipo_lugar":"neighbourhood"},"geometry":{"type":"Polygon","coordinates":[[[-50.7801062,-29.6526405],[-50.7806324,-29.6559414],[-50.7794183,-29.6542625],[-50.7801062,-29.6526405]]]}},{"type":"Feature","properties":{"nome":"Loteamento Colina","osm_id":15712925,"osm_tipo":"relation","tipo_lugar":"neighbourhood"},"geometry":{"type":"Polygon","coordinates":[[[-50.6755483,-29.5577322],[-50.6726324,-29.5591491],[-50.6723591,-29.557714],[-50.6755483,-29.5577322]]]}},{"type":"Feature","properties":{"nome":"Condomínio Dom Quixote","osm_id":18336485,"osm_tipo":"relation","tipo_lugar":"neighbourhood"},"geometry":{"type":"MultiPolygon","coordinates":[[[[-50.8676729,-29.7533287],[-50.8676936,-29.7531721],[-50.8675991,-29.7531808],[-50.8676729,-29.7533287]]],[[[-50.8675991,-29.7531808],[-50.868609,-29.7491301],[-50.870347,-29.7485852],[-50.8702397,-29.7541647],[-50.8675991,-29.7531808]]]]}}]}