{"type":"FeatureCollection","features":[{"type":"Feature","properties":{"nome":"Cocão","osm_id":416647006,"osm_tipo":"node","tipo_lugar":"suburb"},"geometry":{"type":"Point","coordinates":[-51.046539,-30.0530623]}},{"type":"Feature","properties":{"nome":"Viamópolis","osm_id":416647007,"osm_tipo":"node","tipo_lugar":"suburb"},"geometry":{"type":"Point","coordinates":[-51.0823673,-30.0943268]}},{"type":"Feature","properties":{"nome":"Passo do Sabão","osm_id":416647008,"osm_tipo":"node","tipo_lugar":"suburb"},"geometry":{"type":"Point","coordinates":[-51.1033985,-30.0634812]}},{"type":"Feature","properties":{"nome":"Passo do Vigário","osm_id":416766947,"osm_tipo":"node","tipo_lugar":"suburb"},"geometry":{"type":"Point","coordinates":[-50.9761555,-30.0920863]}},{"type":"Feature","properties":{"nome":"Lomba do Tarumã","osm_id":1590223527,"osm_tipo":"node","tipo_lugar":"neighbourhood"},"geometry":{"type":"Point","coordinates":[-51.0141882,-30.0781668]}},{"type":"Feature","properties":{"nome":"Santa Isabel","osm_id":1601634503,"osm_tipo":"node","tipo_lugar":"suburb"},"geometry":{"type":"Point","coordinates":[-51.1095431,-30.0654603]}},{"type":"Feature","properties":{"nome":"Jardim Outeiral","osm_id":2438494569,"osm_tipo":"node","tipo_lugar":"neighbourhood"},"geometry":{"type":"Point","coordinates":[-51.0937516,-30.1329195]}},{"type":"Feature","properties":{"nome":"Condomínio Maria Helena","osm_id":2511108251,"osm_tipo":"node","tipo_lugar":"neighbourhood"},"geometry":{"type":"Point","coordinates":[-50.9970815,-30.0963736]}},{"type":"Feature","properties":{"nome":"Condado de Valença","osm_id":2511112138,"osm_tipo":"node","tipo_lugar":"neighbourhood"},"geometry":{"type":"Point","coordinates":[-51.0147844,-30.0867087]}},{"type":"Feature","properties":{"nome":"Condado de Bragança","osm_id":2511112139,"osm_tipo":"node","tipo_lugar":"neighbourhood"},"geometry":{"type":"Point","coordinates":[-51.0145682,-30.0907003]}},{"type":"Feature","properties":{"nome":"Área Popular Kwait","osm_id":2511112140,"osm_tipo":"node","tipo_lugar":"neighbourhood"},"geometry":{"type":"Point","coordinates":[-51.0131507,-30.0888467]}},{"type":"Feature","properties":{"nome":"Jardim Estalagem","osm_id":2511112141,"osm_tipo":"node","tipo_lugar":"neighbourhood"},"geometry":{"type":"Point","coordinates":[-51.0024452,-30.0811347]}},{"type":"Feature","properties":{"nome":"Loteamentro Eldorado","osm_id":2511112142,"osm_tipo":"node","tipo_lugar":"neighbourhood"},"geometry":{"type":"Point","coordinates":[-50.9596517,-30.1062794]}},{"type":"Feature","properties":{"nome":"Fiúza","osm_id":2512326521,"osm_tipo":"node","tipo_lugar":"suburb"},"geometry":{"type":"Point","coordinates":[-51.0163331,-30.1000646]}},{"type":"Feature","properties":{"nome":"Lisboa","osm_id":2512373826,"osm_tipo":"node","tipo_lugar":"neighbourhood"},"geometry":{"type":"Point","coordinates":[-51.0497293,-30.0853609]}},{"type":"Feature","properties":{"nome":"Krahe","osm_id":2512373828,"osm_tipo":"node","tipo_lugar":"suburb"},"geometry":{"type":"Point","coordinates":[-51.04006,-30.0908908]}},{"type":"Feature","properties":{"nome":"Sítio São José","osm_id":2512373830,"osm_tipo":"node","tipo_lugar":"neighbourhood"},"geometry":{"type":"Point","coordinates":[-51.0273333,-30.0899407]}},{"type":"Feature","properties":{"nome":"Promorar","osm_id":2512373832,"osm_tipo":"node","tipo_lugar":"neighbourhood"},"geometry":{"type":"Point","coordinates":[-51.0329086,-30.0923615]}},{"type":"Feature","properties":{"nome":"Recanto Residencial da Figueira","osm_id":2512373834,"osm_tipo":"node","tipo_lugar":"neighbourhood"},"geometry":{"type":"Point","coordinates":[-51.049032,-30.0962319]}},{"type":"Feature","properties":{"nome":"Colorado","osm_id":2517017795,"osm_tipo":"node","tipo_lugar":"neighbourhood"},"geometry":{"type":"Point","coordinates":[-51.0136108,-30.0827308]}},{"type":"Feature","properties":{"nome":"Cinturão Azul","osm_id":2517017796,"osm_tipo":"node","tipo_lugar":"neighbourhood"},"geometry":{"type":"Point","coordinates":[-51.0244001,-30.0994834]}},{"type":"Feature","properties":{"nome":"Sítio São Vicente","osm_id":2517017797,"osm_tipo":"node","tipo_lugar":"neighbourhood"},"geometry":{"type":"Point","coordinates":[-51.0288691,-30.1107693]}},{"type":"Feature","properties":{"nome":"Dom Feliciano","osm_id":2517017798,"osm_tipo":"node","tipo_lugar":"neighbourhood"},"geometry":{"type":"Point","coordinates":[-51.0218004,-30.0843556]}},{"type":"Feature","properties":{"nome":"Center Park","osm_id":2517017799,"osm_tipo":"node","tipo_lugar":"neighbourhood"},"geometry":{"type":"Point","coordinates":[-51.0201859,-30.0820455]}},{"type":"Feature","properties":{"nome":"Jardim do Castelo","osm_id":2517017800,"osm_tipo":"node","tipo_lugar":"neighbourhood"},"geometry":{"type":"Point","coordinates":[-51.0582831,-30.062745]}},{"type":"Feature","properties":{"nome":"Condado de Castela","osm_id":2517017803,"osm_tipo":"node","tipo_lugar":"neighbourhood"},"geometry":{"type":"Point","coordinates":[-51.0097784,-30.0499045]}},{"type":"Feature","properties":{"nome":"Elsa","osm_id":2517017804,"osm_tipo":"node","tipo_lugar":"suburb"},"geometry":{"type":"Point","coordinates":[-51.026292,-30.0149656]}},{"type":"Feature","properties":{"nome":"Vila Helenita","osm_id":2517017805,"osm_tipo":"node","tipo_lugar":"suburb"},"geometry":{"type":"Point","coordinates":[-51.0331685,-30.0066094]}},{"type":"Feature","properties":{"nome":"Vida Nova","osm_id":2517024712,"osm_tipo":"node","tipo_lugar":"suburb"},"geometry":{"type":"Point","coordinates":[-51.024205,-30.0061355]}},{"type":"Feature","properties":{"nome":"Cecília","osm_id":2744122551,"osm_tipo":"node","tipo_lugar":"suburb"},"geometry":{"type":"Point","coordinates":[-51.0915093,-30.0658384]}},{"type":"Feature","properties":{"nome":"Passo do Varejão","osm_id":3451288408,"osm_tipo":"node","tipo_lugar":"suburb"},"geometry":{"type":"Point","coordinates":[-51.0426604,-30.2307366]}},{"type":"Feature","properties":{"nome":"São Lucas","osm_id":3570730993,"osm_tipo":"node","tipo_lugar":"suburb"},"geometry":{"type":"Point","coordinates":[-51.0652113,-30.0783272]}},{"type":"Feature","properties":{"nome":"Orieta","osm_id":3570730994,"osm_tipo":"node","tipo_lugar":"neighbourhood"},"geometry":{"type":"Point","coordinates":[-51.0638359,-30.0949382]}},{"type":"Feature","properties":{"nome":"Jaguaribe","osm_id":3570730995,"osm_tipo":"node","tipo_lugar":"neighbourhood"},"geometry":{"type":"Point","coordinates":[-51.0519386,-30.1015334]}},{"type":"Feature","properties":{"nome":"Florescente","osm_id":3570730996,"osm_tipo":"node","tipo_lugar":"neighbourhood"},"geometry":{"type":"Point","coordinates":[-51.0655003,-30.1090796]}},{"type":"Feature","properties":{"nome":"Vila Reforma","osm_id":3618510731,"osm_tipo":"node","tipo_lugar":"suburb"},"geometry":{"type":"Point","coordinates":[-50.9928714,-30.347063]}},{"type":"Feature","properties":{"nome":"Parque Residencial Araçá","osm_id":3622776638,"osm_tipo":"node","tipo_lugar":"neighbourhood"},"geometry":{"type":"Point","coordinates":[-51.0921673,-30.1307637]}},{"type":"Feature","properties":{"nome":"Arbon","osm_id":3622776639,"osm_tipo":"node","tipo_lugar":"neighbourhood"},"geometry":{"type":"Point","coordinates":[-51.0779895,-30.0657959]}},{"type":"Feature","properties":{"nome":"Augusta Fiel","osm_id":3622776640,"osm_tipo":"node","tipo_lugar":"neighbourhood"},"geometry":{"type":"Point","coordinates":[-51.0755485,-30.0596626]}},{"type":"Feature","properties":{"nome":"Augusta Marina","osm_id":3622776641,"osm_tipo":"node","tipo_lugar":"neighbourhood"},"geometry":{"type":"Point","coordinates":[-51.0855064,-30.062082]}},{"type":"Feature","properties":{"nome":"Augusta Meneghini","osm_id":3622776642,"osm_tipo":"node","tipo_lugar":"neighbourhood"},"geometry":{"type":"Point","coordinates":[-51.0821831,-30.0529841]}},{"type":"Feature","properties":{"nome":"Bernadete","osm_id":3622776643,"osm_tipo":"node","tipo_lugar":"neighbourhood"},"geometry":{"type":"Point","coordinates":[-51.0716018,-30.1030507]}},{"type":"Feature","properties":{"nome":"Boa Vista","osm_id":3622776644,"osm_tipo":"node","tipo_lugar":"neighbourhood"},"geometry":{"type":"Point","coordinates":[-51.0626326,-30.0515169]}},{"type":"Feature","properties":{"nome":"Bonanza","osm_id":3622776645,"osm_tipo":"node","tipo_lugar":"neighbourhood"},"geometry":{"type":"Point","coordinates":[-51.08491,-30.0689632]}},{"type":"Feature","properties":{"nome":"COHAB","osm_id":3622776646,"osm_tipo":"node","tipo_lugar":"neighbourhood"},"geometry":{"type":"Point","coordinates":[-51.0414422,-30.0809498]}},{"type":"Feature","properties":{"nome":"Campus da Colina","osm_id":3622776647,"osm_tipo":"node","tipo_lugar":"neighbourhood"},"geometry":{"type":"Point","coordinates":[-51.1135604,-30.0608214]}},{"type":"Feature","properties":{"nome":"Diamantina","osm_id":3622776649,"osm_tipo":"node","tipo_lugar":"neighbourhood"},"geometry":{"type":"Point","coordinates":[-51.1073267,-30.0631904]}},{"type":"Feature","properties":{"nome":"Dom Quixote","osm_id":3622776650,"osm_tipo":"node","tipo_lugar":"neighbourhood"},"geometry":{"type":"Point","coordinates":[-51.074049,-30.0551479]}},{"type":"Feature","properties":{"nome":"Chácara Dona Carlota","osm_id":3622776651,"osm_tipo":"node","tipo_lugar":"neighbourhood"},"geometry":{"type":"Point","coordinates":[-51.0547285,-30.0908358]}},{"type":"Feature","properties":{"nome":"Ecovillage 2","osm_id":3622776652,"osm_tipo":"node","tipo_lugar":"neighbourhood"},"geometry":{"type":"Point","coordinates":[-51.1110519,-30.0529017]}},{"type":"Feature","properties":{"nome":"Eletra","osm_id":3622776653,"osm_tipo":"node","tipo_lugar":"neighbourhood"},"geometry":{"type":"Point","coordinates":[-51.0588902,-30.1025501]}},{"type":"Feature","properties":{"nome":"Esmeralda","osm_id":3622776654,"osm_tipo":"node","tipo_lugar":"suburb"},"geometry":{"type":"Point","coordinates":[-51.0821432,-30.0847022]}},{"type":"Feature","properties":{"nome":"Jardim Esplanda","osm_id":3622776655,"osm_tipo":"node","tipo_lugar":"neighbourhood"},"geometry":{"type":"Point","coordinates":[-51.0469153,-30.1346453]}},{"type":"Feature","properties":{"nome":"Florença","osm_id":3622776656,"osm_tipo":"node","tipo_lugar":"neighbourhood"},"geometry":{"type":"Point","coordinates":[-51.0991979,-30.0670305]}},{"type":"Feature","properties":{"nome":"Gaúcha","osm_id":3622776657,"osm_tipo":"node","tipo_lugar":"neighbourhood"},"geometry":{"type":"Point","coordinates":[-51.0914997,-30.0792375]}},{"type":"Feature","properties":{"nome":"Iara","osm_id":3622776658,"osm_tipo":"node","tipo_lugar":"neighbourhood"},"geometry":{"type":"Point","coordinates":[-51.0932314,-30.0873893]}},{"type":"Feature","properties":{"nome":"Império","osm_id":3622776659,"osm_tipo":"node","tipo_lugar":"neighbourhood"},"geometry":{"type":"Point","coordinates":[-51.0968845,-30.0810853]}},{"type":"Feature","properties":{"nome":"Jardim Elizabete","osm_id":3622776660,"osm_tipo":"node","tipo_lugar":"neighbourhood"},"geometry":{"type":"Point","coordinates":[-51.0727292,-30.0999575]}},{"type":"Feature","properties":{"nome":"Jardim Ipiranga","osm_id":3622776661,"osm_tipo":"node","tipo_lugar":"neighbourhood"},"geometry":{"type":"Point","coordinates":[-51.0606039,-30.1156517]}},{"type":"Feature","properties":{"nome":"Jardim Itapema","osm_id":3622776662,"osm_tipo":"node","tipo_lugar":"neighbourhood"},"geometry":{"type":"Point","coordinates":[-51.0200839,-30.0597178]}},{"type":"Feature","properties":{"nome":"Jardim Lacy","osm_id":3622776663,"osm_tipo":"node","tipo_lugar":"neighbourhood"},"geometry":{"type":"Point","coordinates":[-51.1065916,-30.0741401]}},{"type":"Feature","properties":{"nome":"Jardim Maratá","osm_id":3622776664,"osm_tipo":"node","tipo_lugar":"neighbourhood"},"geometry":{"type":"Point","coordinates":[-51.0601501,-30.0930775]}},{"type":"Feature","properties":{"nome":"Jardim dos Cristais","osm_id":3622776666,"osm_tipo":"node","tipo_lugar":"neighbourhood"},"geometry":{"type":"Point","coordinates":[-51.0801294,-30.0767044]}},{"type":"Feature","properties":{"nome":"Martinica","osm_id":3622776667,"osm_tipo":"node","tipo_lugar":"suburb"},"geometry":{"type":"Point","coordinates":[-51.0653009,-30.1164679]}},{"type":"Feature","properties":{"nome":"Medianeira","osm_id":3622776668,"osm_tipo":"node","tipo_lugar":"neighbourhood"},"geometry":{"type":"Point","coordinates":[-51.1070821,-30.071531]}},{"type":"Feature","properties":{"nome":"Nossa Senhora de Copacabana","osm_id":3622776669,"osm_tipo":"node","tipo_lugar":"neighbourhood"},"geometry":{"type":"Point","coordinates":[-51.0882581,-30.0748918]}},{"type":"Feature","properties":{"nome":"Monte Alegre","osm_id":3622776671,"osm_tipo":"node","tipo_lugar":"neighbourhood"},"geometry":{"type":"Point","coordinates":[-51.1017983,-30.0586387]}},{"type":"Feature","properties":{"nome":"Monte Castelo","osm_id":3622776672,"osm_tipo":"node","tipo_lugar":"neighbourhood"},"geometry":{"type":"Point","coordinates":[-51.1112786,-30.0568138]}},{"type":"Feature","properties":{"nome":"Nossa Senhora Aparecida","osm_id":3622776673,"osm_tipo":"node","tipo_lugar":"neighbourhood"},"geometry":{"type":"Point","coordinates":[-51.1157955,-30.0631663]}},{"type":"Feature","properties":{"nome":"Nossa Senhora da Conceição","osm_id":3622776674,"osm_tipo":"node","tipo_lugar":"neighbourhood"},"geometry":{"type":"Point","coordinates":[-51.0723213,-30.1102619]}},{"type":"Feature","properties":{"nome":"Nova Esperança","osm_id":3622776675,"osm_tipo":"node","tipo_lugar":"neighbourhood"},"geometry":{"type":"Point","coordinates":[-51.1134878,-30.0630376]}},{"type":"Feature","properties":{"nome":"Novo Horizonte","osm_id":3622776676,"osm_tipo":"node","tipo_lugar":"neighbourhood"},"geometry":{"type":"Point","coordinates":[-51.067023,-30.0525901]}},{"type":"Feature","properties":{"nome":"Oriente","osm_id":3622776677,"osm_tipo":"node","tipo_lugar":"neighbourhood"},"geometry":{"type":"Point","coordinates":[-51.0709207,-30.0985271]}},{"type":"Feature","properties":{"nome":"Paraíso","osm_id":3622776678,"osm_tipo":"node","tipo_lugar":"neighbourhood"},"geometry":{"type":"Point","coordinates":[-51.088586,-30.051503]}},{"type":"Feature","properties":{"nome":"Parque Farroupilha","osm_id":3622776679,"osm_tipo":"node","tipo_lugar":"neighbourhood"},"geometry":{"type":"Point","coordinates":[-51.0891252,-30.1269243]}},{"type":"Feature","properties":{"nome":"Parque Residencial Schönwald","osm_id":3622776680,"osm_tipo":"node","tipo_lugar":"neighbourhood"},"geometry":{"type":"Point","coordinates":[-51.0961191,-30.0752921]}},{"type":"Feature","properties":{"nome":"Parque do Sol","osm_id":3622776681,"osm_tipo":"node","tipo_lugar":"neighbourhood"},"geometry":{"type":"Point","coordinates":[-51.0428797,-30.0674317]}},{"type":"Feature","properties":{"nome":"Planalto","osm_id":3622776682,"osm_tipo":"node","tipo_lugar":"neighbourhood"},"geometry":{"type":"Point","coordinates":[-51.0843303,-30.1283526]}},{"type":"Feature","properties":{"nome":"Pérola","osm_id":3622776683,"osm_tipo":"node","tipo_lugar":"neighbourhood"},"geometry":{"type":"Point","coordinates":[-51.0641261,-30.1125661]}},{"type":"Feature","properties":{"nome":"Querência","osm_id":3622776684,"osm_tipo":"node","tipo_lugar":"suburb"},"geometry":{"type":"Point","coordinates":[-51.0472653,-30.0819018]}},{"type":"Feature","properties":{"nome":"Recanto da Lagoa","osm_id":3622776685,"osm_tipo":"node","tipo_lugar":"neighbourhood"},"geometry":{"type":"Point","coordinates":[-51.0549204,-30.0999787]}},{"type":"Feature","properties":{"nome":"Represa","osm_id":3622776686,"osm_tipo":"node","tipo_lugar":"neighbourhood"},"geometry":{"type":"Point","coordinates":[-51.1084468,-30.0796988]}},{"type":"Feature","properties":{"nome":"Santa Maria","osm_id":3622776687,"osm_tipo":"node","tipo_lugar":"neighbourhood"},"geometry":{"type":"Point","coordinates":[-51.0578098,-30.0938155]}},{"type":"Feature","properties":{"nome":"Santa Rita","osm_id":3622776688,"osm_tipo":"node","tipo_lugar":"neighbourhood"},"geometry":{"type":"Point","coordinates":[-51.079387,-30.1189765]}},{"type":"Feature","properties":{"nome":"Santa Úrsula","osm_id":3622776689,"osm_tipo":"node","tipo_lugar":"neighbourhood"},"geometry":{"type":"Point","coordinates":[-51.0758208,-30.1048373]}},{"type":"Feature","properties":{"nome":"Santo Onofre","osm_id":3622776690,"osm_tipo":"node","tipo_lugar":"suburb"},"geometry":{"type":"Point","coordinates":[-51.0628968,-30.1021972]}},{"type":"Feature","properties":{"nome":"Sepé Tiaraju","osm_id":3622776691,"osm_tipo":"node","tipo_lugar":"neighbourhood"},"geometry":{"type":"Point","coordinates":[-51.0795358,-30.0892974]}},{"type":"Feature","properties":{"nome":"São Jorge","osm_id":3622776692,"osm_tipo":"node","tipo_lugar":"neighbourhood"},"geometry":{"type":"Point","coordinates":[-51.0895864,-30.0875903]}},{"type":"Feature","properties":{"nome":"São João Batista","osm_id":3622777493,"osm_tipo":"node","tipo_lugar":"neighbourhood"},"geometry":{"type":"Point","coordinates":[-51.0748231,-30.1027477]}},{"type":"Feature","properties":{"nome":"São Leonardo","osm_id":3622777494,"osm_tipo":"node","tipo_lugar":"neighbourhood"},"geometry":{"type":"Point","coordinates":[-51.0984005,-30.0619091]}},{"type":"Feature","properties":{"nome":"São Miguel","osm_id":3622777495,"osm_tipo":"node","tipo_lugar":"neighbourhood"},"geometry":{"type":"Point","coordinates":[-51.093306,-30.0777217]}},{"type":"Feature","properties":{"nome":"São Tomé","osm_id":3622777496,"osm_tipo":"node","tipo_lugar":"suburb"},"geometry":{"type":"Point","coordinates":[-51.073814,-30.122593]}},{"type":"Feature","properties":{"nome":"Parque Residencial Três Figueiras","osm_id":3622777497,"osm_tipo":"node","tipo_lugar":"neighbourhood"},"geometry":{"type":"Point","coordinates":[-51.1015248,-30.0524566]}},{"type":"Feature","properties":{"nome":"Universal","osm_id":3622777498,"osm_tipo":"node","tipo_lugar":"neighbourhood"},"geometry":{"type":"Point","coordinates":[-51.0556313,-30.1345272]}},{"type":"Feature","properties":{"nome":"Jardim Universitário","osm_id":3622777499,"osm_tipo":"node","tipo_lugar":"neighbourhood"},"geometry":{"type":"Point","coordinates":[-51.1152713,-30.0679824]}},{"type":"Feature","properties":{"nome":"Vera Cruz","osm_id":3622777500,"osm_tipo":"node","tipo_lugar":"neighbourhood"},"geometry":{"type":"Point","coordinates":[-51.0920595,-30.0892472]}},{"type":"Feature","properties":{"nome":"Vitória","osm_id":3622777501,"osm_tipo":"node","tipo_lugar":"neighbourhood"},"geometry":{"type":"Point","coordinates":[-51.070629,-30.0950054]}},{"type":"Feature","properties":{"nome":"Vivendas do Parque","osm_id":3622777502,"osm_tipo":"node","tipo_lugar":"neighbourhood"},"geometry":{"type":"Point","coordinates":[-51.080948,-30.0977988]}},{"type":"Feature","properties":{"nome":"Parque Índio Jari","osm_id":3622777503,"osm_tipo":"node","tipo_lugar":"neighbourhood"},"geometry":{"type":"Point","coordinates":[-51.0964367,-30.0520579]}},{"type":"Feature","properties":{"nome":"Passo dos Negros","osm_id":3658934622,"osm_tipo":"node","tipo_lugar":"neighbourhood"},"geometry":{"type":"Point","coordinates":[-50.9501368,-29.9667059]}},{"type":"Feature","properties":{"nome":"DIAV - Distrito Industrial Alvorada-Viamão","osm_id":3672552847,"osm_tipo":"node","tipo_lugar":"neighbourhood"},"geometry":{"type":"Point","coordinates":[-51.0074396,-30.000388]}},{"type":"Feature","properties":{"nome":"Augusta","osm_id":4552227317,"osm_tipo":"node","tipo_lugar":"suburb"},"geometry":{"type":"Point","coordinates":[-51.0769616,-30.056428]}},{"type":"Feature","properties":{"nome":"Vila Aparecida","osm_id":5026495978,"osm_tipo":"node","tipo_lugar":"neighbourhood"},"geometry":{"type":"Point","coordinates":[-51.1110901,-30.0616529]}},{"type":"Feature","properties":{"nome":"Belo Horizonte","osm_id":5154315054,"osm_tipo":"node","tipo_lugar":"neighbourhood"},"geometry":{"type":"Point","coordinates":[-51.0497112,-30.031715]}},{"type":"Feature","properties":{"nome":"Jari","osm_id":7903326894,"osm_tipo":"node","tipo_lugar":"suburb"},"geometry":{"type":"Point","coordinates":[-51.0927987,-30.0523146]}},{"type":"Feature","properties":{"nome":"Parque Saint Hilaire","osm_id":7903326895,"osm_tipo":"node","tipo_lugar":"suburb"},"geometry":{"type":"Point","coordinates":[-51.1079586,-30.0803839]}},{"type":"Feature","properties":{"nome":"Branquinha","osm_id":7903326985,"osm_tipo":"node","tipo_lugar":"suburb"},"geometry":{"type":"Point","coordinates":[-51.0596896,-30.1447189]}},{"type":"Feature","properties":{"nome":"Cantegril I","osm_id":7903621843,"osm_tipo":"node","tipo_lugar":"neighbourhood"},"geometry":{"type":"Point","coordinates":[-51.062597,-30.082287]}},{"type":"Feature","properties":{"nome":"Cantegril III","osm_id":7903621844,"osm_tipo":"node","tipo_lugar":"neighbourhood"},"geometry":{"type":"Point","coordinates":[-51.0607087,-30.0776914]}},{"type":"Feature","properties":{"nome":"Cantegril II","osm_id":7903621845,"osm_tipo":"node","tipo_lugar":"neighbourhood"},"geometry":{"type":"Point","coordinates":[-51.0686911,-30.0748876]}},{"type":"Feature","properties":{"nome":"Cantegril IV","osm_id":7903621846,"osm_tipo":"node","tipo_lugar":"neighbourhood"},"geometry":{"type":"Point","coordinates":[-51.0662556,-30.0679054]}},{"type":"Feature","properties":{"nome":"Centro","osm_id":7903642035,"osm_tipo":"node","tipo_lugar":"suburb"},"geometry":{"type":"Point","coordinates":[-51.0276318,-30.0816418]}},{"type":"Feature","properties":{"nome":"Tarumã","osm_id":7903642045,"osm_tipo":"node","tipo_lugar":"suburb"},"geometry":{"type":"Point","coordinates":[-51.0228253,-30.0690568]}},{"type":"Feature","properties":{"nome":"Fazenda Águas Belas","osm_id":7903642086,"osm_tipo":"node","tipo_lugar":"neighbourhood"},"geometry":{"type":"Point","coordinates":[-51.0153795,-30.0312876]}},{"type":"Feature","properties":{"nome":"Maria Hortência","osm_id":8459321512,"osm_tipo":"node","tipo_lugar":"neighbourhood"},"geometry":{"type":"Point","coordinates":[-50.8439112,-30.1186818]}},{"type":"Feature","properties":{"nome":"Pomar da Lagoa","osm_id":8459321513,"osm_tipo":"node","tipo_lugar":"neighbourhood"},"geometry":{"type":"Point","coordinates":[-50.8606267,-30.1652209]}},{"type":"Feature","properties":{"nome":"Ponderossa","osm_id":8459321514,"osm_tipo":"node","tipo_lugar":"neighbourhood"},"geometry":{"type":"Point","coordinates":[-50.8586312,-30.1157399]}},{"type":"Feature","properties":{"nome":"Querência Pesqueiro","osm_id":8459321515,"osm_tipo":"node","tipo_lugar":"neighbourhood"},"geometry":{"type":"Point","coordinates":[-50.867579,-30.1215401]}},{"type":"Feature","properties":{"nome":"Goufe II","osm_id":8459321516,"osm_tipo":"node","tipo_lugar":"neighbourhood"},"geometry":{"type":"Point","coordinates":[-50.8557934,-30.1206539]}},{"type":"Feature","properties":{"nome":"Pomar do Morro","osm_id":8459348217,"osm_tipo":"node","tipo_lugar":"neighbourhood"},"geometry":{"type":"Point","coordinates":[-50.8425594,-30.1247602]}},{"type":"Feature","properties":{"nome":"El Rei","osm_id":8459348218,"osm_tipo":"node","tipo_lugar":"neighbourhood"},"geometry":{"type":"Point","coordinates":[-50.8708728,-30.1345777]}},{"type":"Feature","properties":{"nome":"Querência do Morro","osm_id":8459348219,"osm_tipo":"node","tipo_lugar":"neighbourhood"},"geometry":{"type":"Point","coordinates":[-50.8477468,-30.1294835]}},{"type":"Feature","properties":{"nome":"Goufe IV","osm_id":8459348220,"osm_tipo":"node","tipo_lugar":"neighbourhood"},"geometry":{"type":"Point","coordinates":[-50.8485997,-30.1321837]}},{"type":"Feature","properties":{"nome":"Santa Fé","osm_id":8459348221,"osm_tipo":"node","tipo_lugar":"neighbourhood"},"geometry":{"type":"Point","coordinates":[-50.8021653,-30.1202873]}},{"type":"Feature","properties":{"nome":"Lagoa Azul","osm_id":8459348222,"osm_tipo":"node","tipo_lugar":"neighbourhood"},"geometry":{"type":"Point","coordinates":[-50.8091498,-30.1338911]}},{"type":"Feature","properties":{"nome":"Pomar da Estância","osm_id":8459348223,"osm_tipo":"node","tipo_lugar":"neighbourhood"},"geometry":{"type":"Point","coordinates":[-50.8725679,-30.1466951]}},{"type":"Feature","properties":{"nome":"Quinta da Boa Vista","osm_id":8459348224,"osm_tipo":"node","tipo_lugar":"neighbourhood"},"geometry":{"type":"Point","coordinates":[-50.803485,-30.1262078]}},{"type":"Feature","properties":{"nome":"Condomínio Fazenda","osm_id":8459348225,"osm_tipo":"node","tipo_lugar":"neighbourhood"},"geometry":{"type":"Point","coordinates":[-50.8683729,-30.1410495]}},{"type":"Feature","properties":{"nome":"Bonanza","osm_id":8459348226,"osm_tipo":"node","tipo_lugar":"neighbourhood"},"geometry":{"type":"Point","coordinates":[-50.850091,-30.1399221]}},{"type":"Feature","properties":{"nome":"Vila Fraga","osm_id":8459348227,"osm_tipo":"node","tipo_lugar":"neighbourhood"},"geometry":{"type":"Point","coordinates":[-50.8225394,-30.1275812]}},{"type":"Feature","properties":{"nome":"Jardim Tropical","osm_id":8459348228,"osm_tipo":"node","tipo_lugar":"neighbourhood"},"geometry":{"type":"Point","coordinates":[-50.8901954,-30.1450529]}},{"type":"Feature","properties":{"nome":"Santa Marta","osm_id":8459348229,"osm_tipo":"node","tipo_lugar":"neighbourhood"},"geometry":{"type":"Point","coordinates":[-50.8292342,-30.1240735]}},{"type":"Feature","properties":{"nome":"Haras Boa Vista","osm_id":8459348230,"osm_tipo":"node","tipo_lugar":"neighbourhood"},"geometry":{"type":"Point","coordinates":[-50.7781542,-30.125549]}},{"type":"Feature","properties":{"nome":"Haras","osm_id":8459348231,"osm_tipo":"node","tipo_lugar":"neighbourhood"},"geometry":{"type":"Point","coordinates":[-50.8253074,-30.110886]}},{"type":"Feature","properties":{"nome":"Ferradura","osm_id":8459348232,"osm_tipo":"node","tipo_lugar":"neighbourhood"},"geometry":{"type":"Point","coordinates":[-50.8381498,-30.1582915]}},{"type":"Feature","properties":{"nome":"Sociedade Querência","osm_id":8459348233,"osm_tipo":"node","tipo_lugar":"neighbourhood"},"geometry":{"type":"Point","coordinates":[-50.9024799,-30.1503783]}},{"type":"Feature","properties":{"nome":"Querência da Figueira","osm_id":8459348234,"osm_tipo":"node","tipo_lugar":"neighbourhood"},"geometry":{"type":"Point","coordinates":[-50.8170033,-30.1130206]}},{"type":"Feature","properties":{"nome":"Rincão Gaudério","osm_id":8459348235,"osm_tipo":"node","tipo_lugar":"neighbourhood"},"geometry":{"type":"Point","coordinates":[-50.8979845,-30.1477806]}},{"type":"Feature","properties":{"nome":"Goufe III","osm_id":8459348236,"osm_tipo":"node","tipo_lugar":"neighbourhood"},"geometry":{"type":"Point","coordinates":[-50.8357358,-30.1127608]}},{"type":"Feature","properties":{"nome":"Ipiranga","osm_id":8459348237,"osm_tipo":"node","tipo_lugar":"neighbourhood"},"geometry":{"type":"Point","coordinates":[-50.8353067,-30.1639037]}},{"type":"Feature","properties":{"nome":"Rancho da Figueira","osm_id":8459348243,"osm_tipo":"node","tipo_lugar":"neighbourhood"},"geometry":{"type":"Point","coordinates":[-50.7725215,-30.1202966]}},{"type":"Feature","properties":{"nome":"Rancho Pimenta","osm_id":8459348247,"osm_tipo":"node","tipo_lugar":"neighbourhood"},"geometry":{"type":"Point","coordinates":[-50.915258,-30.1692836]}},{"type":"Feature","properties":{"nome":"Esplanada","osm_id":8459348248,"osm_tipo":"node","tipo_lugar":"neighbourhood"},"geometry":{"type":"Point","coordinates":[-50.917629,-30.176138]}},{"type":"Feature","properties":{"nome":"Val Paraíso","osm_id":8459348249,"osm_tipo":"node","tipo_lugar":"neighbourhood"},"geometry":{"type":"Point","coordinates":[-50.9159983,-30.1837895]}},{"type":"Feature","properties":{"nome":"Pomar da Estância","osm_id":8459348251,"osm_tipo":"node","tipo_lugar":"neighbourhood"},"geometry":{"type":"Point","coordinates":[-50.8758939,-30.2214819]}},{"type":"Feature","properties":{"nome":"Laredo","osm_id":8459348253,"osm_tipo":"node","tipo_lugar":"neighbourhood"},"geometry":{"type":"Point","coordinates":[-50.9405351,-30.1853661]}},{"type":"Feature","properties":{"nome":"Loteamento Copernorte","osm_id":8459348258,"osm_tipo":"node","tipo_lugar":"neighbourhood"},"geometry":{"type":"Point","coordinates":[-50.9223068,-30.1545252]}},{"type":"Feature","properties":{"nome":"Gonçalves","osm_id":8459608327,"osm_tipo":"node","tipo_lugar":"neighbourhood"},"geometry":{"type":"Point","coordinates":[-51.0196281,-30.0783878]}},{"type":"Feature","properties":{"nome":"Jardim Santana","osm_id":8459608328,"osm_tipo":"node","tipo_lugar":"neighbourhood"},"geometry":{"type":"Point","coordinates":[-51.0381031,-30.0760389]}},{"type":"Feature","properties":{"nome":"Parque Residencial Casa Grande","osm_id":8459608329,"osm_tipo":"node","tipo_lugar":"neighbourhood"},"geometry":{"type":"Point","coordinates":[-51.036188,-30.0775893]}},{"type":"Feature","properties":{"nome":"Bairro Açorianos","osm_id":8459608330,"osm_tipo":"node","tipo_lugar":"neighbourhood"},"geometry":{"type":"Point","coordinates":[-51.032846,-30.0785363]}},{"type":"Feature","properties":{"nome":"Bairro Mendanha","osm_id":8459608331,"osm_tipo":"node","tipo_lugar":"neighbourhood"},"geometry":{"type":"Point","coordinates":[-51.0293001,-30.0781139]}},{"type":"Feature","properties":{"nome":"Recanto Sabiás","osm_id":8459608332,"osm_tipo":"node","tipo_lugar":"neighbourhood"},"geometry":{"type":"Point","coordinates":[-51.027782,-30.0768187]}},{"type":"Feature","properties":{"nome":"Setembrina","osm_id":8459608333,"osm_tipo":"node","tipo_lugar":"neighbourhood"},"geometry":{"type":"Point","coordinates":[-51.0322988,-30.0831597]}},{"type":"Feature","properties":{"nome":"Coxilhas de Ibiamon","osm_id":8459608334,"osm_tipo":"node","tipo_lugar":"neighbourhood"},"geometry":{"type":"Point","coordinates":[-51.0306037,-30.0848307]}},{"type":"Feature","properties":{"nome":"Nossa Senhora de Fátima","osm_id":8459608335,"osm_tipo":"node","tipo_lugar":"neighbourhood"},"geometry":{"type":"Point","coordinates":[-51.0258722,-30.0866596]}},{"type":"Feature","properties":{"nome":"Charruas","osm_id":8459608336,"osm_tipo":"node","tipo_lugar":"neighbourhood"},"geometry":{"type":"Point","coordinates":[-51.0420889,-30.0775893]}},{"type":"Feature","properties":{"nome":"Inkas","osm_id":8459608337,"osm_tipo":"node","tipo_lugar":"neighbourhood"},"geometry":{"type":"Point","coordinates":[-51.0418582,-30.0791491]}},{"type":"Feature","properties":{"nome":"Mayas","osm_id":8459608338,"osm_tipo":"node","tipo_lugar":"neighbourhood"},"geometry":{"type":"Point","coordinates":[-51.0411823,-30.0776311]}},{"type":"Feature","properties":{"nome":"Vidigueiras","osm_id":8459608339,"osm_tipo":"node","tipo_lugar":"neighbourhood"},"geometry":{"type":"Point","coordinates":[-51.0496795,-30.0830204]}},{"type":"Feature","properties":{"nome":"Martinica","osm_id":8459608342,"osm_tipo":"node","tipo_lugar":"neighbourhood"},"geometry":{"type":"Point","coordinates":[-51.0686052,-30.0997203]}},{"type":"Feature","properties":{"nome":"Parque Arejano","osm_id":8459608343,"osm_tipo":"node","tipo_lugar":"neighbourhood"},"geometry":{"type":"Point","coordinates":[-51.0710406,-30.1013772]}},{"type":"Feature","properties":{"nome":"Jardim Viamar","osm_id":8459608344,"osm_tipo":"node","tipo_lugar":"neighbourhood"},"geometry":{"type":"Point","coordinates":[-51.0250139,-30.0528532]}},{"type":"Feature","properties":{"nome":"Parque São Cristóvão","osm_id":8459608345,"osm_tipo":"node","tipo_lugar":"neighbourhood"},"geometry":{"type":"Point","coordinates":[-51.0170317,-30.0560941]}},{"type":"Feature","properties":{"nome":"Dois Irmãos","osm_id":8459608346,"osm_tipo":"node","tipo_lugar":"neighbourhood"},"geometry":{"type":"Point","coordinates":[-51.0165382,-30.0851835]}},{"type":"Feature","properties":{"nome":"Parque Residencial Enasa","osm_id":8459608347,"osm_tipo":"node","tipo_lugar":"neighbourhood"},"geometry":{"type":"Point","coordinates":[-51.0410857,-30.0993305]}},{"type":"Feature","properties":{"nome":"Sítio Campo Grande","osm_id":8459608348,"osm_tipo":"node","tipo_lugar":"neighbourhood"},"geometry":{"type":"Point","coordinates":[-51.061256,-30.1607034]}},{"type":"Feature","properties":{"nome":"Sítio Princesa do Vale","osm_id":8459608349,"osm_tipo":"node","tipo_lugar":"neighbourhood"},"geometry":{"type":"Point","coordinates":[-51.0789263,-30.1510741]}},{"type":"Feature","properties":{"nome":"Sítio Alvorada","osm_id":8459608350,"osm_tipo":"node","tipo_lugar":"neighbourhood"},"geometry":{"type":"Point","coordinates":[-51.0683477,-30.1562414]}},{"type":"Feature","properties":{"nome":"Vivendas São Tomé","osm_id":8459608351,"osm_tipo":"node","tipo_lugar":"neighbourhood"},"geometry":{"type":"Point","coordinates":[-51.0694313,-30.1156749]}},{"type":"Feature","properties":{"nome":"Gonçalves Santos","osm_id":8459608352,"osm_tipo":"node","tipo_lugar":"neighbourhood"},"geometry":{"type":"Point","coordinates":[-51.0821343,-30.1232198]}},{"type":"Feature","properties":{"nome":"Onofre","osm_id":8459608353,"osm_tipo":"node","tipo_lugar":"neighbourhood"},"geometry":{"type":"Point","coordinates":[-51.0702896,-30.0941138]}},{"type":"Feature","properties":{"nome":"Cinco Irmãos","osm_id":8459608354,"osm_tipo":"node","tipo_lugar":"neighbourhood"},"geometry":{"type":"Point","coordinates":[-51.0857284,-30.0894631]}},{"type":"Feature","properties":{"nome":"Chácara Pinheiros","osm_id":8459608355,"osm_tipo":"node","tipo_lugar":"neighbourhood"},"geometry":{"type":"Point","coordinates":[-51.0821235,-30.0903821]}},{"type":"Feature","properties":{"nome":"Concórdia","osm_id":8459608357,"osm_tipo":"node","tipo_lugar":"neighbourhood"},"geometry":{"type":"Point","coordinates":[-51.0627687,-30.0886369]}},{"type":"Feature","properties":{"nome":"Loteamento Popular","osm_id":8459608359,"osm_tipo":"node","tipo_lugar":"neighbourhood"},"geometry":{"type":"Point","coordinates":[-51.0706651,-30.0528486]}},{"type":"Feature","properties":{"nome":"Santa Paula","osm_id":8459608360,"osm_tipo":"node","tipo_lugar":"neighbourhood"},"geometry":{"type":"Point","coordinates":[-51.0876489,-30.0678219]}},{"type":"Feature","properties":{"nome":"Minuano","osm_id":8459608361,"osm_tipo":"node","tipo_lugar":"neighbourhood"},"geometry":{"type":"Point","coordinates":[-51.0847199,-30.0809687]}},{"type":"Feature","properties":{"nome":"Jardim Schönwald","osm_id":8459608362,"osm_tipo":"node","tipo_lugar":"neighbourhood"},"geometry":{"type":"Point","coordinates":[-51.0963822,-30.0712295]}},{"type":"Feature","properties":{"nome":"Jardim Santa Laura","osm_id":8459608363,"osm_tipo":"node","tipo_lugar":"neighbourhood"},"geometry":{"type":"Point","coordinates":[-51.0894728,-30.0780071]}},{"type":"Feature","properties":{"nome":"Júlia","osm_id":8459608364,"osm_tipo":"node","tipo_lugar":"neighbourhood"},"geometry":{"type":"Point","coordinates":[-51.0924769,-30.069586]}},{"type":"Feature","properties":{"nome":"S. Lomba do Sabão","osm_id":8459608365,"osm_tipo":"node","tipo_lugar":"neighbourhood"},"geometry":{"type":"Point","coordinates":[-51.1046863,-30.0774686]}},{"type":"Feature","properties":{"nome":"Irma","osm_id":8459608366,"osm_tipo":"node","tipo_lugar":"neighbourhood"},"geometry":{"type":"Point","coordinates":[-51.1045361,-30.0754261]}},{"type":"Feature","properties":{"nome":"Miguelina","osm_id":8459608367,"osm_tipo":"node","tipo_lugar":"neighbourhood"},"geometry":{"type":"Point","coordinates":[-51.1050725,-30.0693446]}},{"type":"Feature","properties":{"nome":"Luciana","osm_id":8459608368,"osm_tipo":"node","tipo_lugar":"neighbourhood"},"geometry":{"type":"Point","coordinates":[-51.1112738,-30.0714616]}},{"type":"Feature","properties":{"nome":"União","osm_id":8459608369,"osm_tipo":"node","tipo_lugar":"neighbourhood"},"geometry":{"type":"Point","coordinates":[-51.110909,-30.0698924]}},{"type":"Feature","properties":{"nome":"Incas","osm_id":9153397649,"osm_tipo":"node","tipo_lugar":"neighbourhood"},"geometry":{"type":"Point","coordinates":[-51.0405793,-30.0779433]}},{"type":"Feature","properties":{"nome":"Sítio Cacique","osm_id":9725719908,"osm_tipo":"node","tipo_lugar":"neighbourhood"},"geometry":{"type":"Point","coordinates":[-51.0739771,-30.1554178]}},{"type":"Feature","properties":{"nome":"Sítio Ideal","osm_id":9725719909,"osm_tipo":"node","tipo_lugar":"neighbourhood"},"geometry":{"type":"Point","coordinates":[-51.0765628,-30.152644]}},{"type":"Feature","properties":{"nome":"Sítio Paloma","osm_id":9725719910,"osm_tipo":"node","tipo_lugar":"neighbourhood"},"geometry":{"type":"Point","coordinates":[-51.0724858,-30.1520039]}},{"type":"Feature","properties":{"nome":"Sítio Alegre","osm_id":9725719911,"osm_tipo":"node","tipo_lugar":"neighbourhood"},"geometry":{"type":"Point","coordinates":[-51.070383,-30.1472631]}},{"type":"Feature","properties":{"nome":"Capororoca","osm_id":9725719912,"osm_tipo":"node","tipo_lugar":"neighbourhood"},"geometry":{"type":"Point","coordinates":[-51.0604481,-30.1523843]}},{"type":"Feature","properties":{"nome":"Loteamento Cristo Rei","osm_id":9725771841,"osm_tipo":"node","tipo_lugar":"neighbourhood"},"geometry":{"type":"Point","coordinates":[-51.0761461,-30.1489932]}},{"type":"Feature","properties":{"nome":"Passo das Quirinas","osm_id":9728520720,"osm_tipo":"node","tipo_lugar":"neighbourhood"},"geometry":{"type":"Point","coordinates":[-51.0839048,-30.1460957]}},{"type":"Feature","properties":{"nome":"Condomínio Pedra Rosada","osm_id":11896944182,"osm_tipo":"node","tipo_lugar":"neighbourhood"},"geometry":{"type":"Point","coordinates":[-50.9677523,-30.1125851]}},{"type":"Feature","properties":{"nome":"Condomínio Esmeralda","osm_id":12720751727,"osm_tipo":"node","tipo_lugar":"neighbourhood"},"geometry":{"type":"Point","coordinates":[-50.9214109,-30.3256009]}},{"type":"Feature","properties":{"nome":"Condomínio Village Tarumã","osm_id":330991351,"osm_tipo":"way","tipo_lugar":"neighbourhood"},"geometry":{"type":"Polygon","coordinates":[[[-51.0152722,-30.0716471],[-51.0131318,-30.0725988],[-51.0130353,-30.071169],[-51.0152722,-30.0716471]]]}},{"type":"Feature","properties":{"nome":"bairro Jardim Viamar","osm_id":766292842,"osm_tipo":"way","tipo_lugar":"suburb"},"geometry":{"type":"Polygon","coordinates":[[[-51.0247292,-30.0544049],[-51.024567,-30.0577012],[-51.0209599,-30.0580701],[-51.021904,-30.0534009],[-51.0247292,-30.0544049]]]}},{"type":"Feature","properties":{"nome":"Villa's Home Resort","osm_id":1271506988,"osm_tipo":"way","tipo_lugar":"neighbourhood"},"geometry":{"type":"Polygon","coordinates":[[[-51.0254538,-30.1177028],[-51.0255718,-30.1143571],[-51.0212749,-30.1141993],[-51.0211945,-30.1166169],[-51.0254538,-30.1177028]]]}},{"type":"Feature","properties":{"nome":"Beco dos Cafunchos","osm_id":12368517,"osm_tipo":"relation","tipo_lugar":"neighbourhood"},"geometry":{"type":"MultiPolygon","coordinates":[[[[-51.115454,-30.0801053],[-51.1174187,-30.0789763],[-51.1160685,-30.0808506],[-51.1182378,-30.0840046],[-51.1144542,-30.085317],[-51.1141806,-30.0872572],[-51.115454,-30.0801053]]],[[[-51.1128498,-30.0862117],[-51.1129475,-30.08701],[-51.1140413,-30.0874914],[-51.1128498,-30.0862117]]],[[[-51.1128498,-30.0862117],[-51.1126781,-30.0856695],[-51.1130644,-30.0855433],[-51.1128498,-30.0862117]]],[[[-51.1132732,-30.0855044],[-51.1133406,-30.0855512],[-51.1136051,-30.0852908],[-51.1132732,-30.0855044]]],[[[-51.1153212,-30.081289],[-51.1131822,-30.0837875],[-51.1139989,-30.0846776],[-51.1153212,-30.081289]]]]}},{"type":"Feature","properties":{"nome":"Condomínio Colorado","osm_id":16837440,"osm_tipo":"relation","tipo_lugar":"neighbourhood"},"geometry":{"type":"Polygon","coordinates":[[[-51.0141121,-30.0816952],[-51.0144514,-30.0833964],[-51.0155296,-30.0832247],[-51.0141121,-30.0816952]]]}}]}