{"type":"FeatureCollection","features":[{"type":"Feature","properties":{"nome":"Mangaba","osm_id":4279004447,"osm_tipo":"node","tipo_lugar":"neighbourhood"},"geometry":{"type":"Point","coordinates":[-42.7695474,-2.7314298]}},{"type":"Feature","properties":{"nome":"Residencial Mundico Cosme","osm_id":11909975960,"osm_tipo":"node","tipo_lugar":"suburb"},"geometry":{"type":"Point","coordinates":[-42.848657,-2.7705849]}},{"type":"Feature","properties":{"nome":"Mocambinho","osm_id":13057732063,"osm_tipo":"node","tipo_lugar":"neighbourhood"},"geometry":{"type":"Point","coordinates":[-42.8218317,-2.7420585]}},{"type":"Feature","properties":{"nome":"Ilha do Meio","osm_id":13057732064,"osm_tipo":"node","tipo_lugar":"neighbourhood"},"geometry":{"type":"Point","coordinates":[-42.8035927,-2.7460879]}},{"type":"Feature","properties":{"nome":"Ilha","osm_id":13057732065,"osm_tipo":"node","tipo_lugar":"neighbourhood"},"geometry":{"type":"Point","coordinates":[-42.7955676,-2.7376862]}},{"type":"Feature","properties":{"nome":"São Domingos","osm_id":13057732066,"osm_tipo":"node","tipo_lugar":"neighbourhood"},"geometry":{"type":"Point","coordinates":[-42.7797318,-2.734514]}}]}