{"type":"FeatureCollection","features":[{"type":"Feature","properties":{"nome":"La Matanza","osm_id":1613751020,"osm_tipo":"node","tipo_lugar":"neighbourhood"},"geometry":{"type":"Point","coordinates":[-1.0867314,38.1481947]}},{"type":"Feature","properties":{"nome":"Las Peñas","osm_id":1613751266,"osm_tipo":"node","tipo_lugar":"neighbourhood"},"geometry":{"type":"Point","coordinates":[-1.1604028,38.2050796]}},{"type":"Feature","properties":{"nome":"Los Baños","osm_id":1613751302,"osm_tipo":"node","tipo_lugar":"suburb"},"geometry":{"type":"Point","coordinates":[-1.1121693,38.2074794]}},{"type":"Feature","properties":{"nome":"Rambla Salada","osm_id":1613753128,"osm_tipo":"node","tipo_lugar":"neighbourhood"},"geometry":{"type":"Point","coordinates":[-1.1134057,38.1184847]}},{"type":"Feature","properties":{"nome":"Urbanización Las Kalendas","osm_id":5092463740,"osm_tipo":"node","tipo_lugar":"neighbourhood"},"geometry":{"type":"Point","coordinates":[-1.1271982,38.2044924]}},{"type":"Feature","properties":{"nome":"Centro","osm_id":7070298315,"osm_tipo":"node","tipo_lugar":"suburb"},"geometry":{"type":"Point","coordinates":[-44.1513899,-5.7331382]}},{"type":"Feature","properties":{"nome":"Urbanización El Reloj","osm_id":11104645232,"osm_tipo":"node","tipo_lugar":"neighbourhood"},"geometry":{"type":"Point","coordinates":[-1.0645835,38.1437863]}},{"type":"Feature","properties":{"nome":"Los Periquitos","osm_id":12049222885,"osm_tipo":"node","tipo_lugar":"neighbourhood"},"geometry":{"type":"Point","coordinates":[-1.1069834,38.1183812]}}]}