{"type":"FeatureCollection","features":[{"type":"Feature","properties":{"nome":"Residencial Primavera (Mutirão)","osm_id":6845061924,"osm_tipo":"node","tipo_lugar":"suburb"},"geometry":{"type":"Point","coordinates":[-45.1102529,-4.1410214]}},{"type":"Feature","properties":{"nome":"Sagradado Coração de Jesus","osm_id":6845061925,"osm_tipo":"node","tipo_lugar":"suburb"},"geometry":{"type":"Point","coordinates":[-45.1080839,-4.1414287]}},{"type":"Feature","properties":{"nome":"Centro","osm_id":6845061926,"osm_tipo":"node","tipo_lugar":"suburb"},"geometry":{"type":"Point","coordinates":[-45.1200006,-4.1399143]}},{"type":"Feature","properties":{"nome":"Bairro Antonio Café","osm_id":6845061927,"osm_tipo":"node","tipo_lugar":"suburb"},"geometry":{"type":"Point","coordinates":[-45.1235539,-4.141785]}},{"type":"Feature","properties":{"nome":"Bairro Novo","osm_id":6845061928,"osm_tipo":"node","tipo_lugar":"suburb"},"geometry":{"type":"Point","coordinates":[-45.1157264,-4.1365866]}},{"type":"Feature","properties":{"nome":"Alto do Centro","osm_id":6848285560,"osm_tipo":"node","tipo_lugar":"suburb"},"geometry":{"type":"Point","coordinates":[-45.0734429,-4.1468453]}},{"type":"Feature","properties":{"nome":"Bairro de Baixo","osm_id":6848285561,"osm_tipo":"node","tipo_lugar":"suburb"},"geometry":{"type":"Point","coordinates":[-45.0663511,-4.1452991]}},{"type":"Feature","properties":{"nome":"Bairro de Cima","osm_id":6848285562,"osm_tipo":"node","tipo_lugar":"suburb"},"geometry":{"type":"Point","coordinates":[-45.0593694,-4.1452202]}},{"type":"Feature","properties":{"nome":"Bairro da Tarrafa","osm_id":6848285563,"osm_tipo":"node","tipo_lugar":"suburb"},"geometry":{"type":"Point","coordinates":[-45.0555973,-4.1465477]}}]}