{"type":"FeatureCollection","features":[{"type":"Feature","properties":{"nome":"Juçatuba","osm_id":5339571104,"osm_tipo":"node","tipo_lugar":"suburb"},"geometry":{"type":"Point","coordinates":[-44.1419235,-2.624968]}},{"type":"Feature","properties":{"nome":"Jardim Alvorada","osm_id":7700339949,"osm_tipo":"node","tipo_lugar":"neighbourhood"},"geometry":{"type":"Point","coordinates":[-44.1961454,-2.5425893]}},{"type":"Feature","properties":{"nome":"Villagio do Cohatrac","osm_id":7700339950,"osm_tipo":"node","tipo_lugar":"neighbourhood"},"geometry":{"type":"Point","coordinates":[-44.2050967,-2.5479365]}},{"type":"Feature","properties":{"nome":"Parque Santa Luzia","osm_id":7700339951,"osm_tipo":"node","tipo_lugar":"neighbourhood"},"geometry":{"type":"Point","coordinates":[-44.2013258,-2.5496845]}},{"type":"Feature","properties":{"nome":"Recanto do Turu II","osm_id":7700339962,"osm_tipo":"node","tipo_lugar":"neighbourhood"},"geometry":{"type":"Point","coordinates":[-44.2097497,-2.5074957]}},{"type":"Feature","properties":{"nome":"Residencial Central Park","osm_id":7700339976,"osm_tipo":"node","tipo_lugar":"neighbourhood"},"geometry":{"type":"Point","coordinates":[-44.2102588,-2.4820268]}},{"type":"Feature","properties":{"nome":"Parque Araçagi","osm_id":7700339979,"osm_tipo":"node","tipo_lugar":"suburb"},"geometry":{"type":"Point","coordinates":[-44.1997433,-2.4881559]}},{"type":"Feature","properties":{"nome":"Araçagi","osm_id":7700339980,"osm_tipo":"node","tipo_lugar":"suburb"},"geometry":{"type":"Point","coordinates":[-44.1989005,-2.4733689]}},{"type":"Feature","properties":{"nome":"Miritiua","osm_id":7700339981,"osm_tipo":"node","tipo_lugar":"suburb"},"geometry":{"type":"Point","coordinates":[-44.1946681,-2.4964971]}},{"type":"Feature","properties":{"nome":"Cidades e Fruteiras","osm_id":7700339982,"osm_tipo":"node","tipo_lugar":"suburb"},"geometry":{"type":"Point","coordinates":[-44.1907548,-2.4810777]}},{"type":"Feature","properties":{"nome":"Loteamento Praia Azul","osm_id":7700339983,"osm_tipo":"node","tipo_lugar":"neighbourhood"},"geometry":{"type":"Point","coordinates":[-44.1920747,-2.47386]}},{"type":"Feature","properties":{"nome":"Mata","osm_id":7701481832,"osm_tipo":"node","tipo_lugar":"suburb"},"geometry":{"type":"Point","coordinates":[-44.1681503,-2.5831038]}},{"type":"Feature","properties":{"nome":"Jardim Tropical","osm_id":7701481833,"osm_tipo":"node","tipo_lugar":"suburb"},"geometry":{"type":"Point","coordinates":[-44.1793036,-2.574123]}},{"type":"Feature","properties":{"nome":"Vila Jardim Lima","osm_id":7701481834,"osm_tipo":"node","tipo_lugar":"suburb"},"geometry":{"type":"Point","coordinates":[-44.1770315,-2.5656757]}},{"type":"Feature","properties":{"nome":"Vila São Luís","osm_id":7701481835,"osm_tipo":"node","tipo_lugar":"neighbourhood"},"geometry":{"type":"Point","coordinates":[-44.1861086,-2.5655896]}},{"type":"Feature","properties":{"nome":"Vila Flamengo","osm_id":7701481836,"osm_tipo":"node","tipo_lugar":"neighbourhood"},"geometry":{"type":"Point","coordinates":[-44.1904732,-2.5638752]}},{"type":"Feature","properties":{"nome":"Vila Cafeteira","osm_id":7701481838,"osm_tipo":"node","tipo_lugar":"neighbourhood"},"geometry":{"type":"Point","coordinates":[-44.1913423,-2.5610027]}},{"type":"Feature","properties":{"nome":"Recanto da Paz","osm_id":7701481839,"osm_tipo":"node","tipo_lugar":"neighbourhood"},"geometry":{"type":"Point","coordinates":[-44.193134,-2.5580338]}},{"type":"Feature","properties":{"nome":"Vila Santa Teresinha","osm_id":7701481840,"osm_tipo":"node","tipo_lugar":"neighbourhood"},"geometry":{"type":"Point","coordinates":[-44.1954407,-2.5595343]}},{"type":"Feature","properties":{"nome":"Vila Carol","osm_id":7701481841,"osm_tipo":"node","tipo_lugar":"neighbourhood"},"geometry":{"type":"Point","coordinates":[-44.1977366,-2.5586126]}},{"type":"Feature","properties":{"nome":"Maiobinha","osm_id":7701481842,"osm_tipo":"node","tipo_lugar":"suburb"},"geometry":{"type":"Point","coordinates":[-44.2038306,-2.558291]}},{"type":"Feature","properties":{"nome":"Parque dos Rios","osm_id":7701481843,"osm_tipo":"node","tipo_lugar":"neighbourhood"},"geometry":{"type":"Point","coordinates":[-44.1881773,-2.5557615]}},{"type":"Feature","properties":{"nome":"Vila Kiola Costa","osm_id":7701481844,"osm_tipo":"node","tipo_lugar":"suburb"},"geometry":{"type":"Point","coordinates":[-44.1819277,-2.5549631]}},{"type":"Feature","properties":{"nome":"Vila Sarney Filho","osm_id":7701481846,"osm_tipo":"node","tipo_lugar":"suburb"},"geometry":{"type":"Point","coordinates":[-44.1666443,-2.5568758]}},{"type":"Feature","properties":{"nome":"Residencial Nova Terra","osm_id":7701481849,"osm_tipo":"node","tipo_lugar":"suburb"},"geometry":{"type":"Point","coordinates":[-44.1521924,-2.5712107]}},{"type":"Feature","properties":{"nome":"Cidade Alta","osm_id":7701481850,"osm_tipo":"node","tipo_lugar":"neighbourhood"},"geometry":{"type":"Point","coordinates":[-44.1444486,-2.564703]}},{"type":"Feature","properties":{"nome":"Quinta","osm_id":7701481851,"osm_tipo":"node","tipo_lugar":"neighbourhood"},"geometry":{"type":"Point","coordinates":[-44.1380508,-2.5622831]}},{"type":"Feature","properties":{"nome":"Ubatuba","osm_id":7701481852,"osm_tipo":"node","tipo_lugar":"neighbourhood"},"geometry":{"type":"Point","coordinates":[-44.1539445,-2.5560889]}},{"type":"Feature","properties":{"nome":"Laranjal","osm_id":7701481853,"osm_tipo":"node","tipo_lugar":"neighbourhood"},"geometry":{"type":"Point","coordinates":[-44.1471335,-2.5564935]}},{"type":"Feature","properties":{"nome":"Rio São João","osm_id":7701481854,"osm_tipo":"node","tipo_lugar":"neighbourhood"},"geometry":{"type":"Point","coordinates":[-44.1379463,-2.5556659]}},{"type":"Feature","properties":{"nome":"Caminho das Árvores","osm_id":7703277326,"osm_tipo":"node","tipo_lugar":"neighbourhood"},"geometry":{"type":"Point","coordinates":[-44.2022716,-2.5529448]}},{"type":"Feature","properties":{"nome":"Residencial Ana Carolina","osm_id":7703277328,"osm_tipo":"node","tipo_lugar":"neighbourhood"},"geometry":{"type":"Point","coordinates":[-44.1969282,-2.5510824]}},{"type":"Feature","properties":{"nome":"Paraíso das Rosas","osm_id":7703277329,"osm_tipo":"node","tipo_lugar":"neighbourhood"},"geometry":{"type":"Point","coordinates":[-44.1937378,-2.5517471]}},{"type":"Feature","properties":{"nome":"Trizidela da Maioba","osm_id":7703277360,"osm_tipo":"node","tipo_lugar":"neighbourhood"},"geometry":{"type":"Point","coordinates":[-44.1931789,-2.5391473]}},{"type":"Feature","properties":{"nome":"Cohabiano","osm_id":7703277361,"osm_tipo":"node","tipo_lugar":"neighbourhood"},"geometry":{"type":"Point","coordinates":[-44.1949952,-2.5338577]}},{"type":"Feature","properties":{"nome":"Parque Vitória","osm_id":7703277365,"osm_tipo":"node","tipo_lugar":"suburb"},"geometry":{"type":"Point","coordinates":[-44.2087145,-2.5164106]}},{"type":"Feature","properties":{"nome":"Residencial Canudos","osm_id":7703277367,"osm_tipo":"node","tipo_lugar":"neighbourhood"},"geometry":{"type":"Point","coordinates":[-44.2085736,-2.5205877]}},{"type":"Feature","properties":{"nome":"Residencial Terra Livre","osm_id":7703277368,"osm_tipo":"node","tipo_lugar":"neighbourhood"},"geometry":{"type":"Point","coordinates":[-44.2035009,-2.5206908]}},{"type":"Feature","properties":{"nome":"Parque São José","osm_id":7703277369,"osm_tipo":"node","tipo_lugar":"neighbourhood"},"geometry":{"type":"Point","coordinates":[-44.2015746,-2.5154562]}},{"type":"Feature","properties":{"nome":"Alto do Turu","osm_id":7703277375,"osm_tipo":"node","tipo_lugar":"suburb"},"geometry":{"type":"Point","coordinates":[-44.1955183,-2.510236]}},{"type":"Feature","properties":{"nome":"Residencial Novo Miritiua","osm_id":7703277376,"osm_tipo":"node","tipo_lugar":"neighbourhood"},"geometry":{"type":"Point","coordinates":[-44.1957668,-2.5033912]}},{"type":"Feature","properties":{"nome":"Parque Jair","osm_id":7703277378,"osm_tipo":"node","tipo_lugar":"suburb"},"geometry":{"type":"Point","coordinates":[-44.1816467,-2.50867]}},{"type":"Feature","properties":{"nome":"Vila Tamer","osm_id":7703917076,"osm_tipo":"node","tipo_lugar":"neighbourhood"},"geometry":{"type":"Point","coordinates":[-44.1853719,-2.4782816]}},{"type":"Feature","properties":{"nome":"Panaquatira","osm_id":7704097345,"osm_tipo":"node","tipo_lugar":"suburb"},"geometry":{"type":"Point","coordinates":[-44.0333053,-2.5102031]}},{"type":"Feature","properties":{"nome":"Vila Doutor José Silva","osm_id":7704461316,"osm_tipo":"node","tipo_lugar":"neighbourhood"},"geometry":{"type":"Point","coordinates":[-44.1300047,-2.558025]}},{"type":"Feature","properties":{"nome":"Vila Iraque","osm_id":7704461317,"osm_tipo":"node","tipo_lugar":"neighbourhood"},"geometry":{"type":"Point","coordinates":[-44.1207781,-2.5633755]}},{"type":"Feature","properties":{"nome":"Residencial Turiúba","osm_id":7704461319,"osm_tipo":"node","tipo_lugar":"suburb"},"geometry":{"type":"Point","coordinates":[-44.100273,-2.5646977]}},{"type":"Feature","properties":{"nome":"Riozinho","osm_id":7704461320,"osm_tipo":"node","tipo_lugar":"neighbourhood"},"geometry":{"type":"Point","coordinates":[-44.1165175,-2.5496647]}},{"type":"Feature","properties":{"nome":"Vila Piçarreira","osm_id":7704461321,"osm_tipo":"node","tipo_lugar":"suburb"},"geometry":{"type":"Point","coordinates":[-44.1060384,-2.5489584]}},{"type":"Feature","properties":{"nome":"São José dos Índios","osm_id":7704461322,"osm_tipo":"node","tipo_lugar":"neighbourhood"},"geometry":{"type":"Point","coordinates":[-44.0986775,-2.5481614]}},{"type":"Feature","properties":{"nome":"Vila Monte Alegre","osm_id":7704461323,"osm_tipo":"node","tipo_lugar":"neighbourhood"},"geometry":{"type":"Point","coordinates":[-44.0998379,-2.5535407]}},{"type":"Feature","properties":{"nome":"Vila Doutor Julinho","osm_id":7704461324,"osm_tipo":"node","tipo_lugar":"neighbourhood"},"geometry":{"type":"Point","coordinates":[-44.0823786,-2.5514941]}},{"type":"Feature","properties":{"nome":"Vila Roseana Sarney","osm_id":7704461326,"osm_tipo":"node","tipo_lugar":"suburb"},"geometry":{"type":"Point","coordinates":[-44.0784806,-2.5460785]}},{"type":"Feature","properties":{"nome":"Vila Sarnambi","osm_id":7704461328,"osm_tipo":"node","tipo_lugar":"neighbourhood"},"geometry":{"type":"Point","coordinates":[-44.0631544,-2.5448605]}},{"type":"Feature","properties":{"nome":"Moropoia","osm_id":7704461329,"osm_tipo":"node","tipo_lugar":"suburb"},"geometry":{"type":"Point","coordinates":[-44.0632902,-2.551517]}},{"type":"Feature","properties":{"nome":"Cruzeiro","osm_id":7704461330,"osm_tipo":"node","tipo_lugar":"neighbourhood"},"geometry":{"type":"Point","coordinates":[-44.0589034,-2.5545594]}},{"type":"Feature","properties":{"nome":"São Benedito","osm_id":7704461331,"osm_tipo":"node","tipo_lugar":"neighbourhood"},"geometry":{"type":"Point","coordinates":[-44.0587347,-2.5505943]}},{"type":"Feature","properties":{"nome":"Centro","osm_id":7704461332,"osm_tipo":"node","tipo_lugar":"suburb"},"geometry":{"type":"Point","coordinates":[-44.0567367,-2.5583278]}},{"type":"Feature","properties":{"nome":"Gambarrinha","osm_id":7704461334,"osm_tipo":"node","tipo_lugar":"neighbourhood"},"geometry":{"type":"Point","coordinates":[-44.0747096,-2.5574167]}},{"type":"Feature","properties":{"nome":"Vila Alcione Ferreira","osm_id":7704461335,"osm_tipo":"node","tipo_lugar":"neighbourhood"},"geometry":{"type":"Point","coordinates":[-44.0720444,-2.5545007]}},{"type":"Feature","properties":{"nome":"Mutirão","osm_id":7704461338,"osm_tipo":"node","tipo_lugar":"neighbourhood"},"geometry":{"type":"Point","coordinates":[-44.0725696,-2.5320917]}},{"type":"Feature","properties":{"nome":"Pequapara","osm_id":7704461339,"osm_tipo":"node","tipo_lugar":"neighbourhood"},"geometry":{"type":"Point","coordinates":[-44.0538781,-2.5205582]}},{"type":"Feature","properties":{"nome":"Jararaí","osm_id":7704461341,"osm_tipo":"node","tipo_lugar":"neighbourhood"},"geometry":{"type":"Point","coordinates":[-44.0925199,-2.570909]}},{"type":"Feature","properties":{"nome":"Vila J. Câmara II","osm_id":7704461342,"osm_tipo":"node","tipo_lugar":"neighbourhood"},"geometry":{"type":"Point","coordinates":[-44.0704927,-2.5398405]}},{"type":"Feature","properties":{"nome":"Sítio do Apicum","osm_id":7704461343,"osm_tipo":"node","tipo_lugar":"neighbourhood"},"geometry":{"type":"Point","coordinates":[-44.0621785,-2.5375153]}},{"type":"Feature","properties":{"nome":"Canavieira","osm_id":7704461344,"osm_tipo":"node","tipo_lugar":"neighbourhood"},"geometry":{"type":"Point","coordinates":[-44.0639477,-2.5321503]}},{"type":"Feature","properties":{"nome":"Mojó","osm_id":7704461345,"osm_tipo":"node","tipo_lugar":"neighbourhood"},"geometry":{"type":"Point","coordinates":[-44.0591477,-2.5432841]}},{"type":"Feature","properties":{"nome":"Outeiro","osm_id":7704461346,"osm_tipo":"node","tipo_lugar":"neighbourhood"},"geometry":{"type":"Point","coordinates":[-44.06661,-2.5517798]}},{"type":"Feature","properties":{"nome":"Olho d'Água","osm_id":7704461347,"osm_tipo":"node","tipo_lugar":"neighbourhood"},"geometry":{"type":"Point","coordinates":[-44.0540339,-2.552215]}},{"type":"Feature","properties":{"nome":"Vieira","osm_id":7704461348,"osm_tipo":"node","tipo_lugar":"neighbourhood"},"geometry":{"type":"Point","coordinates":[-44.054299,-2.5553937]}},{"type":"Feature","properties":{"nome":"Barbosa","osm_id":7704461349,"osm_tipo":"node","tipo_lugar":"neighbourhood"},"geometry":{"type":"Point","coordinates":[-44.0566665,-2.5621296]}},{"type":"Feature","properties":{"nome":"Campina","osm_id":7704461350,"osm_tipo":"node","tipo_lugar":"neighbourhood"},"geometry":{"type":"Point","coordinates":[-44.0604924,-2.5577967]}},{"type":"Feature","properties":{"nome":"São Brás e Macacos","osm_id":7704506659,"osm_tipo":"node","tipo_lugar":"neighbourhood"},"geometry":{"type":"Point","coordinates":[-44.1643345,-2.5948491]}},{"type":"Feature","properties":{"nome":"São Paulo","osm_id":7704506660,"osm_tipo":"node","tipo_lugar":"neighbourhood"},"geometry":{"type":"Point","coordinates":[-44.1591036,-2.6619062]}},{"type":"Feature","properties":{"nome":"Altos do Itapiracó","osm_id":7704506662,"osm_tipo":"node","tipo_lugar":"neighbourhood"},"geometry":{"type":"Point","coordinates":[-44.1889171,-2.5253234]}},{"type":"Feature","properties":{"nome":"Residencial Central Park II","osm_id":9411486923,"osm_tipo":"node","tipo_lugar":"neighbourhood"},"geometry":{"type":"Point","coordinates":[-44.2071766,-2.4795332]}},{"type":"Feature","properties":{"nome":"Loteamento Alphaville","osm_id":9411486924,"osm_tipo":"node","tipo_lugar":"neighbourhood"},"geometry":{"type":"Point","coordinates":[-44.2084849,-2.4754959]}},{"type":"Feature","properties":{"nome":"Loteamento Eldorado","osm_id":9411486925,"osm_tipo":"node","tipo_lugar":"neighbourhood"},"geometry":{"type":"Point","coordinates":[-44.2039139,-2.4737751]}},{"type":"Feature","properties":{"nome":"Loteamento Rio da Prata","osm_id":9411486926,"osm_tipo":"node","tipo_lugar":"neighbourhood"},"geometry":{"type":"Point","coordinates":[-44.2046095,-2.4799137]}},{"type":"Feature","properties":{"nome":"Maracajá","osm_id":9466225286,"osm_tipo":"node","tipo_lugar":"neighbourhood"},"geometry":{"type":"Point","coordinates":[-44.1116653,-2.5464686]}},{"type":"Feature","properties":{"nome":"Recanto Verde","osm_id":10248050301,"osm_tipo":"node","tipo_lugar":"neighbourhood"},"geometry":{"type":"Point","coordinates":[-44.1954209,-2.5511392]}},{"type":"Feature","properties":{"nome":"Caminho das Árvores","osm_id":10248050302,"osm_tipo":"node","tipo_lugar":"neighbourhood"},"geometry":{"type":"Point","coordinates":[-44.1984371,-2.5525793]}},{"type":"Feature","properties":{"nome":"Residencial Morada Nova II","osm_id":13293658024,"osm_tipo":"node","tipo_lugar":"neighbourhood"},"geometry":{"type":"Point","coordinates":[-44.160112,-2.5523743]}},{"type":"Feature","properties":{"nome":"Residencial Morada Nova III","osm_id":13293658025,"osm_tipo":"node","tipo_lugar":"neighbourhood"},"geometry":{"type":"Point","coordinates":[-44.1578949,-2.5529526]}},{"type":"Feature","properties":{"nome":"Loteamento Renascer","osm_id":13293713348,"osm_tipo":"node","tipo_lugar":"neighbourhood"},"geometry":{"type":"Point","coordinates":[-44.1998911,-2.5165357]}},{"type":"Feature","properties":{"nome":"Loteamento Espaço Sideral","osm_id":13293713349,"osm_tipo":"node","tipo_lugar":"neighbourhood"},"geometry":{"type":"Point","coordinates":[-44.2022021,-2.5100961]}},{"type":"Feature","properties":{"nome":"Loteamento Monte Belo","osm_id":13401638596,"osm_tipo":"node","tipo_lugar":"neighbourhood"},"geometry":{"type":"Point","coordinates":[-44.1615908,-2.5616666]}},{"type":"Feature","properties":{"nome":"Residencial Olímpico","osm_id":13515897434,"osm_tipo":"node","tipo_lugar":"neighbourhood"},"geometry":{"type":"Point","coordinates":[-44.1709994,-2.5898804]}},{"type":"Feature","properties":{"nome":"Residencial Raio de Sol","osm_id":13515897435,"osm_tipo":"node","tipo_lugar":"neighbourhood"},"geometry":{"type":"Point","coordinates":[-44.1730241,-2.5887215]}},{"type":"Feature","properties":{"nome":"Residencial Outeiro","osm_id":13515897436,"osm_tipo":"node","tipo_lugar":"neighbourhood"},"geometry":{"type":"Point","coordinates":[-44.1624154,-2.6033626]}}]}