{"type":"FeatureCollection","features":[{"type":"Feature","properties":{"nome":"Senador Dinarte de Medeiros Mariz","osm_id":7209085026,"osm_tipo":"node","tipo_lugar":"neighbourhood"},"geometry":{"type":"Point","coordinates":[-36.6468501,-6.4347824]}},{"type":"Feature","properties":{"nome":"Central","osm_id":7209085028,"osm_tipo":"node","tipo_lugar":"neighbourhood"},"geometry":{"type":"Point","coordinates":[-36.640724,-6.4367334]}},{"type":"Feature","properties":{"nome":"Luiz Gonzaga Bezerra","osm_id":7209085029,"osm_tipo":"node","tipo_lugar":"neighbourhood"},"geometry":{"type":"Point","coordinates":[-36.6429706,-6.4356822]}},{"type":"Feature","properties":{"nome":"Petrópolis","osm_id":7209085041,"osm_tipo":"node","tipo_lugar":"neighbourhood"},"geometry":{"type":"Point","coordinates":[-36.6387177,-6.4443987]}},{"type":"Feature","properties":{"nome":"Vereador Tarcísio Bezerra Galvão","osm_id":7209085059,"osm_tipo":"node","tipo_lugar":"neighbourhood"},"geometry":{"type":"Point","coordinates":[-36.6351986,-6.436147]}},{"type":"Feature","properties":{"nome":"Major Ari de Pinho","osm_id":7209085060,"osm_tipo":"node","tipo_lugar":"neighbourhood"},"geometry":{"type":"Point","coordinates":[-36.6404987,-6.4304326]}},{"type":"Feature","properties":{"nome":"Padre José Dantas Cortês","osm_id":7209085071,"osm_tipo":"node","tipo_lugar":"neighbourhood"},"geometry":{"type":"Point","coordinates":[-36.64096,-6.4263919]}}]}