{"type":"FeatureCollection","features":[{"type":"Feature","properties":{"nome":"Estivas","osm_id":5523527856,"osm_tipo":"node","tipo_lugar":"neighbourhood"},"geometry":{"type":"Point","coordinates":[-35.2653086,-5.6676512]}},{"type":"Feature","properties":{"nome":"Vila São Sebastião","osm_id":5523527857,"osm_tipo":"node","tipo_lugar":"neighbourhood"},"geometry":{"type":"Point","coordinates":[-35.2751041,-5.6614268]}},{"type":"Feature","properties":{"nome":"Vila de Fátima","osm_id":5523527858,"osm_tipo":"node","tipo_lugar":"neighbourhood"},"geometry":{"type":"Point","coordinates":[-35.2916479,-5.6585441]}},{"type":"Feature","properties":{"nome":"Araçá","osm_id":5523527864,"osm_tipo":"node","tipo_lugar":"neighbourhood"},"geometry":{"type":"Point","coordinates":[-35.2892018,-5.6505793]}},{"type":"Feature","properties":{"nome":"Santa Maria","osm_id":5523527865,"osm_tipo":"node","tipo_lugar":"neighbourhood"},"geometry":{"type":"Point","coordinates":[-35.2990937,-5.64633]}},{"type":"Feature","properties":{"nome":"Contendas","osm_id":5528421728,"osm_tipo":"node","tipo_lugar":"neighbourhood"},"geometry":{"type":"Point","coordinates":[-35.2399349,-5.6496505]}},{"type":"Feature","properties":{"nome":"Pedrinhas","osm_id":5528421729,"osm_tipo":"node","tipo_lugar":"neighbourhood"},"geometry":{"type":"Point","coordinates":[-35.2556956,-5.6748043]}},{"type":"Feature","properties":{"nome":"Campinas","osm_id":5528421730,"osm_tipo":"node","tipo_lugar":"neighbourhood"},"geometry":{"type":"Point","coordinates":[-35.2351284,-5.7131628]}},{"type":"Feature","properties":{"nome":"Grutas","osm_id":5528421731,"osm_tipo":"node","tipo_lugar":"neighbourhood"},"geometry":{"type":"Point","coordinates":[-35.2384436,-5.6845196]}},{"type":"Feature","properties":{"nome":"Vila de Boca da Ilha","osm_id":5528421732,"osm_tipo":"node","tipo_lugar":"neighbourhood"},"geometry":{"type":"Point","coordinates":[-35.2441084,-5.6866762]}},{"type":"Feature","properties":{"nome":"Redinha Nova","osm_id":5528421733,"osm_tipo":"node","tipo_lugar":"suburb"},"geometry":{"type":"Point","coordinates":[-35.2071906,-5.7257384]}},{"type":"Feature","properties":{"nome":"Santa Rita","osm_id":5528421734,"osm_tipo":"node","tipo_lugar":"suburb"},"geometry":{"type":"Point","coordinates":[-35.1958394,-5.6991563]}},{"type":"Feature","properties":{"nome":"Genipabu","osm_id":5528421735,"osm_tipo":"node","tipo_lugar":"suburb"},"geometry":{"type":"Point","coordinates":[-35.2187938,-5.7055511]}},{"type":"Feature","properties":{"nome":"Barra do Rio","osm_id":5528421736,"osm_tipo":"node","tipo_lugar":"suburb"},"geometry":{"type":"Point","coordinates":[-35.220151,-5.668217]}},{"type":"Feature","properties":{"nome":"Pitangui","osm_id":5528421737,"osm_tipo":"node","tipo_lugar":"neighbourhood"},"geometry":{"type":"Point","coordinates":[-35.2212131,-5.6332188]}},{"type":"Feature","properties":{"nome":"Jardins de Extremoz","osm_id":6394457005,"osm_tipo":"node","tipo_lugar":"neighbourhood"},"geometry":{"type":"Point","coordinates":[-35.2872277,-5.696103]}},{"type":"Feature","properties":{"nome":"Alto Extremoz","osm_id":6394457027,"osm_tipo":"node","tipo_lugar":"neighbourhood"},"geometry":{"type":"Point","coordinates":[-35.290457,-5.7029249]}},{"type":"Feature","properties":{"nome":"Parque da Jaqueira","osm_id":6394457028,"osm_tipo":"node","tipo_lugar":"neighbourhood"},"geometry":{"type":"Point","coordinates":[-35.2951884,-5.7026793]}},{"type":"Feature","properties":{"nome":"Malvinas","osm_id":6394457030,"osm_tipo":"node","tipo_lugar":"neighbourhood"},"geometry":{"type":"Point","coordinates":[-35.3067434,-5.694491]}},{"type":"Feature","properties":{"nome":"Iraque","osm_id":6394457035,"osm_tipo":"node","tipo_lugar":"neighbourhood"},"geometry":{"type":"Point","coordinates":[-35.3097475,-5.6933486]}},{"type":"Feature","properties":{"nome":"Parque das Flores","osm_id":6394457036,"osm_tipo":"node","tipo_lugar":"neighbourhood"},"geometry":{"type":"Point","coordinates":[-35.3073549,-5.703085]}},{"type":"Feature","properties":{"nome":"Centro","osm_id":6394457037,"osm_tipo":"node","tipo_lugar":"suburb"},"geometry":{"type":"Point","coordinates":[-35.3047585,-5.7063411]}},{"type":"Feature","properties":{"nome":"Conjunto Estrela do Mar","osm_id":6394457038,"osm_tipo":"node","tipo_lugar":"neighbourhood"},"geometry":{"type":"Point","coordinates":[-35.2918625,-5.7065866]}},{"type":"Feature","properties":{"nome":"Nova Extremoz","osm_id":6394457041,"osm_tipo":"node","tipo_lugar":"neighbourhood"},"geometry":{"type":"Point","coordinates":[-35.3001625,-5.7089644]}},{"type":"Feature","properties":{"nome":"Murici","osm_id":6394457084,"osm_tipo":"node","tipo_lugar":"neighbourhood"},"geometry":{"type":"Point","coordinates":[-35.2929783,-5.6689644]}},{"type":"Feature","properties":{"nome":"Mirante do Potengi","osm_id":9125516987,"osm_tipo":"node","tipo_lugar":"neighbourhood"},"geometry":{"type":"Point","coordinates":[-35.2389908,-5.6921529]}},{"type":"Feature","properties":{"nome":"Vila Nova de Extremoz","osm_id":9125516988,"osm_tipo":"node","tipo_lugar":"neighbourhood"},"geometry":{"type":"Point","coordinates":[-35.2367216,-5.6987747]}},{"type":"Feature","properties":{"nome":"Portal do Sol","osm_id":9125516989,"osm_tipo":"node","tipo_lugar":"neighbourhood"},"geometry":{"type":"Point","coordinates":[-35.2356863,-5.7042273]}},{"type":"Feature","properties":{"nome":"Central Park Club A","osm_id":11657446819,"osm_tipo":"node","tipo_lugar":"neighbourhood"},"geometry":{"type":"Point","coordinates":[-35.2730227,-5.673032]}},{"type":"Feature","properties":{"nome":"Sport Club V e VI","osm_id":11657446858,"osm_tipo":"node","tipo_lugar":"neighbourhood"},"geometry":{"type":"Point","coordinates":[-35.2996087,-5.6801317]}},{"type":"Feature","properties":{"nome":"Sport Club III e IV","osm_id":11657463469,"osm_tipo":"node","tipo_lugar":"neighbourhood"},"geometry":{"type":"Point","coordinates":[-35.2976427,-5.6682944]}},{"type":"Feature","properties":{"nome":"Sport Club Natal","osm_id":11657463481,"osm_tipo":"node","tipo_lugar":"neighbourhood"},"geometry":{"type":"Point","coordinates":[-35.2416301,-5.6948006]}},{"type":"Feature","properties":{"nome":"Moinho - Etapa A","osm_id":12924994636,"osm_tipo":"node","tipo_lugar":"neighbourhood"},"geometry":{"type":"Point","coordinates":[-35.2720302,-5.6947152]}},{"type":"Feature","properties":{"nome":"Sport Club I e II","osm_id":12924994638,"osm_tipo":"node","tipo_lugar":"neighbourhood"},"geometry":{"type":"Point","coordinates":[-35.2833009,-5.6677579]}},{"type":"Feature","properties":{"nome":"Central Park Club B","osm_id":12924994654,"osm_tipo":"node","tipo_lugar":"neighbourhood"},"geometry":{"type":"Point","coordinates":[-35.2756405,-5.6781353]}},{"type":"Feature","properties":{"nome":"Moinho dos Ventos","osm_id":12924994657,"osm_tipo":"node","tipo_lugar":"neighbourhood"},"geometry":{"type":"Point","coordinates":[-35.2736664,-5.6874875]}},{"type":"Feature","properties":{"nome":"Extremoz - Moinho","osm_id":12925054907,"osm_tipo":"node","tipo_lugar":"neighbourhood"},"geometry":{"type":"Point","coordinates":[-35.2874905,-5.6896548]}},{"type":"Feature","properties":{"nome":"Augusto Severo","osm_id":12925054920,"osm_tipo":"node","tipo_lugar":"neighbourhood"},"geometry":{"type":"Point","coordinates":[-35.2880216,-5.6767741]}},{"type":"Feature","properties":{"nome":"Village de Extremoz","osm_id":12925054921,"osm_tipo":"node","tipo_lugar":"neighbourhood"},"geometry":{"type":"Point","coordinates":[-35.2824158,-5.6841433]}},{"type":"Feature","properties":{"nome":"Riviera","osm_id":12925054929,"osm_tipo":"node","tipo_lugar":"neighbourhood"},"geometry":{"type":"Point","coordinates":[-35.285157,-5.6946778]}},{"type":"Feature","properties":{"nome":"Parque das Palmeiras","osm_id":12925054932,"osm_tipo":"node","tipo_lugar":"neighbourhood"},"geometry":{"type":"Point","coordinates":[-35.288904,-5.6843528]}},{"type":"Feature","properties":{"nome":"Joaquim de Góis","osm_id":12925054953,"osm_tipo":"node","tipo_lugar":"neighbourhood"},"geometry":{"type":"Point","coordinates":[-35.3040504,-5.7039978]}},{"type":"Feature","properties":{"nome":"Castanyeros","osm_id":12925054965,"osm_tipo":"node","tipo_lugar":"neighbourhood"},"geometry":{"type":"Point","coordinates":[-35.3054613,-5.6995193]}},{"type":"Feature","properties":{"nome":"Villa Real I","osm_id":12925054970,"osm_tipo":"node","tipo_lugar":"neighbourhood"},"geometry":{"type":"Point","coordinates":[-35.3098011,-5.699626]}},{"type":"Feature","properties":{"nome":"Santo Amaro","osm_id":12925054983,"osm_tipo":"node","tipo_lugar":"neighbourhood"},"geometry":{"type":"Point","coordinates":[-35.3193605,-5.698046]}},{"type":"Feature","properties":{"nome":"Santa Célia","osm_id":12925054988,"osm_tipo":"node","tipo_lugar":"neighbourhood"},"geometry":{"type":"Point","coordinates":[-35.2848727,-5.6815944]}},{"type":"Feature","properties":{"nome":"Parque da Lagoa","osm_id":12925054990,"osm_tipo":"node","tipo_lugar":"neighbourhood"},"geometry":{"type":"Point","coordinates":[-35.2895598,-5.6990909]}},{"type":"Feature","properties":{"nome":"Villa Maria","osm_id":12925892936,"osm_tipo":"node","tipo_lugar":"neighbourhood"},"geometry":{"type":"Point","coordinates":[-35.2792025,-5.6970132]}},{"type":"Feature","properties":{"nome":"Itália","osm_id":12925892942,"osm_tipo":"node","tipo_lugar":"neighbourhood"},"geometry":{"type":"Point","coordinates":[-35.2789959,-5.6916752]}},{"type":"Feature","properties":{"nome":"Santa Marta","osm_id":12925892954,"osm_tipo":"node","tipo_lugar":"neighbourhood"},"geometry":{"type":"Point","coordinates":[-35.3187919,-5.7000851]}},{"type":"Feature","properties":{"nome":"Alameda Extremoz","osm_id":12925892959,"osm_tipo":"node","tipo_lugar":"neighbourhood"},"geometry":{"type":"Point","coordinates":[-35.2997991,-5.6931538]}},{"type":"Feature","properties":{"nome":"Parque das Carmélias","osm_id":12925892969,"osm_tipo":"node","tipo_lugar":"neighbourhood"},"geometry":{"type":"Point","coordinates":[-35.2777165,-5.6803025]}},{"type":"Feature","properties":{"nome":"Paraíso de Extremoz","osm_id":12925892973,"osm_tipo":"node","tipo_lugar":"neighbourhood"},"geometry":{"type":"Point","coordinates":[-35.275104,-5.6698772]}},{"type":"Feature","properties":{"nome":"Central Parque D","osm_id":12925892978,"osm_tipo":"node","tipo_lugar":"neighbourhood"},"geometry":{"type":"Point","coordinates":[-35.2795646,-5.6872247]}},{"type":"Feature","properties":{"nome":"Jardim dos Pampas","osm_id":12925892982,"osm_tipo":"node","tipo_lugar":"neighbourhood"},"geometry":{"type":"Point","coordinates":[-35.2809539,-5.6887313]}},{"type":"Feature","properties":{"nome":"Loteamento Grande Natal","osm_id":12949252774,"osm_tipo":"node","tipo_lugar":"neighbourhood"},"geometry":{"type":"Point","coordinates":[-35.3086209,-5.6870498]}},{"type":"Feature","properties":{"nome":"Residencial Novo Centro","osm_id":12949252785,"osm_tipo":"node","tipo_lugar":"neighbourhood"},"geometry":{"type":"Point","coordinates":[-35.272446,-5.682267]}},{"type":"Feature","properties":{"nome":"Parque dos Servidores","osm_id":12949252789,"osm_tipo":"node","tipo_lugar":"neighbourhood"},"geometry":{"type":"Point","coordinates":[-35.295631,-5.7065493]}},{"type":"Feature","properties":{"nome":"Jardim Portugual","osm_id":12949252798,"osm_tipo":"node","tipo_lugar":"neighbourhood"},"geometry":{"type":"Point","coordinates":[-35.2707535,-5.684968]}},{"type":"Feature","properties":{"nome":"Jardim Botânico Extremoz","osm_id":12949305903,"osm_tipo":"node","tipo_lugar":"neighbourhood"},"geometry":{"type":"Point","coordinates":[-35.2747393,-5.6903914]}},{"type":"Feature","properties":{"nome":"Vida Nova","osm_id":12951973235,"osm_tipo":"node","tipo_lugar":"neighbourhood"},"geometry":{"type":"Point","coordinates":[-35.267787,-5.6807296]}},{"type":"Feature","properties":{"nome":"Jardins","osm_id":12952036394,"osm_tipo":"node","tipo_lugar":"suburb"},"geometry":{"type":"Point","coordinates":[-35.2794278,-5.691822]}},{"type":"Feature","properties":{"nome":"São Miguel","osm_id":12952036397,"osm_tipo":"node","tipo_lugar":"suburb"},"geometry":{"type":"Point","coordinates":[-35.2893305,-5.6558963]}},{"type":"Feature","properties":{"nome":"Nova Extremoz","osm_id":12952089202,"osm_tipo":"node","tipo_lugar":"suburb"},"geometry":{"type":"Point","coordinates":[-35.2933109,-5.6759093]}},{"type":"Feature","properties":{"nome":"Canaã","osm_id":12952089209,"osm_tipo":"node","tipo_lugar":"suburb"},"geometry":{"type":"Point","coordinates":[-35.3048766,-5.6939892]}},{"type":"Feature","properties":{"nome":"Comum","osm_id":12952089210,"osm_tipo":"node","tipo_lugar":"suburb"},"geometry":{"type":"Point","coordinates":[-35.3157878,-5.7012488]}},{"type":"Feature","properties":{"nome":"Sport Club Natueza","osm_id":12960378414,"osm_tipo":"node","tipo_lugar":"neighbourhood"},"geometry":{"type":"Point","coordinates":[-35.2779901,-5.6694982]}},{"type":"Feature","properties":{"nome":"Estivas","osm_id":12960378424,"osm_tipo":"node","tipo_lugar":"suburb"},"geometry":{"type":"Point","coordinates":[-35.262208,-5.674452]}},{"type":"Feature","properties":{"nome":"Boca da Ilha","osm_id":12960378425,"osm_tipo":"node","tipo_lugar":"suburb"},"geometry":{"type":"Point","coordinates":[-35.2375746,-5.6896547]}},{"type":"Feature","properties":{"nome":"Genipabu Praia","osm_id":12960378430,"osm_tipo":"node","tipo_lugar":"neighbourhood"},"geometry":{"type":"Point","coordinates":[-35.210495,-5.6887153]}},{"type":"Feature","properties":{"nome":"Genipabu de Dentro","osm_id":12960378431,"osm_tipo":"node","tipo_lugar":"neighbourhood"},"geometry":{"type":"Point","coordinates":[-35.2257085,-5.700747]}},{"type":"Feature","properties":{"nome":"Guajiru","osm_id":12960379605,"osm_tipo":"node","tipo_lugar":"suburb"},"geometry":{"type":"Point","coordinates":[-35.2990401,-5.7210413]}},{"type":"Feature","properties":{"nome":"Sollares de Extremoz","osm_id":13196549254,"osm_tipo":"node","tipo_lugar":"neighbourhood"},"geometry":{"type":"Point","coordinates":[-35.297361,-5.6859716]}},{"type":"Feature","properties":{"nome":"Conjunto Potiguar","osm_id":857881172,"osm_tipo":"way","tipo_lugar":"suburb"},"geometry":{"type":"Polygon","coordinates":[[[-35.3002203,-5.699913],[-35.3010077,-5.6945079],[-35.2966134,-5.6969091],[-35.3002203,-5.699913]]]}},{"type":"Feature","properties":{"nome":"Comunidade África","osm_id":11098998,"osm_tipo":"relation","tipo_lugar":"neighbourhood"},"geometry":{"type":"MultiPolygon","coordinates":[[[[-35.2142045,-5.740154],[-35.2139926,-5.739731],[-35.2137562,-5.7393677],[-35.2135205,-5.7389036],[-35.2142045,-5.740154]]],[[[-35.2135205,-5.7389036],[-35.2117395,-5.7391945],[-35.2114016,-5.7387222],[-35.2135205,-5.7389036]]],[[[-35.210165,-5.7395668],[-35.2105891,-5.7392226],[-35.2110703,-5.7388368],[-35.210165,-5.7395668]]],[[[-35.2086311,-5.7409431],[-35.2091585,-5.7401488],[-35.2095053,-5.7399351],[-35.2086311,-5.7409431]]],[[[-35.2086311,-5.7409431],[-35.209019,-5.7413587],[-35.2097332,-5.7422103],[-35.2086311,-5.7409431]]],[[[-35.2097332,-5.7422103],[-35.2098848,-5.7420874],[-35.2103708,-5.7416899],[-35.2097332,-5.7422103]]],[[[-35.2103708,-5.7416899],[-35.2115293,-5.7440991],[-35.2120198,-5.7447734],[-35.2103708,-5.7416899]]],[[[-35.2115264,-5.7456102],[-35.211439,-5.7453946],[-35.2120198,-5.7447734],[-35.2115264,-5.7456102]]],[[[-35.2137246,-5.74548],[-35.2115398,-5.7456411],[-35.2115264,-5.7456102],[-35.2137246,-5.74548]]],[[[-35.2137246,-5.74548],[-35.213996,-5.7454618],[-35.214124,-5.7454521],[-35.2137246,-5.74548]]],[[[-35.2184314,-5.7409539],[-35.2192578,-5.7416531],[-35.214124,-5.7454521],[-35.2184314,-5.7409539]]],[[[-35.2160095,-5.7397795],[-35.2168178,-5.7409726],[-35.2177198,-5.7403818],[-35.2160095,-5.7397795]]],[[[-35.2148911,-5.7400405],[-35.2143198,-5.7400485],[-35.2142045,-5.740154],[-35.2148911,-5.7400405]]],[[[-35.2160095,-5.7397795],[-35.2154678,-5.7399631],[-35.2148911,-5.7400405],[-35.2160095,-5.7397795]]]]}},{"type":"Feature","properties":{"nome":"Loteamento Vila Nova de Extremoz","osm_id":13266237,"osm_tipo":"relation","tipo_lugar":"neighbourhood"},"geometry":{"type":"MultiPolygon","coordinates":[[[[-35.23732,-5.7056155],[-35.2372101,-5.7056718],[-35.2370881,-5.7057329],[-35.23732,-5.7056155]]],[[[-35.2368021,-5.687637],[-35.2378616,-5.68196],[-35.238402,-5.683492],[-35.2368021,-5.687637]]],[[[-35.2375001,-5.7055337],[-35.2373171,-5.6985691],[-35.2369523,-5.6977151],[-35.237065,-5.6915978],[-35.2375001,-5.7055337]]],[[[-35.2365332,-5.7054279],[-35.2364451,-5.7030943],[-35.2364109,-5.7016451],[-35.2363461,-5.7001801],[-35.2365332,-5.7054279]]],[[[-35.2362832,-5.6982348],[-35.2362072,-5.6964372],[-35.2361919,-5.6958231],[-35.2362832,-5.6982348]]],[[[-35.2368021,-5.687637],[-35.2365768,-5.689185],[-35.2364852,-5.6910844],[-35.2368021,-5.687637]]]]}},{"type":"Feature","properties":{"nome":"Loteamento Portal do Sol","osm_id":13266238,"osm_tipo":"relation","tipo_lugar":"neighbourhood"},"geometry":{"type":"MultiPolygon","coordinates":[[[[-35.2338785,-5.6832652],[-35.2341078,-5.6916499],[-35.2342045,-5.6944496],[-35.2338785,-5.6832652]]],[[[-35.2351928,-5.7059807],[-35.235101,-5.7060154],[-35.2346519,-5.7062213],[-35.2351928,-5.7059807]]],[[[-35.2351928,-5.7059807],[-35.2355539,-5.7058315],[-35.2356287,-5.705798],[-35.2361653,-5.7055747],[-35.2351928,-5.7059807]]],[[[-35.2346519,-5.7062213],[-35.2345402,-5.7031681],[-35.2343636,-5.6987905],[-35.2342045,-5.6944496],[-35.2346519,-5.7062213]]],[[[-35.2365332,-5.7054279],[-35.2364451,-5.7030943],[-35.2364109,-5.7016451],[-35.2363461,-5.7001801],[-35.2365332,-5.7054279]]],[[[-35.2362832,-5.6982348],[-35.2362072,-5.6964372],[-35.2361919,-5.6958231],[-35.2362832,-5.6982348]]],[[[-35.2338785,-5.6832652],[-35.2338517,-5.6823844],[-35.2338288,-5.6815748],[-35.2338785,-5.6832652]]],[[[-35.236562,-5.6818386],[-35.2355455,-5.6814449],[-35.2338919,-5.6815503],[-35.236562,-5.6818386]]],[[[-35.236562,-5.6818386],[-35.2358687,-5.6847224],[-35.2368558,-5.6849466],[-35.2368021,-5.687637],[-35.236562,-5.6818386]]],[[[-35.2368021,-5.687637],[-35.2365768,-5.689185],[-35.2364852,-5.6910844],[-35.2368021,-5.687637]]]]}},{"type":"Feature","properties":{"nome":"Pitangui","osm_id":18982301,"osm_tipo":"relation","tipo_lugar":"suburb"},"geometry":{"type":"MultiPolygon","coordinates":[[[[-35.2274808,-5.6122546],[-35.2283451,-5.6123889],[-35.2351753,-5.6138316],[-35.2274808,-5.6122546]]],[[[-35.2175121,-5.6403639],[-35.2168547,-5.6315146],[-35.2153328,-5.6303161],[-35.2164244,-5.6286035],[-35.2195224,-5.6305078],[-35.2231702,-5.6278065],[-35.2274808,-5.6122546],[-35.2175121,-5.6403639]]],[[[-35.2174902,-5.660915],[-35.2160178,-5.6591269],[-35.215917,-5.6543716],[-35.217728,-5.6476683],[-35.2175121,-5.6403639],[-35.2174902,-5.660915]]],[[[-35.219195,-5.6605013],[-35.2182846,-5.6606298],[-35.2178211,-5.6608038],[-35.219195,-5.6605013]]],[[[-35.219195,-5.6605013],[-35.2211026,-5.6603522],[-35.2236459,-5.6602564],[-35.219195,-5.6605013]]],[[[-35.2255476,-5.6569373],[-35.2255261,-5.6579996],[-35.2239811,-5.6599481],[-35.2255476,-5.6569373]]],[[[-35.2238953,-5.6533553],[-35.2273822,-5.6400734],[-35.2302736,-5.6370598],[-35.2311695,-5.6332028],[-35.2298713,-5.6301118],[-35.2351753,-5.6138316],[-35.2238953,-5.6533553]]]]}},{"type":"Feature","properties":{"nome":"Barra do Rio","osm_id":18982302,"osm_tipo":"relation","tipo_lugar":"suburb"},"geometry":{"type":"MultiPolygon","coordinates":[[[[-35.2167538,-5.6754876],[-35.2173123,-5.6717833],[-35.2177899,-5.6659869],[-35.2167538,-5.6754876]]],[[[-35.2177899,-5.6659869],[-35.2176643,-5.6615136],[-35.2174902,-5.660915],[-35.2177899,-5.6659869]]],[[[-35.2182305,-5.6805267],[-35.2164066,-5.6799823],[-35.2169591,-5.6777723],[-35.2182305,-5.6805267]]],[[[-35.2199133,-5.6783342],[-35.2192658,-5.6794751],[-35.2182305,-5.6805267],[-35.2199133,-5.6783342]]],[[[-35.2206989,-5.6754375],[-35.219821,-5.6765846],[-35.2199133,-5.6783342],[-35.2206989,-5.6754375]]],[[[-35.2243781,-5.6727331],[-35.2223816,-5.6742611],[-35.2213747,-5.6748905],[-35.2206989,-5.6754375],[-35.2243781,-5.6727331]]],[[[-35.2243781,-5.6727331],[-35.2223933,-5.6696583],[-35.2222423,-5.6657126],[-35.2243781,-5.6727331]]],[[[-35.2240598,-5.660245],[-35.223729,-5.6626332],[-35.2222423,-5.6657126],[-35.2240598,-5.660245]]],[[[-35.219195,-5.6605013],[-35.2211026,-5.6603522],[-35.2236459,-5.6602564],[-35.219195,-5.6605013]]],[[[-35.219195,-5.6605013],[-35.2182846,-5.6606298],[-35.2178211,-5.6608038],[-35.219195,-5.6605013]]]]}},{"type":"Feature","properties":{"nome":"Genipabu Praia","osm_id":18982303,"osm_tipo":"relation","tipo_lugar":"suburb"},"geometry":{"type":"MultiPolygon","coordinates":[[[[-35.2182305,-5.6805267],[-35.2164066,-5.6799823],[-35.2169591,-5.6777723],[-35.2182305,-5.6805267]]],[[[-35.2199133,-5.6783342],[-35.2192658,-5.6794751],[-35.2182305,-5.6805267],[-35.2199133,-5.6783342]]],[[[-35.2208894,-5.6772951],[-35.220301,-5.6778059],[-35.2199133,-5.6783342],[-35.2208894,-5.6772951]]],[[[-35.2231341,-5.676452],[-35.2212054,-5.6769883],[-35.2208894,-5.6772951],[-35.2231341,-5.676452]]],[[[-35.2263806,-5.6777453],[-35.2256742,-5.6778118],[-35.2245097,-5.6767648],[-35.2231341,-5.676452],[-35.2263806,-5.6777453]]],[[[-35.2200463,-5.6829476],[-35.2246348,-5.680328],[-35.2263305,-5.6780658],[-35.2200463,-5.6829476]]],[[[-35.2065587,-5.6971411],[-35.2117358,-5.6891263],[-35.2199082,-5.6830276],[-35.2065587,-5.6971411]]],[[[-35.1983553,-5.6973868],[-35.2016974,-5.6983663],[-35.2058601,-5.6974909],[-35.1983553,-5.6973868]]],[[[-35.2005601,-5.6955639],[-35.2033281,-5.6949981],[-35.2075708,-5.6911248],[-35.2155268,-5.678242],[-35.2005601,-5.6955639]]]]}},{"type":"Feature","properties":{"nome":"Santa Rita","osm_id":18982304,"osm_tipo":"relation","tipo_lugar":"suburb"},"geometry":{"type":"MultiPolygon","coordinates":[[[[-35.1999056,-5.6952503],[-35.200088,-5.6953944],[-35.2005601,-5.6955639],[-35.1999056,-5.6952503]]],[[[-35.1935792,-5.697975],[-35.194915,-5.6952215],[-35.1999029,-5.6947953],[-35.1935792,-5.697975]]],[[[-35.1968099,-5.7096383],[-35.1927727,-5.7026968],[-35.1935792,-5.697975],[-35.1968099,-5.7096383]]],[[[-35.2011824,-5.7084228],[-35.2009356,-5.7018786],[-35.2006164,-5.6998236],[-35.2011824,-5.7084228]]],[[[-35.1981568,-5.697731],[-35.1976741,-5.6997008],[-35.199509,-5.7005012],[-35.2004609,-5.6993191],[-35.1981568,-5.697731]]]]}},{"type":"Feature","properties":{"nome":"Redinha Nova","osm_id":18982305,"osm_tipo":"relation","tipo_lugar":"suburb"},"geometry":{"type":"MultiPolygon","coordinates":[[[[-35.2086311,-5.7409431],[-35.209019,-5.7413587],[-35.2097332,-5.7422103],[-35.2086311,-5.7409431]]],[[[-35.2078906,-5.74021],[-35.2079523,-5.7402814],[-35.2086311,-5.7409431],[-35.2078906,-5.74021]]],[[[-35.2055249,-5.7425345],[-35.2062132,-5.741277],[-35.2078906,-5.74021],[-35.2055249,-5.7425345]]],[[[-35.2065951,-5.7146387],[-35.2024645,-5.712597],[-35.201118,-5.709042],[-35.2065951,-5.7146387]]],[[[-35.2028062,-5.7328399],[-35.2011422,-5.7212976],[-35.1972046,-5.7111739],[-35.2028062,-5.7328399]]],[[[-35.203321,-5.7359762],[-35.2027563,-5.7357297],[-35.2028062,-5.7328399],[-35.203321,-5.7359762]]],[[[-35.2123729,-5.7242436],[-35.2072552,-5.7191942],[-35.2066812,-5.7151268],[-35.2123729,-5.7242436]]],[[[-35.21366,-5.7387729],[-35.2123296,-5.7365898],[-35.2155751,-5.7284019],[-35.2123729,-5.7242436],[-35.21366,-5.7387729]]],[[[-35.2103708,-5.7416899],[-35.2114901,-5.7407744],[-35.2135205,-5.7389036],[-35.2103708,-5.7416899]]],[[[-35.2097332,-5.7422103],[-35.2098848,-5.7420874],[-35.2103708,-5.7416899],[-35.2097332,-5.7422103]]]]}}]}