{"type":"FeatureCollection","features":[{"type":"Feature","properties":{"nome":"Baixa do Novilho","osm_id":1791530366,"osm_tipo":"node","tipo_lugar":"neighbourhood"},"geometry":{"type":"Point","coordinates":[-35.9271564,-5.3447093]}},{"type":"Feature","properties":{"nome":"Modelo 1","osm_id":1791530412,"osm_tipo":"node","tipo_lugar":"neighbourhood"},"geometry":{"type":"Point","coordinates":[-35.951212,-5.3631976]}},{"type":"Feature","properties":{"nome":"Assentamento Vivara","osm_id":4436183168,"osm_tipo":"node","tipo_lugar":"neighbourhood"},"geometry":{"type":"Point","coordinates":[-35.990664,-5.4219578]}},{"type":"Feature","properties":{"nome":"Lajeado","osm_id":7008886878,"osm_tipo":"node","tipo_lugar":"neighbourhood"},"geometry":{"type":"Point","coordinates":[-35.7989503,-5.4652878]}},{"type":"Feature","properties":{"nome":"Boa Sorte","osm_id":7008886879,"osm_tipo":"node","tipo_lugar":"neighbourhood"},"geometry":{"type":"Point","coordinates":[-35.83354,-5.4694744]}},{"type":"Feature","properties":{"nome":"Xoá","osm_id":7008886880,"osm_tipo":"node","tipo_lugar":"neighbourhood"},"geometry":{"type":"Point","coordinates":[-35.8374883,-5.4392279]}},{"type":"Feature","properties":{"nome":"Marajó","osm_id":7008886881,"osm_tipo":"node","tipo_lugar":"neighbourhood"},"geometry":{"type":"Point","coordinates":[-35.8638383,-5.4681073]}},{"type":"Feature","properties":{"nome":"Brinco de Ouro","osm_id":7008886882,"osm_tipo":"node","tipo_lugar":"neighbourhood"},"geometry":{"type":"Point","coordinates":[-35.8806181,-5.3595246]}},{"type":"Feature","properties":{"nome":"Queimada Grande","osm_id":7008886883,"osm_tipo":"node","tipo_lugar":"neighbourhood"},"geometry":{"type":"Point","coordinates":[-35.8836223,-5.3655705]}},{"type":"Feature","properties":{"nome":"Modelo 2","osm_id":7008886884,"osm_tipo":"node","tipo_lugar":"neighbourhood"},"geometry":{"type":"Point","coordinates":[-35.899458,-5.382063]}},{"type":"Feature","properties":{"nome":"Amarelão","osm_id":7008901185,"osm_tipo":"node","tipo_lugar":"neighbourhood"},"geometry":{"type":"Point","coordinates":[-35.9045863,-5.5135812]}},{"type":"Feature","properties":{"nome":"Assentamento Santa Terezinha","osm_id":7008901186,"osm_tipo":"node","tipo_lugar":"neighbourhood"},"geometry":{"type":"Point","coordinates":[-35.9021616,-5.5264068]}},{"type":"Feature","properties":{"nome":"Assunção","osm_id":7008901188,"osm_tipo":"node","tipo_lugar":"neighbourhood"},"geometry":{"type":"Point","coordinates":[-35.8040142,-5.5079853]}},{"type":"Feature","properties":{"nome":"Morada Nova","osm_id":7008901189,"osm_tipo":"node","tipo_lugar":"neighbourhood"},"geometry":{"type":"Point","coordinates":[-35.8531416,-5.5160801]}},{"type":"Feature","properties":{"nome":"Centro","osm_id":12688010966,"osm_tipo":"node","tipo_lugar":"neighbourhood"},"geometry":{"type":"Point","coordinates":[-35.8160775,-5.5381923]}},{"type":"Feature","properties":{"nome":"São Francisco","osm_id":12688010967,"osm_tipo":"node","tipo_lugar":"neighbourhood"},"geometry":{"type":"Point","coordinates":[-35.8198017,-5.5316448]}},{"type":"Feature","properties":{"nome":"Quatro Bocas","osm_id":12688010970,"osm_tipo":"node","tipo_lugar":"neighbourhood"},"geometry":{"type":"Point","coordinates":[-35.8212125,-5.5266844]}},{"type":"Feature","properties":{"nome":"Vila Nova","osm_id":12688010998,"osm_tipo":"node","tipo_lugar":"neighbourhood"},"geometry":{"type":"Point","coordinates":[-35.8226475,-5.5367199]}},{"type":"Feature","properties":{"nome":"Torreão","osm_id":12688021127,"osm_tipo":"node","tipo_lugar":"neighbourhood"},"geometry":{"type":"Point","coordinates":[-35.8331993,-5.5371564]}},{"type":"Feature","properties":{"nome":"SEAC","osm_id":12688021140,"osm_tipo":"node","tipo_lugar":"neighbourhood"},"geometry":{"type":"Point","coordinates":[-35.8274272,-5.5405562]}},{"type":"Feature","properties":{"nome":"Gafuringa","osm_id":12688021142,"osm_tipo":"node","tipo_lugar":"neighbourhood"},"geometry":{"type":"Point","coordinates":[-35.8240718,-5.5398194]}},{"type":"Feature","properties":{"nome":"Vila Verde","osm_id":12688021143,"osm_tipo":"node","tipo_lugar":"neighbourhood"},"geometry":{"type":"Point","coordinates":[-35.8233154,-5.5531009]}},{"type":"Feature","properties":{"nome":"Planalto","osm_id":12688021154,"osm_tipo":"node","tipo_lugar":"neighbourhood"},"geometry":{"type":"Point","coordinates":[-35.8194771,-5.54868]}},{"type":"Feature","properties":{"nome":"Barroso","osm_id":12688021157,"osm_tipo":"node","tipo_lugar":"neighbourhood"},"geometry":{"type":"Point","coordinates":[-35.8219448,-5.541843]}},{"type":"Feature","properties":{"nome":"São Luís","osm_id":12688021165,"osm_tipo":"node","tipo_lugar":"neighbourhood"},"geometry":{"type":"Point","coordinates":[-35.8062888,-5.5439307]}},{"type":"Feature","properties":{"nome":"I.P.E.","osm_id":12688021169,"osm_tipo":"node","tipo_lugar":"neighbourhood"},"geometry":{"type":"Point","coordinates":[-35.8165026,-5.5429696]}},{"type":"Feature","properties":{"nome":"COHAB","osm_id":12688021170,"osm_tipo":"node","tipo_lugar":"neighbourhood"},"geometry":{"type":"Point","coordinates":[-35.8149791,-5.5479245]}},{"type":"Feature","properties":{"nome":"Solares","osm_id":12688021173,"osm_tipo":"node","tipo_lugar":"neighbourhood"},"geometry":{"type":"Point","coordinates":[-35.814507,-5.5544811]}},{"type":"Feature","properties":{"nome":"Jardim das Margaridas","osm_id":12846961219,"osm_tipo":"node","tipo_lugar":"neighbourhood"},"geometry":{"type":"Point","coordinates":[-35.7832539,-5.5467499]}},{"type":"Feature","properties":{"nome":"Assunção","osm_id":12846961221,"osm_tipo":"node","tipo_lugar":"neighbourhood"},"geometry":{"type":"Point","coordinates":[-35.8076191,-5.5189101]}},{"type":"Feature","properties":{"nome":"Bela Vista","osm_id":12846961226,"osm_tipo":"node","tipo_lugar":"neighbourhood"},"geometry":{"type":"Point","coordinates":[-35.8106929,-5.5310494]}},{"type":"Feature","properties":{"nome":"Boa Vista","osm_id":12846961234,"osm_tipo":"node","tipo_lugar":"neighbourhood"},"geometry":{"type":"Point","coordinates":[-35.804776,-5.5367973]}},{"type":"Feature","properties":{"nome":"Brejinho","osm_id":12846961251,"osm_tipo":"node","tipo_lugar":"neighbourhood"},"geometry":{"type":"Point","coordinates":[-35.814035,-5.5242816]}},{"type":"Feature","properties":{"nome":"São José","osm_id":12846961288,"osm_tipo":"node","tipo_lugar":"neighbourhood"},"geometry":{"type":"Point","coordinates":[-35.8149308,-5.532136]}}]}