{"type":"FeatureCollection","features":[{"type":"Feature","properties":{"nome":"Bajada Grande","osm_id":198439838,"osm_tipo":"node","tipo_lugar":"suburb"},"geometry":{"type":"Point","coordinates":[-60.5657773,-31.7114309]}},{"type":"Feature","properties":{"nome":"Puerto Sánchez","osm_id":4139320455,"osm_tipo":"node","tipo_lugar":"neighbourhood"},"geometry":{"type":"Point","coordinates":[-60.5122645,-31.7170748]}},{"type":"Feature","properties":{"nome":"Los Cedros","osm_id":4676630478,"osm_tipo":"node","tipo_lugar":"neighbourhood"},"geometry":{"type":"Point","coordinates":[-60.512065,-31.7915752]}},{"type":"Feature","properties":{"nome":"Paraná XX-XXI","osm_id":4716692916,"osm_tipo":"node","tipo_lugar":"neighbourhood"},"geometry":{"type":"Point","coordinates":[-60.4883326,-31.7545446]}},{"type":"Feature","properties":{"nome":"Estación Parera","osm_id":9376983101,"osm_tipo":"node","tipo_lugar":"neighbourhood"},"geometry":{"type":"Point","coordinates":[-60.4525914,-31.7562046]}},{"type":"Feature","properties":{"nome":"Las Rosas","osm_id":9377018516,"osm_tipo":"node","tipo_lugar":"neighbourhood"},"geometry":{"type":"Point","coordinates":[-60.4673489,-31.7589947]}},{"type":"Feature","properties":{"nome":"Barrio Santa Lucia","osm_id":9377460646,"osm_tipo":"node","tipo_lugar":"neighbourhood"},"geometry":{"type":"Point","coordinates":[-60.5190978,-31.7666866]}},{"type":"Feature","properties":{"nome":"Paraje Las Piedras","osm_id":9379591787,"osm_tipo":"node","tipo_lugar":"neighbourhood"},"geometry":{"type":"Point","coordinates":[-60.5489761,-31.774766]}},{"type":"Feature","properties":{"nome":"Lomas del Brete","osm_id":9390776842,"osm_tipo":"node","tipo_lugar":"neighbourhood"},"geometry":{"type":"Point","coordinates":[-60.4951046,-31.7331947]}},{"type":"Feature","properties":{"nome":"López Jordan","osm_id":9390776916,"osm_tipo":"node","tipo_lugar":"neighbourhood"},"geometry":{"type":"Point","coordinates":[-60.4847364,-31.7511321]}},{"type":"Feature","properties":{"nome":"San Agustín","osm_id":9392448353,"osm_tipo":"node","tipo_lugar":"neighbourhood"},"geometry":{"type":"Point","coordinates":[-60.5482863,-31.7363293]}},{"type":"Feature","properties":{"nome":"El Sol","osm_id":9392575222,"osm_tipo":"node","tipo_lugar":"neighbourhood"},"geometry":{"type":"Point","coordinates":[-60.5408725,-31.7393364]}},{"type":"Feature","properties":{"nome":"Los Gobernadores","osm_id":9392575233,"osm_tipo":"node","tipo_lugar":"neighbourhood"},"geometry":{"type":"Point","coordinates":[-60.4942755,-31.7638289]}},{"type":"Feature","properties":{"nome":"Villa Yatay","osm_id":9393276710,"osm_tipo":"node","tipo_lugar":"neighbourhood"},"geometry":{"type":"Point","coordinates":[-60.5081218,-31.7278119]}},{"type":"Feature","properties":{"nome":"Macarone","osm_id":9393276712,"osm_tipo":"node","tipo_lugar":"neighbourhood"},"geometry":{"type":"Point","coordinates":[-60.5182092,-31.723917]}},{"type":"Feature","properties":{"nome":"Country Club de Campo","osm_id":9394770469,"osm_tipo":"node","tipo_lugar":"neighbourhood"},"geometry":{"type":"Point","coordinates":[-60.5626303,-31.7871432]}},{"type":"Feature","properties":{"nome":"La Floresta","osm_id":9394790077,"osm_tipo":"node","tipo_lugar":"neighbourhood"},"geometry":{"type":"Point","coordinates":[-60.5519943,-31.7314759]}},{"type":"Feature","properties":{"nome":"Barrio 30 de Octubre","osm_id":9395252337,"osm_tipo":"node","tipo_lugar":"neighbourhood"},"geometry":{"type":"Point","coordinates":[-60.5077301,-31.7315999]}},{"type":"Feature","properties":{"nome":"San Agustín","osm_id":9402604362,"osm_tipo":"node","tipo_lugar":"neighbourhood"},"geometry":{"type":"Point","coordinates":[-60.5454237,-31.7375695]}},{"type":"Feature","properties":{"nome":"Anacleto Medina sur","osm_id":9402604365,"osm_tipo":"node","tipo_lugar":"neighbourhood"},"geometry":{"type":"Point","coordinates":[-60.5559504,-31.7451533]}},{"type":"Feature","properties":{"nome":"El Morro","osm_id":9408029161,"osm_tipo":"node","tipo_lugar":"neighbourhood"},"geometry":{"type":"Point","coordinates":[-60.5142114,-31.7192727]}},{"type":"Feature","properties":{"nome":"San Agustín","osm_id":9413092085,"osm_tipo":"node","tipo_lugar":"neighbourhood"},"geometry":{"type":"Point","coordinates":[-60.5412328,-31.7433578]}},{"type":"Feature","properties":{"nome":"Corrales","osm_id":9420458757,"osm_tipo":"node","tipo_lugar":"neighbourhood"},"geometry":{"type":"Point","coordinates":[-60.5030209,-31.7588808]}},{"type":"Feature","properties":{"nome":"El Perejil","osm_id":11097956990,"osm_tipo":"node","tipo_lugar":"neighbourhood"},"geometry":{"type":"Point","coordinates":[-60.5424792,-31.7647757]}},{"type":"Feature","properties":{"nome":"Pedrolini","osm_id":11303507274,"osm_tipo":"node","tipo_lugar":"neighbourhood"},"geometry":{"type":"Point","coordinates":[-60.5073268,-31.7534338]}},{"type":"Feature","properties":{"nome":"Mercantil","osm_id":11336558320,"osm_tipo":"node","tipo_lugar":"neighbourhood"},"geometry":{"type":"Point","coordinates":[-60.5415359,-31.7458073]}},{"type":"Feature","properties":{"nome":"Kolbe","osm_id":11336558321,"osm_tipo":"node","tipo_lugar":"neighbourhood"},"geometry":{"type":"Point","coordinates":[-60.5463957,-31.7456262]}},{"type":"Feature","properties":{"nome":"3 de Febrero","osm_id":11336732722,"osm_tipo":"node","tipo_lugar":"neighbourhood"},"geometry":{"type":"Point","coordinates":[-60.5444683,-31.7414523]}},{"type":"Feature","properties":{"nome":"17 de Febrero","osm_id":11336732723,"osm_tipo":"node","tipo_lugar":"neighbourhood"},"geometry":{"type":"Point","coordinates":[-60.5449978,-31.7349048]}},{"type":"Feature","properties":{"nome":"El Progreso","osm_id":11336732724,"osm_tipo":"node","tipo_lugar":"neighbourhood"},"geometry":{"type":"Point","coordinates":[-60.5420328,-31.7376043]}},{"type":"Feature","properties":{"nome":"Pirola","osm_id":11336815888,"osm_tipo":"node","tipo_lugar":"neighbourhood"},"geometry":{"type":"Point","coordinates":[-60.5393964,-31.7403439]}},{"type":"Feature","properties":{"nome":"Giachino","osm_id":11336815890,"osm_tipo":"node","tipo_lugar":"neighbourhood"},"geometry":{"type":"Point","coordinates":[-60.5425798,-31.7356765]}},{"type":"Feature","properties":{"nome":"San Agustín Centro","osm_id":11336815891,"osm_tipo":"node","tipo_lugar":"neighbourhood"},"geometry":{"type":"Point","coordinates":[-60.548012,-31.732347]}},{"type":"Feature","properties":{"nome":"Floresta Sur","osm_id":11336815892,"osm_tipo":"node","tipo_lugar":"neighbourhood"},"geometry":{"type":"Point","coordinates":[-60.5524767,-31.7328686]}},{"type":"Feature","properties":{"nome":"Smith","osm_id":11336815893,"osm_tipo":"node","tipo_lugar":"neighbourhood"},"geometry":{"type":"Point","coordinates":[-60.5539712,-31.735434]}},{"type":"Feature","properties":{"nome":"Costanera Oeste","osm_id":11336815894,"osm_tipo":"node","tipo_lugar":"neighbourhood"},"geometry":{"type":"Point","coordinates":[-60.5545495,-31.7329411]}},{"type":"Feature","properties":{"nome":"Barranca Oeste","osm_id":11336815900,"osm_tipo":"node","tipo_lugar":"neighbourhood"},"geometry":{"type":"Point","coordinates":[-60.5568124,-31.7326588]}},{"type":"Feature","properties":{"nome":"CO.VE.FLO","osm_id":11336815901,"osm_tipo":"node","tipo_lugar":"neighbourhood"},"geometry":{"type":"Point","coordinates":[-60.5508064,-31.7276836]}},{"type":"Feature","properties":{"nome":"Virgen de Lourdes","osm_id":11336911665,"osm_tipo":"node","tipo_lugar":"neighbourhood"},"geometry":{"type":"Point","coordinates":[-60.5389777,-31.7273434]}},{"type":"Feature","properties":{"nome":"33 Orientales","osm_id":11336911666,"osm_tipo":"node","tipo_lugar":"neighbourhood"},"geometry":{"type":"Point","coordinates":[-60.5378664,-31.7337688]}},{"type":"Feature","properties":{"nome":"Carlos Pellegrini","osm_id":11336911667,"osm_tipo":"node","tipo_lugar":"neighbourhood"},"geometry":{"type":"Point","coordinates":[-60.5327102,-31.7339855]}},{"type":"Feature","properties":{"nome":"Saenz Peña","osm_id":11336911668,"osm_tipo":"node","tipo_lugar":"neighbourhood"},"geometry":{"type":"Point","coordinates":[-60.5265299,-31.7408362]}},{"type":"Feature","properties":{"nome":"Leopoldo Lugones","osm_id":11339310163,"osm_tipo":"node","tipo_lugar":"neighbourhood"},"geometry":{"type":"Point","coordinates":[-60.5296642,-31.7577536]}},{"type":"Feature","properties":{"nome":"Juan Carlos Wirth","osm_id":11339310164,"osm_tipo":"node","tipo_lugar":"neighbourhood"},"geometry":{"type":"Point","coordinates":[-60.5226761,-31.7574935]}},{"type":"Feature","properties":{"nome":"Quintas Al Sur","osm_id":11339310165,"osm_tipo":"node","tipo_lugar":"neighbourhood"},"geometry":{"type":"Point","coordinates":[-60.5255085,-31.7580424]}},{"type":"Feature","properties":{"nome":"Lomas del Rocamora","osm_id":11339417471,"osm_tipo":"node","tipo_lugar":"neighbourhood"},"geometry":{"type":"Point","coordinates":[-60.51846,-31.7596134]}},{"type":"Feature","properties":{"nome":"Los Aromos","osm_id":11339417473,"osm_tipo":"node","tipo_lugar":"neighbourhood"},"geometry":{"type":"Point","coordinates":[-60.5140069,-31.758955]}},{"type":"Feature","properties":{"nome":"Artigas","osm_id":11339581988,"osm_tipo":"node","tipo_lugar":"neighbourhood"},"geometry":{"type":"Point","coordinates":[-60.5114832,-31.7606548]}},{"type":"Feature","properties":{"nome":"Santa María","osm_id":11339581989,"osm_tipo":"node","tipo_lugar":"neighbourhood"},"geometry":{"type":"Point","coordinates":[-60.5077448,-31.7612861]}},{"type":"Feature","properties":{"nome":"Gazzano","osm_id":11339581990,"osm_tipo":"node","tipo_lugar":"neighbourhood"},"geometry":{"type":"Point","coordinates":[-60.5010881,-31.7622906]}},{"type":"Feature","properties":{"nome":"La Perlita","osm_id":11339623784,"osm_tipo":"node","tipo_lugar":"neighbourhood"},"geometry":{"type":"Point","coordinates":[-60.4988444,-31.7573347]}},{"type":"Feature","properties":{"nome":"Cuenta de Unamuno","osm_id":11339623785,"osm_tipo":"node","tipo_lugar":"neighbourhood"},"geometry":{"type":"Point","coordinates":[-60.5017648,-31.7567373]}},{"type":"Feature","properties":{"nome":"Los Intendentes","osm_id":11339623786,"osm_tipo":"node","tipo_lugar":"neighbourhood"},"geometry":{"type":"Point","coordinates":[-60.5064318,-31.7576577]}},{"type":"Feature","properties":{"nome":"Jarín Los Tilos","osm_id":11341314808,"osm_tipo":"node","tipo_lugar":"neighbourhood"},"geometry":{"type":"Point","coordinates":[-60.5132728,-31.7564682]}},{"type":"Feature","properties":{"nome":"Paisaje de La Colina","osm_id":11341314809,"osm_tipo":"node","tipo_lugar":"neighbourhood"},"geometry":{"type":"Point","coordinates":[-60.5116016,-31.7548249]}},{"type":"Feature","properties":{"nome":"Padre Kentenich","osm_id":11342128262,"osm_tipo":"node","tipo_lugar":"neighbourhood"},"geometry":{"type":"Point","coordinates":[-60.5316819,-31.7632188]}},{"type":"Feature","properties":{"nome":"Lomas del Sur","osm_id":11342128263,"osm_tipo":"node","tipo_lugar":"neighbourhood"},"geometry":{"type":"Point","coordinates":[-60.5253528,-31.76323]}},{"type":"Feature","properties":{"nome":"Raúl Salas","osm_id":11342128264,"osm_tipo":"node","tipo_lugar":"neighbourhood"},"geometry":{"type":"Point","coordinates":[-60.5150888,-31.7495081]}},{"type":"Feature","properties":{"nome":"14 de Febrero","osm_id":11342128267,"osm_tipo":"node","tipo_lugar":"neighbourhood"},"geometry":{"type":"Point","coordinates":[-60.5179026,-31.7506078]}},{"type":"Feature","properties":{"nome":"Olegario Victor Andrade","osm_id":11342128268,"osm_tipo":"node","tipo_lugar":"neighbourhood"},"geometry":{"type":"Point","coordinates":[-60.5223353,-31.7497978]}},{"type":"Feature","properties":{"nome":"María Auxiliadora","osm_id":11342132598,"osm_tipo":"node","tipo_lugar":"neighbourhood"},"geometry":{"type":"Point","coordinates":[-60.519764,-31.7313491]}},{"type":"Feature","properties":{"nome":"La Santiagueña","osm_id":11342132599,"osm_tipo":"node","tipo_lugar":"neighbourhood"},"geometry":{"type":"Point","coordinates":[-60.5196501,-31.726396]}},{"type":"Feature","properties":{"nome":"Leandro N. Alem","osm_id":11342132600,"osm_tipo":"node","tipo_lugar":"neighbourhood"},"geometry":{"type":"Point","coordinates":[-60.5265463,-31.7275596]}},{"type":"Feature","properties":{"nome":"Parque Urquiza","osm_id":11342132601,"osm_tipo":"node","tipo_lugar":"neighbourhood"},"geometry":{"type":"Point","coordinates":[-60.5315806,-31.7229439]}},{"type":"Feature","properties":{"nome":"Centro Oeste","osm_id":11342205269,"osm_tipo":"node","tipo_lugar":"neighbourhood"},"geometry":{"type":"Point","coordinates":[-60.523325,-31.7379247]}},{"type":"Feature","properties":{"nome":"Pablo Balbi","osm_id":11346715930,"osm_tipo":"node","tipo_lugar":"neighbourhood"},"geometry":{"type":"Point","coordinates":[-60.5444442,-31.7255601]}},{"type":"Feature","properties":{"nome":"Villa María","osm_id":11346715933,"osm_tipo":"node","tipo_lugar":"neighbourhood"},"geometry":{"type":"Point","coordinates":[-60.5458641,-31.7273031]}},{"type":"Feature","properties":{"nome":"Puente Blanco","osm_id":11346715936,"osm_tipo":"node","tipo_lugar":"neighbourhood"},"geometry":{"type":"Point","coordinates":[-60.5485674,-31.7275147]}},{"type":"Feature","properties":{"nome":"Humito","osm_id":11346785576,"osm_tipo":"node","tipo_lugar":"neighbourhood"},"geometry":{"type":"Point","coordinates":[-60.5481009,-31.7247662]}},{"type":"Feature","properties":{"nome":"General Espejo","osm_id":11347517805,"osm_tipo":"node","tipo_lugar":"neighbourhood"},"geometry":{"type":"Point","coordinates":[-60.5325001,-31.7697611]}},{"type":"Feature","properties":{"nome":"Paracao","osm_id":11347517806,"osm_tipo":"node","tipo_lugar":"neighbourhood"},"geometry":{"type":"Point","coordinates":[-60.5270085,-31.7710251]}},{"type":"Feature","properties":{"nome":"7 de Mayo","osm_id":11347517809,"osm_tipo":"node","tipo_lugar":"neighbourhood"},"geometry":{"type":"Point","coordinates":[-60.5196873,-31.7626847]}},{"type":"Feature","properties":{"nome":"Italia","osm_id":11349802969,"osm_tipo":"node","tipo_lugar":"neighbourhood"},"geometry":{"type":"Point","coordinates":[-60.5153071,-31.7243028]}},{"type":"Feature","properties":{"nome":"Florida","osm_id":11349802971,"osm_tipo":"node","tipo_lugar":"neighbourhood"},"geometry":{"type":"Point","coordinates":[-60.5118416,-31.7261495]}},{"type":"Feature","properties":{"nome":"Fe y Esperanza","osm_id":11349802972,"osm_tipo":"node","tipo_lugar":"neighbourhood"},"geometry":{"type":"Point","coordinates":[-60.5131584,-31.7306048]}},{"type":"Feature","properties":{"nome":"Arroyo Culandrillo I","osm_id":11349802974,"osm_tipo":"node","tipo_lugar":"neighbourhood"},"geometry":{"type":"Point","coordinates":[-60.5107391,-31.7324258]}},{"type":"Feature","properties":{"nome":"Villa Sarmiento","osm_id":11349802975,"osm_tipo":"node","tipo_lugar":"neighbourhood"},"geometry":{"type":"Point","coordinates":[-60.513284,-31.7356888]}},{"type":"Feature","properties":{"nome":"Villa del Parque","osm_id":11349901429,"osm_tipo":"node","tipo_lugar":"neighbourhood"},"geometry":{"type":"Point","coordinates":[-60.4888675,-31.7348723]}},{"type":"Feature","properties":{"nome":"Villa Hermosa","osm_id":11349901430,"osm_tipo":"node","tipo_lugar":"neighbourhood"},"geometry":{"type":"Point","coordinates":[-60.4906875,-31.7392089]}},{"type":"Feature","properties":{"nome":"Loma Hermosa","osm_id":11349901431,"osm_tipo":"node","tipo_lugar":"neighbourhood"},"geometry":{"type":"Point","coordinates":[-60.4963297,-31.7369799]}},{"type":"Feature","properties":{"nome":"Mariano Moreno","osm_id":11349901434,"osm_tipo":"node","tipo_lugar":"neighbourhood"},"geometry":{"type":"Point","coordinates":[-60.4971524,-31.7344164]}},{"type":"Feature","properties":{"nome":"Cantera Yatay","osm_id":11351497105,"osm_tipo":"node","tipo_lugar":"neighbourhood"},"geometry":{"type":"Point","coordinates":[-60.506901,-31.7257442]}},{"type":"Feature","properties":{"nome":"Consejo","osm_id":11351497107,"osm_tipo":"node","tipo_lugar":"neighbourhood"},"geometry":{"type":"Point","coordinates":[-60.5091352,-31.7310504]}},{"type":"Feature","properties":{"nome":"Arroyo Culandrillo","osm_id":11351497108,"osm_tipo":"node","tipo_lugar":"neighbourhood"},"geometry":{"type":"Point","coordinates":[-60.5090529,-31.7358805]}},{"type":"Feature","properties":{"nome":"Raúl Ibarra","osm_id":11351497109,"osm_tipo":"node","tipo_lugar":"neighbourhood"},"geometry":{"type":"Point","coordinates":[-60.5061984,-31.73658]}},{"type":"Feature","properties":{"nome":"Juan Vucetich","osm_id":11351497110,"osm_tipo":"node","tipo_lugar":"neighbourhood"},"geometry":{"type":"Point","coordinates":[-60.504402,-31.7382296]}},{"type":"Feature","properties":{"nome":"Independencia","osm_id":11351497111,"osm_tipo":"node","tipo_lugar":"neighbourhood"},"geometry":{"type":"Point","coordinates":[-60.5028464,-31.7355996]}},{"type":"Feature","properties":{"nome":"Scapellato","osm_id":11351497112,"osm_tipo":"node","tipo_lugar":"neighbourhood"},"geometry":{"type":"Point","coordinates":[-60.5020217,-31.7372578]}},{"type":"Feature","properties":{"nome":"El Ceibo","osm_id":11351497114,"osm_tipo":"node","tipo_lugar":"neighbourhood"},"geometry":{"type":"Point","coordinates":[-60.5021598,-31.7388714]}},{"type":"Feature","properties":{"nome":"Centro","osm_id":11352111966,"osm_tipo":"node","tipo_lugar":"neighbourhood"},"geometry":{"type":"Point","coordinates":[-60.5331217,-31.7293768]}},{"type":"Feature","properties":{"nome":"Santa Teresita","osm_id":11358738870,"osm_tipo":"node","tipo_lugar":"neighbourhood"},"geometry":{"type":"Point","coordinates":[-60.5136783,-31.7417189]}},{"type":"Feature","properties":{"nome":"Guillermo Saravi","osm_id":11358738871,"osm_tipo":"node","tipo_lugar":"neighbourhood"},"geometry":{"type":"Point","coordinates":[-60.5099914,-31.7398357]}},{"type":"Feature","properties":{"nome":"Estanislao Ceballos","osm_id":11358738872,"osm_tipo":"node","tipo_lugar":"neighbourhood"},"geometry":{"type":"Point","coordinates":[-60.5072846,-31.7415518]}},{"type":"Feature","properties":{"nome":"Tiro Federal","osm_id":11358738874,"osm_tipo":"node","tipo_lugar":"neighbourhood"},"geometry":{"type":"Point","coordinates":[-60.5034044,-31.7423595]}},{"type":"Feature","properties":{"nome":"Prefectura Naval Argentina","osm_id":11358744825,"osm_tipo":"node","tipo_lugar":"neighbourhood"},"geometry":{"type":"Point","coordinates":[-60.4938363,-31.7840079]}},{"type":"Feature","properties":{"nome":"Juan Pablo II","osm_id":11358744827,"osm_tipo":"node","tipo_lugar":"neighbourhood"},"geometry":{"type":"Point","coordinates":[-60.4946131,-31.7890084]}},{"type":"Feature","properties":{"nome":"Parque Mayor","osm_id":11358744841,"osm_tipo":"node","tipo_lugar":"neighbourhood"},"geometry":{"type":"Point","coordinates":[-60.5052054,-31.7713379]}},{"type":"Feature","properties":{"nome":"Jardines Sur","osm_id":11358744844,"osm_tipo":"node","tipo_lugar":"neighbourhood"},"geometry":{"type":"Point","coordinates":[-60.5101793,-31.7694997]}},{"type":"Feature","properties":{"nome":"Lagos del Sur","osm_id":11359366924,"osm_tipo":"node","tipo_lugar":"neighbourhood"},"geometry":{"type":"Point","coordinates":[-60.5125177,-31.7669233]}},{"type":"Feature","properties":{"nome":"Antonio Gauchito Gil","osm_id":11359366925,"osm_tipo":"node","tipo_lugar":"neighbourhood"},"geometry":{"type":"Point","coordinates":[-60.5126261,-31.7655406]}},{"type":"Feature","properties":{"nome":"San Francisco Javier","osm_id":11359366926,"osm_tipo":"node","tipo_lugar":"neighbourhood"},"geometry":{"type":"Point","coordinates":[-60.5121382,-31.7638097]}},{"type":"Feature","properties":{"nome":"Los pinos","osm_id":11359366927,"osm_tipo":"node","tipo_lugar":"neighbourhood"},"geometry":{"type":"Point","coordinates":[-60.5148316,-31.7620624]}},{"type":"Feature","properties":{"nome":"19 de Septiembre","osm_id":11360236747,"osm_tipo":"node","tipo_lugar":"neighbourhood"},"geometry":{"type":"Point","coordinates":[-60.507329,-31.7464561]}},{"type":"Feature","properties":{"nome":"Itatí","osm_id":11360236750,"osm_tipo":"node","tipo_lugar":"neighbourhood"},"geometry":{"type":"Point","coordinates":[-60.4999168,-31.7457769]}},{"type":"Feature","properties":{"nome":"25 de Mayo","osm_id":11360236751,"osm_tipo":"node","tipo_lugar":"neighbourhood"},"geometry":{"type":"Point","coordinates":[-60.5006982,-31.7476411]}},{"type":"Feature","properties":{"nome":"Ciudad de Paraná","osm_id":11360236752,"osm_tipo":"node","tipo_lugar":"neighbourhood"},"geometry":{"type":"Point","coordinates":[-60.5015886,-31.7499429]}},{"type":"Feature","properties":{"nome":"Universitario","osm_id":11360244628,"osm_tipo":"node","tipo_lugar":"neighbourhood"},"geometry":{"type":"Point","coordinates":[-60.4972565,-31.7493754]}},{"type":"Feature","properties":{"nome":"La Milagrosa","osm_id":11360244631,"osm_tipo":"node","tipo_lugar":"neighbourhood"},"geometry":{"type":"Point","coordinates":[-60.4939284,-31.7518691]}},{"type":"Feature","properties":{"nome":"Guiraldes","osm_id":11360244632,"osm_tipo":"node","tipo_lugar":"neighbourhood"},"geometry":{"type":"Point","coordinates":[-60.4912552,-31.7479129]}},{"type":"Feature","properties":{"nome":"Vitali","osm_id":11360504758,"osm_tipo":"node","tipo_lugar":"neighbourhood"},"geometry":{"type":"Point","coordinates":[-60.4820612,-31.7574584]}},{"type":"Feature","properties":{"nome":"Barrio UOCRA","osm_id":11360504761,"osm_tipo":"node","tipo_lugar":"neighbourhood"},"geometry":{"type":"Point","coordinates":[-60.4770817,-31.7636955]}},{"type":"Feature","properties":{"nome":"Corona Sur","osm_id":11360504762,"osm_tipo":"node","tipo_lugar":"neighbourhood"},"geometry":{"type":"Point","coordinates":[-60.4791457,-31.7616523]}},{"type":"Feature","properties":{"nome":"AATRA","osm_id":11365145901,"osm_tipo":"node","tipo_lugar":"neighbourhood"},"geometry":{"type":"Point","coordinates":[-60.4856564,-31.7424429]}},{"type":"Feature","properties":{"nome":"SOETAP","osm_id":11365145902,"osm_tipo":"node","tipo_lugar":"neighbourhood"},"geometry":{"type":"Point","coordinates":[-60.4836906,-31.7413719]}},{"type":"Feature","properties":{"nome":"Almirante Brown","osm_id":11365145903,"osm_tipo":"node","tipo_lugar":"neighbourhood"},"geometry":{"type":"Point","coordinates":[-60.489903,-31.7443407]}},{"type":"Feature","properties":{"nome":"Paraná XIV","osm_id":11365145904,"osm_tipo":"node","tipo_lugar":"neighbourhood"},"geometry":{"type":"Point","coordinates":[-60.4927907,-31.744387]}},{"type":"Feature","properties":{"nome":"Dos Arroyos","osm_id":11365145905,"osm_tipo":"node","tipo_lugar":"neighbourhood"},"geometry":{"type":"Point","coordinates":[-60.4962057,-31.7448276]}},{"type":"Feature","properties":{"nome":"Pagani Chico","osm_id":11365145906,"osm_tipo":"node","tipo_lugar":"neighbourhood"},"geometry":{"type":"Point","coordinates":[-60.4985833,-31.7442366]}},{"type":"Feature","properties":{"nome":"Corrales","osm_id":11366928736,"osm_tipo":"node","tipo_lugar":"neighbourhood"},"geometry":{"type":"Point","coordinates":[-60.4923841,-31.7591121]}},{"type":"Feature","properties":{"nome":"Villa Uranga","osm_id":11366928737,"osm_tipo":"node","tipo_lugar":"neighbourhood"},"geometry":{"type":"Point","coordinates":[-60.4883883,-31.7597041]}},{"type":"Feature","properties":{"nome":"Villa Lola","osm_id":11366928740,"osm_tipo":"node","tipo_lugar":"neighbourhood"},"geometry":{"type":"Point","coordinates":[-60.4844423,-31.7604123]}},{"type":"Feature","properties":{"nome":"20 de Junio","osm_id":11366928741,"osm_tipo":"node","tipo_lugar":"neighbourhood"},"geometry":{"type":"Point","coordinates":[-60.478786,-31.7662239]}},{"type":"Feature","properties":{"nome":"Los Paraísos","osm_id":11366928742,"osm_tipo":"node","tipo_lugar":"neighbourhood"},"geometry":{"type":"Point","coordinates":[-60.4847288,-31.7652126]}},{"type":"Feature","properties":{"nome":"Santa María del Rosario","osm_id":11366928743,"osm_tipo":"node","tipo_lugar":"neighbourhood"},"geometry":{"type":"Point","coordinates":[-60.4904543,-31.7641255]}},{"type":"Feature","properties":{"nome":"El Triangulo","osm_id":11369675424,"osm_tipo":"node","tipo_lugar":"neighbourhood"},"geometry":{"type":"Point","coordinates":[-60.4982602,-31.7718858]}},{"type":"Feature","properties":{"nome":"Parque del Lago","osm_id":11369675426,"osm_tipo":"node","tipo_lugar":"neighbourhood"},"geometry":{"type":"Point","coordinates":[-60.4958095,-31.7682057]}},{"type":"Feature","properties":{"nome":"Las Heras","osm_id":11369675427,"osm_tipo":"node","tipo_lugar":"neighbourhood"},"geometry":{"type":"Point","coordinates":[-60.4969898,-31.7639255]}},{"type":"Feature","properties":{"nome":"La Buena Fe","osm_id":11369675428,"osm_tipo":"node","tipo_lugar":"neighbourhood"},"geometry":{"type":"Point","coordinates":[-60.4955491,-31.7745049]}},{"type":"Feature","properties":{"nome":"6 de Febrero","osm_id":11369675429,"osm_tipo":"node","tipo_lugar":"neighbourhood"},"geometry":{"type":"Point","coordinates":[-60.4971746,-31.7773764]}},{"type":"Feature","properties":{"nome":"CAPIBA","osm_id":11371686299,"osm_tipo":"node","tipo_lugar":"neighbourhood"},"geometry":{"type":"Point","coordinates":[-60.5011493,-31.7892903]}},{"type":"Feature","properties":{"nome":"Radar","osm_id":11371686306,"osm_tipo":"node","tipo_lugar":"neighbourhood"},"geometry":{"type":"Point","coordinates":[-60.4904215,-31.7944569]}},{"type":"Feature","properties":{"nome":"Jorge Newbery","osm_id":11371695035,"osm_tipo":"node","tipo_lugar":"neighbourhood"},"geometry":{"type":"Point","coordinates":[-60.4869936,-31.7748865]}},{"type":"Feature","properties":{"nome":"Unidad","osm_id":11371695036,"osm_tipo":"node","tipo_lugar":"neighbourhood"},"geometry":{"type":"Point","coordinates":[-60.485281,-31.7699991]}},{"type":"Feature","properties":{"nome":"Justo José de Urquiza","osm_id":11371695037,"osm_tipo":"node","tipo_lugar":"neighbourhood"},"geometry":{"type":"Point","coordinates":[-60.4801488,-31.7735727]}},{"type":"Feature","properties":{"nome":"21 de Septiembre","osm_id":11371720970,"osm_tipo":"node","tipo_lugar":"neighbourhood"},"geometry":{"type":"Point","coordinates":[-60.49087,-31.7795035]}},{"type":"Feature","properties":{"nome":"80 Viviendas Jorge Newbery","osm_id":11371720971,"osm_tipo":"node","tipo_lugar":"neighbourhood"},"geometry":{"type":"Point","coordinates":[-60.4975457,-31.779727]}},{"type":"Feature","properties":{"nome":"Nuestra Señora de Loreto","osm_id":11371720972,"osm_tipo":"node","tipo_lugar":"neighbourhood"},"geometry":{"type":"Point","coordinates":[-60.5012928,-31.778525]}},{"type":"Feature","properties":{"nome":"Jorge Newbery Oeste","osm_id":11371720973,"osm_tipo":"node","tipo_lugar":"neighbourhood"},"geometry":{"type":"Point","coordinates":[-60.5046444,-31.7755097]}},{"type":"Feature","properties":{"nome":"Lomas del Mirador","osm_id":11374202837,"osm_tipo":"node","tipo_lugar":"neighbourhood"},"geometry":{"type":"Point","coordinates":[-60.4885344,-31.7495798]}},{"type":"Feature","properties":{"nome":"Lomas del Mirador II","osm_id":11374202838,"osm_tipo":"node","tipo_lugar":"neighbourhood"},"geometry":{"type":"Point","coordinates":[-60.488426,-31.7510366]}},{"type":"Feature","properties":{"nome":"Circunvalación","osm_id":11374202840,"osm_tipo":"node","tipo_lugar":"neighbourhood"},"geometry":{"type":"Point","coordinates":[-60.4810381,-31.7458484]}},{"type":"Feature","properties":{"nome":"Quintas Al Este","osm_id":11374202841,"osm_tipo":"node","tipo_lugar":"neighbourhood"},"geometry":{"type":"Point","coordinates":[-60.4738154,-31.7490618]}},{"type":"Feature","properties":{"nome":"Jardín Las Rosas","osm_id":11374202842,"osm_tipo":"node","tipo_lugar":"neighbourhood"},"geometry":{"type":"Point","coordinates":[-60.4700585,-31.7525731]}},{"type":"Feature","properties":{"nome":"El Trebol","osm_id":11374202843,"osm_tipo":"node","tipo_lugar":"neighbourhood"},"geometry":{"type":"Point","coordinates":[-60.4644486,-31.7536454]}},{"type":"Feature","properties":{"nome":"4 de Junio","osm_id":11374202844,"osm_tipo":"node","tipo_lugar":"neighbourhood"},"geometry":{"type":"Point","coordinates":[-60.4780197,-31.7550991]}},{"type":"Feature","properties":{"nome":"Presidente Ilia","osm_id":11374202845,"osm_tipo":"node","tipo_lugar":"neighbourhood"},"geometry":{"type":"Point","coordinates":[-60.4718804,-31.7623308]}},{"type":"Feature","properties":{"nome":"Lomas del Golf","osm_id":11374241094,"osm_tipo":"node","tipo_lugar":"neighbourhood"},"geometry":{"type":"Point","coordinates":[-60.4954649,-31.7134379]}},{"type":"Feature","properties":{"nome":"Parque del Río","osm_id":11375245678,"osm_tipo":"node","tipo_lugar":"neighbourhood"},"geometry":{"type":"Point","coordinates":[-60.4800163,-31.7158089]}},{"type":"Feature","properties":{"nome":"Nueva Ciudad","osm_id":11375245723,"osm_tipo":"node","tipo_lugar":"neighbourhood"},"geometry":{"type":"Point","coordinates":[-60.4855223,-31.7234051]}},{"type":"Feature","properties":{"nome":"Hernandarias","osm_id":11375245725,"osm_tipo":"node","tipo_lugar":"neighbourhood"},"geometry":{"type":"Point","coordinates":[-60.4876919,-31.7262091]}},{"type":"Feature","properties":{"nome":"Villa Almendral","osm_id":11375245727,"osm_tipo":"node","tipo_lugar":"neighbourhood"},"geometry":{"type":"Point","coordinates":[-60.511046,-31.7205499]}},{"type":"Feature","properties":{"nome":"Barrio Thompson","osm_id":11375245766,"osm_tipo":"node","tipo_lugar":"neighbourhood"},"geometry":{"type":"Point","coordinates":[-60.5098851,-31.7179562]}},{"type":"Feature","properties":{"nome":"San José de Puerto Nuevo","osm_id":11378630659,"osm_tipo":"node","tipo_lugar":"neighbourhood"},"geometry":{"type":"Point","coordinates":[-60.5219022,-31.7212724]}},{"type":"Feature","properties":{"nome":"San Roque Nuevo","osm_id":11378630661,"osm_tipo":"node","tipo_lugar":"neighbourhood"},"geometry":{"type":"Point","coordinates":[-60.5027228,-31.7294438]}},{"type":"Feature","properties":{"nome":"Orlando Sachetti","osm_id":11378630663,"osm_tipo":"node","tipo_lugar":"neighbourhood"},"geometry":{"type":"Point","coordinates":[-60.4993256,-31.7308928]}},{"type":"Feature","properties":{"nome":"Reconstrucción Barrial Ibicu","osm_id":11380158711,"osm_tipo":"node","tipo_lugar":"neighbourhood"},"geometry":{"type":"Point","coordinates":[-60.5487426,-31.741755]}},{"type":"Feature","properties":{"nome":"Santa Rita","osm_id":11380158714,"osm_tipo":"node","tipo_lugar":"neighbourhood"},"geometry":{"type":"Point","coordinates":[-60.5528931,-31.7436175]}},{"type":"Feature","properties":{"nome":"Gaucho Rivero","osm_id":11380158715,"osm_tipo":"node","tipo_lugar":"neighbourhood"},"geometry":{"type":"Point","coordinates":[-60.5502368,-31.7444347]}},{"type":"Feature","properties":{"nome":"San Jorge","osm_id":11380158716,"osm_tipo":"node","tipo_lugar":"neighbourhood"},"geometry":{"type":"Point","coordinates":[-60.5533976,-31.7458996]}},{"type":"Feature","properties":{"nome":"Anacleto Medina Norte","osm_id":11380163376,"osm_tipo":"node","tipo_lugar":"neighbourhood"},"geometry":{"type":"Point","coordinates":[-60.5556932,-31.741767]}},{"type":"Feature","properties":{"nome":"Paisaje Del Sudoeste","osm_id":11399154185,"osm_tipo":"node","tipo_lugar":"neighbourhood"},"geometry":{"type":"Point","coordinates":[-60.5539501,-31.7394153]}},{"type":"Feature","properties":{"nome":"San Agustín Sud Oeste","osm_id":11399154186,"osm_tipo":"node","tipo_lugar":"neighbourhood"},"geometry":{"type":"Point","coordinates":[-60.5492615,-31.7383987]}},{"type":"Feature","properties":{"nome":"Bartolomé Mitre","osm_id":11399264215,"osm_tipo":"node","tipo_lugar":"neighbourhood"},"geometry":{"type":"Point","coordinates":[-60.5338097,-31.7433462]}},{"type":"Feature","properties":{"nome":"Cuarteles","osm_id":11399264216,"osm_tipo":"node","tipo_lugar":"neighbourhood"},"geometry":{"type":"Point","coordinates":[-60.5351342,-31.7457677]}},{"type":"Feature","properties":{"nome":"Elpidio González","osm_id":11404206090,"osm_tipo":"node","tipo_lugar":"neighbourhood"},"geometry":{"type":"Point","coordinates":[-60.5263527,-31.7472194]}},{"type":"Feature","properties":{"nome":"General Belgrano","osm_id":11404216824,"osm_tipo":"node","tipo_lugar":"neighbourhood"},"geometry":{"type":"Point","coordinates":[-60.5314016,-31.747271]}},{"type":"Feature","properties":{"nome":"La Delfina","osm_id":11404216825,"osm_tipo":"node","tipo_lugar":"neighbourhood"},"geometry":{"type":"Point","coordinates":[-60.5296958,-31.7500369]}},{"type":"Feature","properties":{"nome":"Antonini","osm_id":11404216826,"osm_tipo":"node","tipo_lugar":"neighbourhood"},"geometry":{"type":"Point","coordinates":[-60.5327989,-31.7502182]}},{"type":"Feature","properties":{"nome":"La Chacra","osm_id":12964656009,"osm_tipo":"node","tipo_lugar":"neighbourhood"},"geometry":{"type":"Point","coordinates":[-60.4750368,-31.7570252]}},{"type":"Feature","properties":{"nome":"Barrio médico","osm_id":13507257308,"osm_tipo":"node","tipo_lugar":"neighbourhood"},"geometry":{"type":"Point","coordinates":[-60.4943958,-31.7204667]}},{"type":"Feature","properties":{"nome":"Brisas del oeste","osm_id":308232156,"osm_tipo":"way","tipo_lugar":"neighbourhood"},"geometry":{"type":"Polygon","coordinates":[[[-60.5591758,-31.7161416],[-60.558883,-31.720007],[-60.5556454,-31.7192132],[-60.5591758,-31.7161416]]]}},{"type":"Feature","properties":{"nome":"Barrio ATM 7","osm_id":551188087,"osm_tipo":"way","tipo_lugar":"neighbourhood"},"geometry":{"type":"Polygon","coordinates":[[[-60.5020396,-31.778419],[-60.5042578,-31.7780314],[-60.504298,-31.7781887],[-60.5020396,-31.778419]]]}},{"type":"Feature","properties":{"nome":"Barrio ATM 5","osm_id":551188088,"osm_tipo":"way","tipo_lugar":"neighbourhood"},"geometry":{"type":"Polygon","coordinates":[[[-60.5024178,-31.7779493],[-60.5024526,-31.778093],[-60.5019618,-31.7781751],[-60.5024178,-31.7779493]]]}}]}