{"type":"FeatureCollection","features":[{"type":"Feature","properties":{"nome":"Cidade Viva","osm_id":13638315545,"osm_tipo":"node","tipo_lugar":"neighbourhood"},"geometry":{"type":"Point","coordinates":[-54.4862684,-16.6195604]}},{"type":"Feature","properties":{"nome":"Chico Simão","osm_id":13638315546,"osm_tipo":"node","tipo_lugar":"neighbourhood"},"geometry":{"type":"Point","coordinates":[-54.4864567,-16.6072317]}},{"type":"Feature","properties":{"nome":"Altos de Pedra Preta","osm_id":13638315547,"osm_tipo":"node","tipo_lugar":"neighbourhood"},"geometry":{"type":"Point","coordinates":[-54.4917845,-16.6088912]}},{"type":"Feature","properties":{"nome":"Três Irmãos","osm_id":13638315548,"osm_tipo":"node","tipo_lugar":"neighbourhood"},"geometry":{"type":"Point","coordinates":[-54.4710582,-16.6148422]}},{"type":"Feature","properties":{"nome":"Cidade Jurigue","osm_id":13638315549,"osm_tipo":"node","tipo_lugar":"neighbourhood"},"geometry":{"type":"Point","coordinates":[-54.4775662,-16.6208669]}},{"type":"Feature","properties":{"nome":"Jinya Konno","osm_id":13638315550,"osm_tipo":"node","tipo_lugar":"neighbourhood"},"geometry":{"type":"Point","coordinates":[-54.4672637,-16.6184042]}},{"type":"Feature","properties":{"nome":"Vila Goiás","osm_id":13638315554,"osm_tipo":"node","tipo_lugar":"neighbourhood"},"geometry":{"type":"Point","coordinates":[-54.4678291,-16.6243097]}},{"type":"Feature","properties":{"nome":"Jardim Mato Grosso","osm_id":13638315555,"osm_tipo":"node","tipo_lugar":"neighbourhood"},"geometry":{"type":"Point","coordinates":[-54.4585965,-16.6184251]}},{"type":"Feature","properties":{"nome":"João de Barro","osm_id":13638315559,"osm_tipo":"node","tipo_lugar":"neighbourhood"},"geometry":{"type":"Point","coordinates":[-54.4839346,-16.6209342]}},{"type":"Feature","properties":{"nome":"São Sebastião","osm_id":13652904489,"osm_tipo":"node","tipo_lugar":"neighbourhood"},"geometry":{"type":"Point","coordinates":[-54.4649899,-16.6144592]}},{"type":"Feature","properties":{"nome":"Centro","osm_id":13652904490,"osm_tipo":"node","tipo_lugar":"neighbourhood"},"geometry":{"type":"Point","coordinates":[-54.4735837,-16.6227044]}}]}