{"type":"FeatureCollection","features":[{"type":"Feature","properties":{"nome":"Morros Barreiro","osm_id":416654226,"osm_tipo":"node","tipo_lugar":"neighbourhood"},"geometry":{"type":"Point","coordinates":[-35.7604706,-5.100473]}},{"type":"Feature","properties":{"nome":"Tábua do Reduto","osm_id":4436261863,"osm_tipo":"node","tipo_lugar":"neighbourhood"},"geometry":{"type":"Point","coordinates":[-35.7003071,-5.1362057]}},{"type":"Feature","properties":{"nome":"Angico de Fora","osm_id":4436261891,"osm_tipo":"node","tipo_lugar":"neighbourhood"},"geometry":{"type":"Point","coordinates":[-35.6910286,-5.1729864]}},{"type":"Feature","properties":{"nome":"Frejó","osm_id":4436261904,"osm_tipo":"node","tipo_lugar":"neighbourhood"},"geometry":{"type":"Point","coordinates":[-35.7596086,-5.1760335]}},{"type":"Feature","properties":{"nome":"Ouro Bruto","osm_id":4436261916,"osm_tipo":"node","tipo_lugar":"neighbourhood"},"geometry":{"type":"Point","coordinates":[-35.7747529,-5.1956708]}},{"type":"Feature","properties":{"nome":"Imburana","osm_id":4436261940,"osm_tipo":"node","tipo_lugar":"neighbourhood"},"geometry":{"type":"Point","coordinates":[-35.8020026,-5.2140843]}},{"type":"Feature","properties":{"nome":"Antônio Conselheiro","osm_id":4436294716,"osm_tipo":"node","tipo_lugar":"neighbourhood"},"geometry":{"type":"Point","coordinates":[-35.7108635,-5.1947214]}},{"type":"Feature","properties":{"nome":"Mundo Novo","osm_id":4436294994,"osm_tipo":"node","tipo_lugar":"neighbourhood"},"geometry":{"type":"Point","coordinates":[-35.6736754,-5.2141841]}},{"type":"Feature","properties":{"nome":"Agrovila Paraíso","osm_id":4436295008,"osm_tipo":"node","tipo_lugar":"neighbourhood"},"geometry":{"type":"Point","coordinates":[-35.6870505,-5.2261575]}},{"type":"Feature","properties":{"nome":"Baixinha dos França","osm_id":7008886818,"osm_tipo":"node","tipo_lugar":"neighbourhood"},"geometry":{"type":"Point","coordinates":[-35.8094216,-5.2583156]}},{"type":"Feature","properties":{"nome":"Cruzamento","osm_id":7008886820,"osm_tipo":"node","tipo_lugar":"neighbourhood"},"geometry":{"type":"Point","coordinates":[-35.7581377,-5.2914769]}},{"type":"Feature","properties":{"nome":"Assentamento Canto da Ilha de Cima 2","osm_id":7009199027,"osm_tipo":"node","tipo_lugar":"neighbourhood"},"geometry":{"type":"Point","coordinates":[-35.7646609,-5.1059051]}},{"type":"Feature","properties":{"nome":"Assentamento Canto da Ilha de Cima 1","osm_id":7009199028,"osm_tipo":"node","tipo_lugar":"neighbourhood"},"geometry":{"type":"Point","coordinates":[-35.790453,-5.1027847]}},{"type":"Feature","properties":{"nome":"Assentamento Popular Maria Aparecida","osm_id":12915498478,"osm_tipo":"node","tipo_lugar":"neighbourhood"},"geometry":{"type":"Point","coordinates":[-35.6640573,-5.1183263]}}]}