{"type":"FeatureCollection","features":[{"type":"Feature","properties":{"nome":"Lagoa do Canto","osm_id":5769223865,"osm_tipo":"node","tipo_lugar":"neighbourhood"},"geometry":{"type":"Point","coordinates":[-35.7291117,-5.9154053]}},{"type":"Feature","properties":{"nome":"Curicaça","osm_id":5769223867,"osm_tipo":"node","tipo_lugar":"neighbourhood"},"geometry":{"type":"Point","coordinates":[-35.7918356,-5.908871]}},{"type":"Feature","properties":{"nome":"Manjericão","osm_id":6532061614,"osm_tipo":"node","tipo_lugar":"neighbourhood"},"geometry":{"type":"Point","coordinates":[-35.6963565,-5.8764206]}},{"type":"Feature","properties":{"nome":"Jurema","osm_id":6532061615,"osm_tipo":"node","tipo_lugar":"neighbourhood"},"geometry":{"type":"Point","coordinates":[-35.8225268,-5.8981558]}},{"type":"Feature","properties":{"nome":"Bairro Mons. Expedito","osm_id":6532061638,"osm_tipo":"node","tipo_lugar":"neighbourhood"},"geometry":{"type":"Point","coordinates":[-35.7646608,-5.8676756]}},{"type":"Feature","properties":{"nome":"Oiteiros","osm_id":6532061639,"osm_tipo":"node","tipo_lugar":"neighbourhood"},"geometry":{"type":"Point","coordinates":[-35.6949449,-5.9147025]}},{"type":"Feature","properties":{"nome":"Cabaço","osm_id":6532061640,"osm_tipo":"node","tipo_lugar":"neighbourhood"},"geometry":{"type":"Point","coordinates":[-35.7041073,-5.9132938]}},{"type":"Feature","properties":{"nome":"Lagoa da Quixabá","osm_id":6532090945,"osm_tipo":"node","tipo_lugar":"neighbourhood"},"geometry":{"type":"Point","coordinates":[-35.6881428,-5.9604396]}},{"type":"Feature","properties":{"nome":"Vila Campo Grande","osm_id":6532090981,"osm_tipo":"node","tipo_lugar":"neighbourhood"},"geometry":{"type":"Point","coordinates":[-35.7742095,-5.902558]}},{"type":"Feature","properties":{"nome":"Campo Grande","osm_id":6532090987,"osm_tipo":"node","tipo_lugar":"neighbourhood"},"geometry":{"type":"Point","coordinates":[-35.7781363,-5.8971046]}},{"type":"Feature","properties":{"nome":"Cachoeirinha","osm_id":6532090988,"osm_tipo":"node","tipo_lugar":"neighbourhood"},"geometry":{"type":"Point","coordinates":[-35.7471407,-5.9444545]}},{"type":"Feature","properties":{"nome":"Arisco de Condessa","osm_id":6532091198,"osm_tipo":"node","tipo_lugar":"neighbourhood"},"geometry":{"type":"Point","coordinates":[-35.7660127,-5.9178827]}},{"type":"Feature","properties":{"nome":"Lagoa Comprida","osm_id":6532091199,"osm_tipo":"node","tipo_lugar":"neighbourhood"},"geometry":{"type":"Point","coordinates":[-35.8209229,-5.9403994]}},{"type":"Feature","properties":{"nome":"Conjunto Santa Clara","osm_id":6532116584,"osm_tipo":"node","tipo_lugar":"neighbourhood"},"geometry":{"type":"Point","coordinates":[-35.7608301,-5.9012592]}},{"type":"Feature","properties":{"nome":"Nossa Senhora Aparecida","osm_id":6532149685,"osm_tipo":"node","tipo_lugar":"neighbourhood"},"geometry":{"type":"Point","coordinates":[-35.761128,-5.8978115]}},{"type":"Feature","properties":{"nome":"Alto do Potengi","osm_id":6532149686,"osm_tipo":"node","tipo_lugar":"neighbourhood"},"geometry":{"type":"Point","coordinates":[-35.7571185,-5.9081821]}},{"type":"Feature","properties":{"nome":"Conj João XXIII","osm_id":6810407553,"osm_tipo":"node","tipo_lugar":"neighbourhood"},"geometry":{"type":"Point","coordinates":[-35.7688239,-5.8995992]}},{"type":"Feature","properties":{"nome":"Bairro Santos Dumont","osm_id":6810444110,"osm_tipo":"node","tipo_lugar":"neighbourhood"},"geometry":{"type":"Point","coordinates":[-35.7689569,-5.8954732]}}]}