{"type":"FeatureCollection","features":[{"type":"Feature","properties":{"nome":"Engenho","osm_id":6379058450,"osm_tipo":"node","tipo_lugar":"suburb"},"geometry":{"type":"Point","coordinates":[-44.7055279,-22.1917448]}},{"type":"Feature","properties":{"nome":"Garrafão","osm_id":6379101967,"osm_tipo":"node","tipo_lugar":"suburb"},"geometry":{"type":"Point","coordinates":[-44.7266379,-22.184155]}},{"type":"Feature","properties":{"nome":"Companhia","osm_id":6379110070,"osm_tipo":"node","tipo_lugar":"suburb"},"geometry":{"type":"Point","coordinates":[-44.68776,-22.1822689]}},{"type":"Feature","properties":{"nome":"Boa Vista","osm_id":6379124400,"osm_tipo":"node","tipo_lugar":"suburb"},"geometry":{"type":"Point","coordinates":[-44.6817705,-22.1950107]}},{"type":"Feature","properties":{"nome":"Quilombo","osm_id":6379124411,"osm_tipo":"node","tipo_lugar":"suburb"},"geometry":{"type":"Point","coordinates":[-44.696006,-22.2033129]}}]}