{"type":"FeatureCollection","features":[{"type":"Feature","properties":{"nome":"Gaspar Lopes","osm_id":4045685212,"osm_tipo":"node","tipo_lugar":"suburb"},"geometry":{"type":"Point","coordinates":[-45.9318282,-21.3657866]}},{"type":"Feature","properties":{"nome":"Centro","osm_id":5835068605,"osm_tipo":"node","tipo_lugar":"suburb"},"geometry":{"type":"Point","coordinates":[-45.9473348,-21.4258056]}},{"type":"Feature","properties":{"nome":"Vila Formosa","osm_id":5835068606,"osm_tipo":"node","tipo_lugar":"suburb"},"geometry":{"type":"Point","coordinates":[-45.9422708,-21.4328166]}},{"type":"Feature","properties":{"nome":"Estação","osm_id":5835068607,"osm_tipo":"node","tipo_lugar":"suburb"},"geometry":{"type":"Point","coordinates":[-45.941155,-21.4275434]}},{"type":"Feature","properties":{"nome":"Vila Santos Reis","osm_id":5835068608,"osm_tipo":"node","tipo_lugar":"suburb"},"geometry":{"type":"Point","coordinates":[-45.9377003,-21.4259854]}},{"type":"Feature","properties":{"nome":"Jardim Aeroporto","osm_id":5835068611,"osm_tipo":"node","tipo_lugar":"suburb"},"geometry":{"type":"Point","coordinates":[-45.9364558,-21.4326568]}},{"type":"Feature","properties":{"nome":"Residencial São Lucas","osm_id":5835068653,"osm_tipo":"node","tipo_lugar":"suburb"},"geometry":{"type":"Point","coordinates":[-45.9394598,-21.4396375]}},{"type":"Feature","properties":{"nome":"Jardim São Lucas","osm_id":5835068661,"osm_tipo":"node","tipo_lugar":"suburb"},"geometry":{"type":"Point","coordinates":[-45.9430003,-21.4380896]}},{"type":"Feature","properties":{"nome":"Residencial Alto do Aeroporto","osm_id":5835068677,"osm_tipo":"node","tipo_lugar":"suburb"},"geometry":{"type":"Point","coordinates":[-45.932411,-21.4400569]}},{"type":"Feature","properties":{"nome":"Campinho","osm_id":5835068682,"osm_tipo":"node","tipo_lugar":"suburb"},"geometry":{"type":"Point","coordinates":[-45.9457684,-21.4352334]}},{"type":"Feature","properties":{"nome":"Cruz Preta","osm_id":5835070786,"osm_tipo":"node","tipo_lugar":"suburb"},"geometry":{"type":"Point","coordinates":[-45.9476567,-21.4398272]}},{"type":"Feature","properties":{"nome":"Jardim das Palmeiras","osm_id":5835070792,"osm_tipo":"node","tipo_lugar":"suburb"},"geometry":{"type":"Point","coordinates":[-45.9495342,-21.455545]}},{"type":"Feature","properties":{"nome":"Vila Teixeira","osm_id":5835070809,"osm_tipo":"node","tipo_lugar":"suburb"},"geometry":{"type":"Point","coordinates":[-45.9516263,-21.443622]}},{"type":"Feature","properties":{"nome":"Vila Santa Maria","osm_id":5835070815,"osm_tipo":"node","tipo_lugar":"suburb"},"geometry":{"type":"Point","coordinates":[-45.9561646,-21.4400969]}},{"type":"Feature","properties":{"nome":"Jardim Panorama","osm_id":5835070827,"osm_tipo":"node","tipo_lugar":"suburb"},"geometry":{"type":"Point","coordinates":[-45.9513044,-21.4384691]}},{"type":"Feature","properties":{"nome":"Vista Alegre","osm_id":5835070828,"osm_tipo":"node","tipo_lugar":"suburb"},"geometry":{"type":"Point","coordinates":[-45.952431,-21.435523]}},{"type":"Feature","properties":{"nome":"Vila São Vicente","osm_id":5835070836,"osm_tipo":"node","tipo_lugar":"suburb"},"geometry":{"type":"Point","coordinates":[-45.953064,-21.4312886]}},{"type":"Feature","properties":{"nome":"Jardim da Colina","osm_id":5835070841,"osm_tipo":"node","tipo_lugar":"suburb"},"geometry":{"type":"Point","coordinates":[-45.9618402,-21.4331911]}},{"type":"Feature","properties":{"nome":"Colinas Park","osm_id":5835070842,"osm_tipo":"node","tipo_lugar":"suburb"},"geometry":{"type":"Point","coordinates":[-45.9646833,-21.4320077]}},{"type":"Feature","properties":{"nome":"Jardim Tropical","osm_id":5835070843,"osm_tipo":"node","tipo_lugar":"suburb"},"geometry":{"type":"Point","coordinates":[-45.9609068,-21.4297006]}},{"type":"Feature","properties":{"nome":"Vila Godoy","osm_id":5835070859,"osm_tipo":"node","tipo_lugar":"suburb"},"geometry":{"type":"Point","coordinates":[-45.9548557,-21.4278031]}},{"type":"Feature","properties":{"nome":"Jardim Elite","osm_id":5835070860,"osm_tipo":"node","tipo_lugar":"suburb"},"geometry":{"type":"Point","coordinates":[-45.9592545,-21.4274885]}},{"type":"Feature","properties":{"nome":"Residencial Novo Horizonte","osm_id":5835070865,"osm_tipo":"node","tipo_lugar":"suburb"},"geometry":{"type":"Point","coordinates":[-45.9684169,-21.4253861]}},{"type":"Feature","properties":{"nome":"Residencial Vale Verde","osm_id":5835070873,"osm_tipo":"node","tipo_lugar":"suburb"},"geometry":{"type":"Point","coordinates":[-45.9734273,-21.4253762]}},{"type":"Feature","properties":{"nome":"Pinheirinho","osm_id":5835070881,"osm_tipo":"node","tipo_lugar":"suburb"},"geometry":{"type":"Point","coordinates":[-45.9787595,-21.4249367]}},{"type":"Feature","properties":{"nome":"Aparecida","osm_id":5835071097,"osm_tipo":"node","tipo_lugar":"suburb"},"geometry":{"type":"Point","coordinates":[-45.9539223,-21.4236883]}},{"type":"Feature","properties":{"nome":"Vila Betânia","osm_id":5835071105,"osm_tipo":"node","tipo_lugar":"suburb"},"geometry":{"type":"Point","coordinates":[-45.9521842,-21.417376]}},{"type":"Feature","properties":{"nome":"Vila Santa Luzia","osm_id":5835071106,"osm_tipo":"node","tipo_lugar":"suburb"},"geometry":{"type":"Point","coordinates":[-45.9425926,-21.4160177]}},{"type":"Feature","properties":{"nome":"Chapada","osm_id":5835071110,"osm_tipo":"node","tipo_lugar":"suburb"},"geometry":{"type":"Point","coordinates":[-45.9424853,-21.4213712]}},{"type":"Feature","properties":{"nome":"Vila Santa Edwiges","osm_id":5835071111,"osm_tipo":"node","tipo_lugar":"suburb"},"geometry":{"type":"Point","coordinates":[-45.9413696,-21.4118626]}},{"type":"Feature","properties":{"nome":"Campos Elíseos","osm_id":5835071112,"osm_tipo":"node","tipo_lugar":"suburb"},"geometry":{"type":"Point","coordinates":[-45.9402108,-21.4068683]}},{"type":"Feature","properties":{"nome":"Residencial Itaparica","osm_id":5835071113,"osm_tipo":"node","tipo_lugar":"suburb"},"geometry":{"type":"Point","coordinates":[-45.942421,-21.4050703]}},{"type":"Feature","properties":{"nome":"Vila Promessa","osm_id":5835071117,"osm_tipo":"node","tipo_lugar":"suburb"},"geometry":{"type":"Point","coordinates":[-45.9388375,-21.4016641]}},{"type":"Feature","properties":{"nome":"Jardim Eunice","osm_id":5835071119,"osm_tipo":"node","tipo_lugar":"suburb"},"geometry":{"type":"Point","coordinates":[-45.9420562,-21.4007351]}},{"type":"Feature","properties":{"nome":"Vila Esperança","osm_id":5835071120,"osm_tipo":"node","tipo_lugar":"suburb"},"geometry":{"type":"Point","coordinates":[-45.9445989,-21.4026231]}},{"type":"Feature","properties":{"nome":"Jardim Primavera","osm_id":5835071124,"osm_tipo":"node","tipo_lugar":"suburb"},"geometry":{"type":"Point","coordinates":[-45.944202,-21.3972789]}},{"type":"Feature","properties":{"nome":"Jardim São Carlos","osm_id":5835071125,"osm_tipo":"node","tipo_lugar":"suburb"},"geometry":{"type":"Point","coordinates":[-45.9468842,-21.4084864]}},{"type":"Feature","properties":{"nome":"Vista Grande","osm_id":5835071140,"osm_tipo":"node","tipo_lugar":"suburb"},"geometry":{"type":"Point","coordinates":[-45.9494805,-21.3988372]}},{"type":"Feature","properties":{"nome":"Jardim Nova América","osm_id":5835071143,"osm_tipo":"node","tipo_lugar":"suburb"},"geometry":{"type":"Point","coordinates":[-45.9535039,-21.41407]}},{"type":"Feature","properties":{"nome":"Pôr do Sol","osm_id":5835071157,"osm_tipo":"node","tipo_lugar":"suburb"},"geometry":{"type":"Point","coordinates":[-45.9558535,-21.4137204]}},{"type":"Feature","properties":{"nome":"Jardim América","osm_id":5835071161,"osm_tipo":"node","tipo_lugar":"suburb"},"geometry":{"type":"Point","coordinates":[-45.9541583,-21.4098849]}},{"type":"Feature","properties":{"nome":"Pôr do Sol II","osm_id":5835071173,"osm_tipo":"node","tipo_lugar":"suburb"},"geometry":{"type":"Point","coordinates":[-45.9583962,-21.4084965]}},{"type":"Feature","properties":{"nome":"Residencial Oliveira","osm_id":5835071182,"osm_tipo":"node","tipo_lugar":"suburb"},"geometry":{"type":"Point","coordinates":[-45.960939,-21.4115429]}},{"type":"Feature","properties":{"nome":"Morada do Sol","osm_id":5835071388,"osm_tipo":"node","tipo_lugar":"suburb"},"geometry":{"type":"Point","coordinates":[-45.9603167,-21.4179753]}},{"type":"Feature","properties":{"nome":"Jardim Boa Esperança","osm_id":5835071393,"osm_tipo":"node","tipo_lugar":"suburb"},"geometry":{"type":"Point","coordinates":[-45.9618402,-21.42227]}},{"type":"Feature","properties":{"nome":"Jardim Alvorada","osm_id":5835071401,"osm_tipo":"node","tipo_lugar":"suburb"},"geometry":{"type":"Point","coordinates":[-45.9692431,-21.4217407]}},{"type":"Feature","properties":{"nome":"Jardim São Paulo","osm_id":5835071415,"osm_tipo":"node","tipo_lugar":"suburb"},"geometry":{"type":"Point","coordinates":[-45.9742642,-21.4144995]}},{"type":"Feature","properties":{"nome":"Recreio Vale do Sol","osm_id":5835071423,"osm_tipo":"node","tipo_lugar":"suburb"},"geometry":{"type":"Point","coordinates":[-45.976882,-21.4192538]}},{"type":"Feature","properties":{"nome":"Jardim Santa Inês","osm_id":5835071453,"osm_tipo":"node","tipo_lugar":"suburb"},"geometry":{"type":"Point","coordinates":[-45.9539545,-21.4380147]}},{"type":"Feature","properties":{"nome":"Distrito Industrial","osm_id":5835071460,"osm_tipo":"node","tipo_lugar":"suburb"},"geometry":{"type":"Point","coordinates":[-45.9695006,-21.4121222]}},{"type":"Feature","properties":{"nome":"Residencial Porto Seguro","osm_id":5835071462,"osm_tipo":"node","tipo_lugar":"suburb"},"geometry":{"type":"Point","coordinates":[-45.9878684,-21.4037318]}},{"type":"Feature","properties":{"nome":"Santa Clara","osm_id":5835071480,"osm_tipo":"node","tipo_lugar":"suburb"},"geometry":{"type":"Point","coordinates":[-45.9879863,-21.423149]}},{"type":"Feature","properties":{"nome":"Residencial Montserrat","osm_id":9695647046,"osm_tipo":"node","tipo_lugar":"suburb"},"geometry":{"type":"Point","coordinates":[-45.9366991,-21.4407543]}},{"type":"Feature","properties":{"nome":"Residencial Donna Vita","osm_id":9801640172,"osm_tipo":"node","tipo_lugar":"suburb"},"geometry":{"type":"Point","coordinates":[-45.9327555,-21.4425819]}},{"type":"Feature","properties":{"nome":"Residencial Mont Blanc","osm_id":9801734513,"osm_tipo":"node","tipo_lugar":"suburb"},"geometry":{"type":"Point","coordinates":[-45.9311415,-21.4373742]}},{"type":"Feature","properties":{"nome":"Bosque dos Ipês","osm_id":9801836034,"osm_tipo":"node","tipo_lugar":"suburb"},"geometry":{"type":"Point","coordinates":[-45.9421491,-21.4293749]}},{"type":"Feature","properties":{"nome":"Residencial Cidade Jardim","osm_id":9802028821,"osm_tipo":"node","tipo_lugar":"suburb"},"geometry":{"type":"Point","coordinates":[-45.939803,-21.420476]}},{"type":"Feature","properties":{"nome":"Cidade Jardim","osm_id":9802115806,"osm_tipo":"node","tipo_lugar":"suburb"},"geometry":{"type":"Point","coordinates":[-45.9405336,-21.4243842]}},{"type":"Feature","properties":{"nome":"Residencial Floresta","osm_id":9802130490,"osm_tipo":"node","tipo_lugar":"suburb"},"geometry":{"type":"Point","coordinates":[-45.934232,-21.4229856]}},{"type":"Feature","properties":{"nome":"Residencial Martelli","osm_id":9815191732,"osm_tipo":"node","tipo_lugar":"suburb"},"geometry":{"type":"Point","coordinates":[-45.9347472,-21.3990404]}},{"type":"Feature","properties":{"nome":"Jardim Nova Alfenas","osm_id":9844060771,"osm_tipo":"node","tipo_lugar":"suburb"},"geometry":{"type":"Point","coordinates":[-45.9798432,-21.4064687]}},{"type":"Feature","properties":{"nome":"Residencial Dona Anita","osm_id":9844118348,"osm_tipo":"node","tipo_lugar":"suburb"},"geometry":{"type":"Point","coordinates":[-45.9659427,-21.4107053]}},{"type":"Feature","properties":{"nome":"Residencial Jardim Dumont","osm_id":10207856805,"osm_tipo":"node","tipo_lugar":"suburb"},"geometry":{"type":"Point","coordinates":[-45.9312678,-21.4230057]}},{"type":"Feature","properties":{"nome":"Jardim Aeroporto 2","osm_id":10785002379,"osm_tipo":"node","tipo_lugar":"neighbourhood"},"geometry":{"type":"Point","coordinates":[-45.9401103,-21.43505]}},{"type":"Feature","properties":{"nome":"Crystal","osm_id":11376016608,"osm_tipo":"node","tipo_lugar":"suburb"},"geometry":{"type":"Point","coordinates":[-45.9930666,-21.4186842]}},{"type":"Feature","properties":{"nome":"Residencial Cidade Jardim","osm_id":14228363,"osm_tipo":"relation","tipo_lugar":"suburb"},"geometry":{"type":"Polygon","coordinates":[[[-45.9400843,-21.4219205],[-45.9411334,-21.4223365],[-45.941477,-21.4174815],[-45.9377335,-21.4194046],[-45.9374201,-21.4175752],[-45.9351084,-21.4183145],[-45.9361663,-21.4206917],[-45.9400843,-21.4219205]]]}}]}