{"type":"FeatureCollection","features":[{"type":"Feature","properties":{"nome":"Loteamento Santo Antônio de Lisboa","osm_id":9577469818,"osm_tipo":"node","tipo_lugar":"neighbourhood"},"geometry":{"type":"Point","coordinates":[-46.5795166,-22.0620251]}},{"type":"Feature","properties":{"nome":"Centro","osm_id":10589604309,"osm_tipo":"node","tipo_lugar":"neighbourhood"},"geometry":{"type":"Point","coordinates":[-46.5707553,-22.0686758]}},{"type":"Feature","properties":{"nome":"Vila Samambaia","osm_id":10591506534,"osm_tipo":"node","tipo_lugar":"neighbourhood"},"geometry":{"type":"Point","coordinates":[-46.5665722,-22.0591445]}},{"type":"Feature","properties":{"nome":"Jardim Panorama","osm_id":10591901419,"osm_tipo":"node","tipo_lugar":"neighbourhood"},"geometry":{"type":"Point","coordinates":[-46.5645301,-22.0728722]}},{"type":"Feature","properties":{"nome":"Bairro 7 de Setembro","osm_id":10591913664,"osm_tipo":"node","tipo_lugar":"neighbourhood"},"geometry":{"type":"Point","coordinates":[-46.5768507,-22.0767401]}},{"type":"Feature","properties":{"nome":"Vila Graziani","osm_id":10591930775,"osm_tipo":"node","tipo_lugar":"neighbourhood"},"geometry":{"type":"Point","coordinates":[-46.570622,-22.0638803]}},{"type":"Feature","properties":{"nome":"Vila Mosconi","osm_id":10591935143,"osm_tipo":"node","tipo_lugar":"neighbourhood"},"geometry":{"type":"Point","coordinates":[-46.569016,-22.0715515]}},{"type":"Feature","properties":{"nome":"Jardim Nova Andradas","osm_id":10591940260,"osm_tipo":"node","tipo_lugar":"neighbourhood"},"geometry":{"type":"Point","coordinates":[-46.5796959,-22.0773397]}},{"type":"Feature","properties":{"nome":"Alto Alegre","osm_id":10591953597,"osm_tipo":"node","tipo_lugar":"neighbourhood"},"geometry":{"type":"Point","coordinates":[-46.5666293,-22.0662059]}},{"type":"Feature","properties":{"nome":"Vila Garibaldi","osm_id":10591958610,"osm_tipo":"node","tipo_lugar":"neighbourhood"},"geometry":{"type":"Point","coordinates":[-46.5767268,-22.0737541]}},{"type":"Feature","properties":{"nome":"Jardim Bela Vista","osm_id":10592142251,"osm_tipo":"node","tipo_lugar":"neighbourhood"},"geometry":{"type":"Point","coordinates":[-46.5722239,-22.060987]}},{"type":"Feature","properties":{"nome":"Jardim Portal do Sol","osm_id":10592166973,"osm_tipo":"node","tipo_lugar":"neighbourhood"},"geometry":{"type":"Point","coordinates":[-46.5864166,-22.072171]}},{"type":"Feature","properties":{"nome":"Vila Santa Cruz","osm_id":10592186672,"osm_tipo":"node","tipo_lugar":"neighbourhood"},"geometry":{"type":"Point","coordinates":[-46.5816373,-22.0745988]}},{"type":"Feature","properties":{"nome":"Vila Buzato","osm_id":10592193878,"osm_tipo":"node","tipo_lugar":"neighbourhood"},"geometry":{"type":"Point","coordinates":[-46.5645362,-22.0640392]}},{"type":"Feature","properties":{"nome":"Vila Martinelli","osm_id":10592199685,"osm_tipo":"node","tipo_lugar":"neighbourhood"},"geometry":{"type":"Point","coordinates":[-46.5747599,-22.0764942]}},{"type":"Feature","properties":{"nome":"Jardim Mantiqueira","osm_id":10592257116,"osm_tipo":"node","tipo_lugar":"neighbourhood"},"geometry":{"type":"Point","coordinates":[-46.5797899,-22.0713763]}},{"type":"Feature","properties":{"nome":"Vila Caracol","osm_id":10592257117,"osm_tipo":"node","tipo_lugar":"neighbourhood"},"geometry":{"type":"Point","coordinates":[-46.5833693,-22.0741631]}},{"type":"Feature","properties":{"nome":"Vila Santo Afonso","osm_id":10592257118,"osm_tipo":"node","tipo_lugar":"neighbourhood"},"geometry":{"type":"Point","coordinates":[-46.5689742,-22.0612655]}}]}