{"type":"FeatureCollection","features":[{"type":"Feature","properties":{"nome":"Amanhece","osm_id":416644481,"osm_tipo":"node","tipo_lugar":"suburb"},"geometry":{"type":"Point","coordinates":[-48.1945065,-18.5338052]}},{"type":"Feature","properties":{"nome":"Gutierrez","osm_id":3910170820,"osm_tipo":"node","tipo_lugar":"suburb"},"geometry":{"type":"Point","coordinates":[-48.1976925,-18.6705153]}},{"type":"Feature","properties":{"nome":"Santa Helena","osm_id":3916169533,"osm_tipo":"node","tipo_lugar":"suburb"},"geometry":{"type":"Point","coordinates":[-48.1989088,-18.662501]}},{"type":"Feature","properties":{"nome":"Centro","osm_id":3950641927,"osm_tipo":"node","tipo_lugar":"suburb"},"geometry":{"type":"Point","coordinates":[-48.1950932,-18.6545756]}},{"type":"Feature","properties":{"nome":"Rosário","osm_id":3961505662,"osm_tipo":"node","tipo_lugar":"suburb"},"geometry":{"type":"Point","coordinates":[-48.1875952,-18.642437]}},{"type":"Feature","properties":{"nome":"Milenium","osm_id":3966873012,"osm_tipo":"node","tipo_lugar":"suburb"},"geometry":{"type":"Point","coordinates":[-48.1834568,-18.6699134]}},{"type":"Feature","properties":{"nome":"Paraíso","osm_id":3971419457,"osm_tipo":"node","tipo_lugar":"suburb"},"geometry":{"type":"Point","coordinates":[-48.1761665,-18.6391429]}},{"type":"Feature","properties":{"nome":"Amorim","osm_id":3971695137,"osm_tipo":"node","tipo_lugar":"suburb"},"geometry":{"type":"Point","coordinates":[-48.1785831,-18.665215]}},{"type":"Feature","properties":{"nome":"Jardim Regina","osm_id":3972369388,"osm_tipo":"node","tipo_lugar":"suburb"},"geometry":{"type":"Point","coordinates":[-48.1910079,-18.6662182]}},{"type":"Feature","properties":{"nome":"Vieno","osm_id":3974617699,"osm_tipo":"node","tipo_lugar":"suburb"},"geometry":{"type":"Point","coordinates":[-48.2083919,-18.621997]}},{"type":"Feature","properties":{"nome":"São Sebastião","osm_id":3975703428,"osm_tipo":"node","tipo_lugar":"suburb"},"geometry":{"type":"Point","coordinates":[-48.2139481,-18.6299583]}},{"type":"Feature","properties":{"nome":"Dos Industriários","osm_id":3977352878,"osm_tipo":"node","tipo_lugar":"suburb"},"geometry":{"type":"Point","coordinates":[-48.2040288,-18.6513669]}},{"type":"Feature","properties":{"nome":"Portal de Fátima 1","osm_id":3979889704,"osm_tipo":"node","tipo_lugar":"neighbourhood"},"geometry":{"type":"Point","coordinates":[-48.2144234,-18.6541096]}},{"type":"Feature","properties":{"nome":"Bela Suiça 2","osm_id":3979895869,"osm_tipo":"node","tipo_lugar":"neighbourhood"},"geometry":{"type":"Point","coordinates":[-48.2240726,-18.6519222]}},{"type":"Feature","properties":{"nome":"Bela Suiça 3","osm_id":3979905684,"osm_tipo":"node","tipo_lugar":"neighbourhood"},"geometry":{"type":"Point","coordinates":[-48.2209975,-18.6528036]}},{"type":"Feature","properties":{"nome":"Portal de Fátima 2","osm_id":3979912543,"osm_tipo":"node","tipo_lugar":"neighbourhood"},"geometry":{"type":"Point","coordinates":[-48.219301,-18.6579272]}},{"type":"Feature","properties":{"nome":"Monte Moriá","osm_id":3979916461,"osm_tipo":"node","tipo_lugar":"neighbourhood"},"geometry":{"type":"Point","coordinates":[-48.2204761,-18.6611287]}},{"type":"Feature","properties":{"nome":"Morada Nova","osm_id":3979916462,"osm_tipo":"node","tipo_lugar":"neighbourhood"},"geometry":{"type":"Point","coordinates":[-48.2126924,-18.6493475]}},{"type":"Feature","properties":{"nome":"Jardim Canaã","osm_id":3979919820,"osm_tipo":"node","tipo_lugar":"neighbourhood"},"geometry":{"type":"Point","coordinates":[-48.173978,-18.6773107]}},{"type":"Feature","properties":{"nome":"Bela Suiça 1","osm_id":3979924758,"osm_tipo":"node","tipo_lugar":"neighbourhood"},"geometry":{"type":"Point","coordinates":[-48.2222603,-18.6564546]}},{"type":"Feature","properties":{"nome":"Portal dos Ipês","osm_id":3979926978,"osm_tipo":"node","tipo_lugar":"neighbourhood"},"geometry":{"type":"Point","coordinates":[-48.166853,-18.6193567]}},{"type":"Feature","properties":{"nome":"Conjunto Mauá","osm_id":3979946303,"osm_tipo":"node","tipo_lugar":"neighbourhood"},"geometry":{"type":"Point","coordinates":[-48.2186198,-18.633031]}},{"type":"Feature","properties":{"nome":"Alan Kardec","osm_id":3979965262,"osm_tipo":"node","tipo_lugar":"neighbourhood"},"geometry":{"type":"Point","coordinates":[-48.2132264,-18.6347653]}},{"type":"Feature","properties":{"nome":"Fátima","osm_id":3990446512,"osm_tipo":"node","tipo_lugar":"suburb"},"geometry":{"type":"Point","coordinates":[-48.216443,-18.6501799]}},{"type":"Feature","properties":{"nome":"Madri","osm_id":3991105671,"osm_tipo":"node","tipo_lugar":"neighbourhood"},"geometry":{"type":"Point","coordinates":[-48.2165924,-18.6603126]}},{"type":"Feature","properties":{"nome":"Brasília","osm_id":3991220702,"osm_tipo":"node","tipo_lugar":"suburb"},"geometry":{"type":"Point","coordinates":[-48.2104568,-18.6620696]}},{"type":"Feature","properties":{"nome":"Maria Eugênia","osm_id":3991254091,"osm_tipo":"node","tipo_lugar":"suburb"},"geometry":{"type":"Point","coordinates":[-48.2060319,-18.6656472]}},{"type":"Feature","properties":{"nome":"Goiás","osm_id":3992649804,"osm_tipo":"node","tipo_lugar":"suburb"},"geometry":{"type":"Point","coordinates":[-48.2048962,-18.643254]}},{"type":"Feature","properties":{"nome":"Sewa","osm_id":3992874638,"osm_tipo":"node","tipo_lugar":"suburb"},"geometry":{"type":"Point","coordinates":[-48.2221104,-18.6373439]}},{"type":"Feature","properties":{"nome":"Santa Terezinha","osm_id":3993575800,"osm_tipo":"node","tipo_lugar":"suburb"},"geometry":{"type":"Point","coordinates":[-48.1964307,-18.6362605]}},{"type":"Feature","properties":{"nome":"Palmeiras do Império","osm_id":3993758219,"osm_tipo":"node","tipo_lugar":"suburb"},"geometry":{"type":"Point","coordinates":[-48.1994981,-18.6278451]}},{"type":"Feature","properties":{"nome":"Santiago","osm_id":3995824957,"osm_tipo":"node","tipo_lugar":"suburb"},"geometry":{"type":"Point","coordinates":[-48.1953688,-18.6243715]}},{"type":"Feature","properties":{"nome":"Jardim Panorama","osm_id":3995827078,"osm_tipo":"node","tipo_lugar":"neighbourhood"},"geometry":{"type":"Point","coordinates":[-48.1923281,-18.6214526]}},{"type":"Feature","properties":{"nome":"Jóquei Clube","osm_id":3995831756,"osm_tipo":"node","tipo_lugar":"neighbourhood"},"geometry":{"type":"Point","coordinates":[-48.1938108,-18.6302682]}},{"type":"Feature","properties":{"nome":"Portal do Cerrado 1","osm_id":3995838475,"osm_tipo":"node","tipo_lugar":"neighbourhood"},"geometry":{"type":"Point","coordinates":[-48.1862346,-18.6275628]}},{"type":"Feature","properties":{"nome":"Ouro Verde","osm_id":3996016686,"osm_tipo":"node","tipo_lugar":"suburb"},"geometry":{"type":"Point","coordinates":[-48.1800166,-18.6294307]}},{"type":"Feature","properties":{"nome":"Gran Ville","osm_id":3996016830,"osm_tipo":"node","tipo_lugar":"neighbourhood"},"geometry":{"type":"Point","coordinates":[-48.1814881,-18.6272425]}},{"type":"Feature","properties":{"nome":"Alvorada","osm_id":3996016831,"osm_tipo":"node","tipo_lugar":"neighbourhood"},"geometry":{"type":"Point","coordinates":[-48.1740127,-18.6300056]}},{"type":"Feature","properties":{"nome":"Portal do Cerrado 2","osm_id":3996016832,"osm_tipo":"node","tipo_lugar":"neighbourhood"},"geometry":{"type":"Point","coordinates":[-48.1765575,-18.6303741]}},{"type":"Feature","properties":{"nome":"Portal do Cerrado 3","osm_id":3996016833,"osm_tipo":"node","tipo_lugar":"neighbourhood"},"geometry":{"type":"Point","coordinates":[-48.1725459,-18.6284315]}},{"type":"Feature","properties":{"nome":"Jardim Interlagos","osm_id":3997674448,"osm_tipo":"node","tipo_lugar":"suburb"},"geometry":{"type":"Point","coordinates":[-48.169708,-18.6325878]}},{"type":"Feature","properties":{"nome":"Miranda","osm_id":3997789529,"osm_tipo":"node","tipo_lugar":"suburb"},"geometry":{"type":"Point","coordinates":[-48.1859544,-18.6349679]}},{"type":"Feature","properties":{"nome":"Parque dos Verdes","osm_id":3997825121,"osm_tipo":"node","tipo_lugar":"suburb"},"geometry":{"type":"Point","coordinates":[-48.1623211,-18.624773]}},{"type":"Feature","properties":{"nome":"Sibipiruna","osm_id":4007890035,"osm_tipo":"node","tipo_lugar":"suburb"},"geometry":{"type":"Point","coordinates":[-48.1730839,-18.6455549]}},{"type":"Feature","properties":{"nome":"Bosque","osm_id":4008154136,"osm_tipo":"node","tipo_lugar":"suburb"},"geometry":{"type":"Point","coordinates":[-48.1833545,-18.6533434]}},{"type":"Feature","properties":{"nome":"Novo Horizonte","osm_id":4013819808,"osm_tipo":"node","tipo_lugar":"suburb"},"geometry":{"type":"Point","coordinates":[-48.1733186,-18.6738418]}},{"type":"Feature","properties":{"nome":"Distrito Industrial","osm_id":4013819809,"osm_tipo":"node","tipo_lugar":"suburb"},"geometry":{"type":"Point","coordinates":[-48.1660302,-18.6749852]}},{"type":"Feature","properties":{"nome":"Jardim Jockey 1","osm_id":5066923791,"osm_tipo":"node","tipo_lugar":"neighbourhood"},"geometry":{"type":"Point","coordinates":[-48.1896312,-18.6282695]}},{"type":"Feature","properties":{"nome":"Solar Park Bela Vista","osm_id":5067629956,"osm_tipo":"node","tipo_lugar":"neighbourhood"},"geometry":{"type":"Point","coordinates":[-48.1952437,-18.6790312]}},{"type":"Feature","properties":{"nome":"Residencial Milani","osm_id":5067630136,"osm_tipo":"node","tipo_lugar":"neighbourhood"},"geometry":{"type":"Point","coordinates":[-48.1721465,-18.6616897]}},{"type":"Feature","properties":{"nome":"Jardim Botânico","osm_id":5067630147,"osm_tipo":"node","tipo_lugar":"neighbourhood"},"geometry":{"type":"Point","coordinates":[-48.154808,-18.6486292]}},{"type":"Feature","properties":{"nome":"Residencial São Vicente","osm_id":5080600670,"osm_tipo":"node","tipo_lugar":"neighbourhood"},"geometry":{"type":"Point","coordinates":[-48.1829036,-18.6560731]}},{"type":"Feature","properties":{"nome":"Parque dos Flamboyants","osm_id":5080607609,"osm_tipo":"node","tipo_lugar":"neighbourhood"},"geometry":{"type":"Point","coordinates":[-48.1843687,-18.6724858]}},{"type":"Feature","properties":{"nome":"Parque das Gaivotas","osm_id":5080608514,"osm_tipo":"node","tipo_lugar":"neighbourhood"},"geometry":{"type":"Point","coordinates":[-48.1798197,-18.6740104]}},{"type":"Feature","properties":{"nome":"Residencial Aeroporto","osm_id":5080614644,"osm_tipo":"node","tipo_lugar":"neighbourhood"},"geometry":{"type":"Point","coordinates":[-48.1847405,-18.6656781]}},{"type":"Feature","properties":{"nome":"Residencial Paineiras","osm_id":5080619976,"osm_tipo":"node","tipo_lugar":"neighbourhood"},"geometry":{"type":"Point","coordinates":[-48.1725221,-18.6428675]}},{"type":"Feature","properties":{"nome":"Loteamento Alto da Matinha","osm_id":5080636604,"osm_tipo":"node","tipo_lugar":"neighbourhood"},"geometry":{"type":"Point","coordinates":[-48.2086748,-18.6695719]}},{"type":"Feature","properties":{"nome":"Residencial Vila Olípica","osm_id":5086710192,"osm_tipo":"node","tipo_lugar":"neighbourhood"},"geometry":{"type":"Point","coordinates":[-48.2161095,-18.6240841]}},{"type":"Feature","properties":{"nome":"Aeroporto Sul","osm_id":6509508893,"osm_tipo":"node","tipo_lugar":"neighbourhood"},"geometry":{"type":"Point","coordinates":[-48.1947454,-18.6677782]}},{"type":"Feature","properties":{"nome":"Cidade Nova","osm_id":6509533430,"osm_tipo":"node","tipo_lugar":"neighbourhood"},"geometry":{"type":"Point","coordinates":[-48.1690804,-18.6240889]}},{"type":"Feature","properties":{"nome":"Bairro Independência","osm_id":1098132879,"osm_tipo":"way","tipo_lugar":"neighbourhood"},"geometry":{"type":"Polygon","coordinates":[[[-48.2028586,-18.6278802],[-48.2006239,-18.6289291],[-48.2002421,-18.6383206],[-48.2118376,-18.6371118],[-48.2028586,-18.6278802]]]}}]}