{"type":"FeatureCollection","features":[{"type":"Feature","properties":{"nome":"Barreiro","osm_id":2323202221,"osm_tipo":"node","tipo_lugar":"suburb"},"geometry":{"type":"Point","coordinates":[-46.954839,-19.6472115]}},{"type":"Feature","properties":{"nome":"Abolição","osm_id":2404251916,"osm_tipo":"node","tipo_lugar":"suburb"},"geometry":{"type":"Point","coordinates":[-46.9519404,-19.5689093]}},{"type":"Feature","properties":{"nome":"Adhemar Rodrigues Valle Júnior","osm_id":2404251921,"osm_tipo":"node","tipo_lugar":"suburb"},"geometry":{"type":"Point","coordinates":[-46.9245926,-19.6136668]}},{"type":"Feature","properties":{"nome":"Aeroporto","osm_id":2404251924,"osm_tipo":"node","tipo_lugar":"suburb"},"geometry":{"type":"Point","coordinates":[-46.9650835,-19.5616631]}},{"type":"Feature","properties":{"nome":"Alvorada","osm_id":2404251926,"osm_tipo":"node","tipo_lugar":"suburb"},"geometry":{"type":"Point","coordinates":[-46.9478359,-19.5866633]}},{"type":"Feature","properties":{"nome":"Amazonas","osm_id":2404251929,"osm_tipo":"node","tipo_lugar":"suburb"},"geometry":{"type":"Point","coordinates":[-46.9595678,-19.5815132]}},{"type":"Feature","properties":{"nome":"Ana Antônia","osm_id":2404251931,"osm_tipo":"node","tipo_lugar":"suburb"},"geometry":{"type":"Point","coordinates":[-46.9265664,-19.5743561]}},{"type":"Feature","properties":{"nome":"Ana Pinto de Almeida","osm_id":2404251934,"osm_tipo":"node","tipo_lugar":"suburb"},"geometry":{"type":"Point","coordinates":[-46.9438566,-19.5697137]}},{"type":"Feature","properties":{"nome":"Andrea","osm_id":2404251936,"osm_tipo":"node","tipo_lugar":"suburb"},"geometry":{"type":"Point","coordinates":[-46.9221487,-19.6072048]}},{"type":"Feature","properties":{"nome":"Barreirinho","osm_id":2404251938,"osm_tipo":"node","tipo_lugar":"suburb"},"geometry":{"type":"Point","coordinates":[-46.9483708,-19.6276375]}},{"type":"Feature","properties":{"nome":"Boa Vista","osm_id":2404251941,"osm_tipo":"node","tipo_lugar":"suburb"},"geometry":{"type":"Point","coordinates":[-46.9639034,-19.5933933]}},{"type":"Feature","properties":{"nome":"Bom Jesus","osm_id":2404251942,"osm_tipo":"node","tipo_lugar":"suburb"},"geometry":{"type":"Point","coordinates":[-46.940211,-19.5769066]}},{"type":"Feature","properties":{"nome":"Centro","osm_id":2404251943,"osm_tipo":"node","tipo_lugar":"suburb"},"geometry":{"type":"Point","coordinates":[-46.9380029,-19.590512]}},{"type":"Feature","properties":{"nome":"Condomínio Bosque dos Ipês","osm_id":2404251944,"osm_tipo":"node","tipo_lugar":"suburb"},"geometry":{"type":"Point","coordinates":[-47.0193525,-19.5428557]}},{"type":"Feature","properties":{"nome":"Condomínio Via Verde","osm_id":2404251945,"osm_tipo":"node","tipo_lugar":"suburb"},"geometry":{"type":"Point","coordinates":[-47.0167539,-19.5486369]}},{"type":"Feature","properties":{"nome":"Distrito Industrial","osm_id":2404251946,"osm_tipo":"node","tipo_lugar":"suburb"},"geometry":{"type":"Point","coordinates":[-46.9864075,-19.5626082]}},{"type":"Feature","properties":{"nome":"Domingos Zema","osm_id":2404251947,"osm_tipo":"node","tipo_lugar":"suburb"},"geometry":{"type":"Point","coordinates":[-46.9342608,-19.5780326]}},{"type":"Feature","properties":{"nome":"Dona Beja","osm_id":2404251948,"osm_tipo":"node","tipo_lugar":"suburb"},"geometry":{"type":"Point","coordinates":[-46.9335041,-19.6189315]}},{"type":"Feature","properties":{"nome":"Doutor Pedro Pezzuti","osm_id":2404251949,"osm_tipo":"node","tipo_lugar":"suburb"},"geometry":{"type":"Point","coordinates":[-46.9307024,-19.5992097]}},{"type":"Feature","properties":{"nome":"Estância","osm_id":2404251950,"osm_tipo":"node","tipo_lugar":"suburb"},"geometry":{"type":"Point","coordinates":[-46.9262128,-19.6090044]}},{"type":"Feature","properties":{"nome":"Fertiza","osm_id":2404251951,"osm_tipo":"node","tipo_lugar":"suburb"},"geometry":{"type":"Point","coordinates":[-46.9436679,-19.6090368]}},{"type":"Feature","properties":{"nome":"Francisco Duarte","osm_id":2404251952,"osm_tipo":"node","tipo_lugar":"suburb"},"geometry":{"type":"Point","coordinates":[-46.9419228,-19.5756383]}},{"type":"Feature","properties":{"nome":"Guimarães","osm_id":2404251953,"osm_tipo":"node","tipo_lugar":"suburb"},"geometry":{"type":"Point","coordinates":[-46.9302181,-19.5934403]}},{"type":"Feature","properties":{"nome":"Jardim Bela Vista","osm_id":2404251955,"osm_tipo":"node","tipo_lugar":"suburb"},"geometry":{"type":"Point","coordinates":[-46.9266955,-19.5868026]}},{"type":"Feature","properties":{"nome":"Jardim das Primaveras","osm_id":2404251956,"osm_tipo":"node","tipo_lugar":"suburb"},"geometry":{"type":"Point","coordinates":[-46.926341,-19.6141293]}},{"type":"Feature","properties":{"nome":"José Ferreira Guimarães","osm_id":2404251957,"osm_tipo":"node","tipo_lugar":"suburb"},"geometry":{"type":"Point","coordinates":[-46.9203025,-19.6016684]}},{"type":"Feature","properties":{"nome":"João Ribeiro","osm_id":2404251958,"osm_tipo":"node","tipo_lugar":"suburb"},"geometry":{"type":"Point","coordinates":[-46.9428233,-19.602317]}},{"type":"Feature","properties":{"nome":"Lamartine","osm_id":2404251959,"osm_tipo":"node","tipo_lugar":"suburb"},"geometry":{"type":"Point","coordinates":[-46.9303907,-19.6137303]}},{"type":"Feature","properties":{"nome":"Leblon","osm_id":2404251960,"osm_tipo":"node","tipo_lugar":"suburb"},"geometry":{"type":"Point","coordinates":[-46.9464355,-19.5790324]}},{"type":"Feature","properties":{"nome":"Leda Barcelos","osm_id":2404251961,"osm_tipo":"node","tipo_lugar":"suburb"},"geometry":{"type":"Point","coordinates":[-46.9363933,-19.6091964]}},{"type":"Feature","properties":{"nome":"Morada do Sol","osm_id":2404251962,"osm_tipo":"node","tipo_lugar":"suburb"},"geometry":{"type":"Point","coordinates":[-46.932372,-19.5855577]}},{"type":"Feature","properties":{"nome":"Novo Santo Antônio","osm_id":2404251963,"osm_tipo":"node","tipo_lugar":"suburb"},"geometry":{"type":"Point","coordinates":[-46.9226664,-19.6105068]}},{"type":"Feature","properties":{"nome":"Novo São Geraldo","osm_id":2404251964,"osm_tipo":"node","tipo_lugar":"suburb"},"geometry":{"type":"Point","coordinates":[-46.9483836,-19.5775315]}},{"type":"Feature","properties":{"nome":"Odilon José Carneiro","osm_id":2404251965,"osm_tipo":"node","tipo_lugar":"suburb"},"geometry":{"type":"Point","coordinates":[-46.9241612,-19.5973629]}},{"type":"Feature","properties":{"nome":"Orozino Teixeira","osm_id":2404251966,"osm_tipo":"node","tipo_lugar":"suburb"},"geometry":{"type":"Point","coordinates":[-46.9281848,-19.5772806]}},{"type":"Feature","properties":{"nome":"Padre Alaor","osm_id":2404251967,"osm_tipo":"node","tipo_lugar":"suburb"},"geometry":{"type":"Point","coordinates":[-46.9300063,-19.6084465]}},{"type":"Feature","properties":{"nome":"Parque das Flores","osm_id":2404251968,"osm_tipo":"node","tipo_lugar":"suburb"},"geometry":{"type":"Point","coordinates":[-46.9310485,-19.6291327]}},{"type":"Feature","properties":{"nome":"Pão-de-Açúcar","osm_id":2404251969,"osm_tipo":"node","tipo_lugar":"suburb"},"geometry":{"type":"Point","coordinates":[-46.9283816,-19.5638727]}},{"type":"Feature","properties":{"nome":"Recanto das Mangueiras","osm_id":2404251970,"osm_tipo":"node","tipo_lugar":"suburb"},"geometry":{"type":"Point","coordinates":[-46.9229764,-19.6033874]}},{"type":"Feature","properties":{"nome":"Sagrada Família","osm_id":2404251971,"osm_tipo":"node","tipo_lugar":"suburb"},"geometry":{"type":"Point","coordinates":[-46.9382165,-19.6019732]}},{"type":"Feature","properties":{"nome":"Salomão Drummond","osm_id":2404251972,"osm_tipo":"node","tipo_lugar":"suburb"},"geometry":{"type":"Point","coordinates":[-46.9404877,-19.5689767]}},{"type":"Feature","properties":{"nome":"Santa Luzia","osm_id":2404251973,"osm_tipo":"node","tipo_lugar":"suburb"},"geometry":{"type":"Point","coordinates":[-46.9465309,-19.5975695]}},{"type":"Feature","properties":{"nome":"Santa Mônica","osm_id":2404251974,"osm_tipo":"node","tipo_lugar":"suburb"},"geometry":{"type":"Point","coordinates":[-46.9532139,-19.5714887]}},{"type":"Feature","properties":{"nome":"Santa Rita","osm_id":2404251975,"osm_tipo":"node","tipo_lugar":"suburb"},"geometry":{"type":"Point","coordinates":[-46.9291012,-19.5822038]}},{"type":"Feature","properties":{"nome":"Santa Terezinha","osm_id":2404251976,"osm_tipo":"node","tipo_lugar":"suburb"},"geometry":{"type":"Point","coordinates":[-46.9346037,-19.6041821]}},{"type":"Feature","properties":{"nome":"Santo Antônio","osm_id":2404251977,"osm_tipo":"node","tipo_lugar":"suburb"},"geometry":{"type":"Point","coordinates":[-46.9267922,-19.6013617]}},{"type":"Feature","properties":{"nome":"Silvéria","osm_id":2404251978,"osm_tipo":"node","tipo_lugar":"suburb"},"geometry":{"type":"Point","coordinates":[-46.9380893,-19.6148499]}},{"type":"Feature","properties":{"nome":"São Cristóvão","osm_id":2404251979,"osm_tipo":"node","tipo_lugar":"suburb"},"geometry":{"type":"Point","coordinates":[-46.9437166,-19.5986432]}},{"type":"Feature","properties":{"nome":"São Domingos","osm_id":2404251980,"osm_tipo":"node","tipo_lugar":"suburb"},"geometry":{"type":"Point","coordinates":[-46.9587768,-19.5933651]}},{"type":"Feature","properties":{"nome":"São Francisco","osm_id":2404251981,"osm_tipo":"node","tipo_lugar":"suburb"},"geometry":{"type":"Point","coordinates":[-46.9479547,-19.5705768]}},{"type":"Feature","properties":{"nome":"São Geraldo","osm_id":2404251982,"osm_tipo":"node","tipo_lugar":"suburb"},"geometry":{"type":"Point","coordinates":[-46.9523157,-19.5802298]}},{"type":"Feature","properties":{"nome":"São Pedro","osm_id":2404251983,"osm_tipo":"node","tipo_lugar":"suburb"},"geometry":{"type":"Point","coordinates":[-46.9404338,-19.5846339]}},{"type":"Feature","properties":{"nome":"São Vicente","osm_id":2404251984,"osm_tipo":"node","tipo_lugar":"suburb"},"geometry":{"type":"Point","coordinates":[-46.933208,-19.6010568]}},{"type":"Feature","properties":{"nome":"Tiradentes","osm_id":2404251985,"osm_tipo":"node","tipo_lugar":"suburb"},"geometry":{"type":"Point","coordinates":[-46.9361441,-19.5703048]}},{"type":"Feature","properties":{"nome":"Urciano Lemos","osm_id":2404251986,"osm_tipo":"node","tipo_lugar":"suburb"},"geometry":{"type":"Point","coordinates":[-46.9370414,-19.574509]}},{"type":"Feature","properties":{"nome":"Veredas da Cidade","osm_id":2404251987,"osm_tipo":"node","tipo_lugar":"suburb"},"geometry":{"type":"Point","coordinates":[-46.9182545,-19.6042224]}},{"type":"Feature","properties":{"nome":"Vila Rica","osm_id":2404251988,"osm_tipo":"node","tipo_lugar":"suburb"},"geometry":{"type":"Point","coordinates":[-46.9370965,-19.5857817]}},{"type":"Feature","properties":{"nome":"Jardim Imperial","osm_id":3274001462,"osm_tipo":"node","tipo_lugar":"suburb"},"geometry":{"type":"Point","coordinates":[-46.9490681,-19.6047259]}},{"type":"Feature","properties":{"nome":"Jardim das Oliveiras I","osm_id":5651824846,"osm_tipo":"node","tipo_lugar":"neighbourhood"},"geometry":{"type":"Point","coordinates":[-46.9207513,-19.5726188]}},{"type":"Feature","properties":{"nome":"Jardim das Oliveiras II","osm_id":5651824847,"osm_tipo":"node","tipo_lugar":"neighbourhood"},"geometry":{"type":"Point","coordinates":[-46.915462,-19.5672812]}},{"type":"Feature","properties":{"nome":"Alvorada II","osm_id":10846856701,"osm_tipo":"node","tipo_lugar":"suburb"},"geometry":{"type":"Point","coordinates":[-46.9494499,-19.5909857]}},{"type":"Feature","properties":{"nome":"Vila Mineira","osm_id":10846856702,"osm_tipo":"node","tipo_lugar":"suburb"},"geometry":{"type":"Point","coordinates":[-46.9226733,-19.6205607]}},{"type":"Feature","properties":{"nome":"Jardim Bela Vista II","osm_id":461923292,"osm_tipo":"way","tipo_lugar":"suburb"},"geometry":{"type":"Polygon","coordinates":[[[-46.9231208,-19.5849175],[-46.9251767,-19.5888692],[-46.9205806,-19.5925759],[-46.9171936,-19.5856171],[-46.9194863,-19.5844389],[-46.9203982,-19.5862676],[-46.9231208,-19.5849175]]]}}]}