{"type":"FeatureCollection","features":[{"type":"Feature","properties":{"nome":"Cidade Nova","osm_id":5882707709,"osm_tipo":"node","tipo_lugar":"neighbourhood"},"geometry":{"type":"Point","coordinates":[-41.1152387,-18.0476847]}},{"type":"Feature","properties":{"nome":"Centro","osm_id":5882707710,"osm_tipo":"node","tipo_lugar":"neighbourhood"},"geometry":{"type":"Point","coordinates":[-41.1106467,-18.0431962]}},{"type":"Feature","properties":{"nome":"Coqueiral","osm_id":5882707711,"osm_tipo":"node","tipo_lugar":"neighbourhood"},"geometry":{"type":"Point","coordinates":[-41.1146164,-18.0394625]}},{"type":"Feature","properties":{"nome":"Acari","osm_id":5882707712,"osm_tipo":"node","tipo_lugar":"neighbourhood"},"geometry":{"type":"Point","coordinates":[-41.106484,-18.0372386]}},{"type":"Feature","properties":{"nome":"São Geraldo","osm_id":5882707713,"osm_tipo":"node","tipo_lugar":"neighbourhood"},"geometry":{"type":"Point","coordinates":[-41.0969138,-18.0388913]}}]}