{"type":"FeatureCollection","features":[{"type":"Feature","properties":{"nome":"Condomínio Cristais","osm_id":2970223842,"osm_tipo":"node","tipo_lugar":"suburb"},"geometry":{"type":"Point","coordinates":[-45.2765549,-19.6954876]}},{"type":"Feature","properties":{"nome":"Dona Branca","osm_id":3009391526,"osm_tipo":"node","tipo_lugar":"suburb"},"geometry":{"type":"Point","coordinates":[-45.2721915,-19.7479086]}},{"type":"Feature","properties":{"nome":"Vila Gontijo","osm_id":5967868073,"osm_tipo":"node","tipo_lugar":"suburb"},"geometry":{"type":"Point","coordinates":[-45.2474606,-19.7288063]}},{"type":"Feature","properties":{"nome":"Esplanada","osm_id":5967868156,"osm_tipo":"node","tipo_lugar":"suburb"},"geometry":{"type":"Point","coordinates":[-45.2534151,-19.7248171]}},{"type":"Feature","properties":{"nome":"Pedro Tavares Gontijo","osm_id":5967869487,"osm_tipo":"node","tipo_lugar":"suburb"},"geometry":{"type":"Point","coordinates":[-45.2580929,-19.7203026]}},{"type":"Feature","properties":{"nome":"Cruz do Monte","osm_id":5970723427,"osm_tipo":"node","tipo_lugar":"suburb"},"geometry":{"type":"Point","coordinates":[-45.2471387,-19.7374003]}},{"type":"Feature","properties":{"nome":"Santa Efigênia","osm_id":5970723480,"osm_tipo":"node","tipo_lugar":"suburb"},"geometry":{"type":"Point","coordinates":[-45.248099,-19.7314017]}},{"type":"Feature","properties":{"nome":"Vila Aurora","osm_id":5970723481,"osm_tipo":"node","tipo_lugar":"suburb"},"geometry":{"type":"Point","coordinates":[-45.251323,-19.7294526]}},{"type":"Feature","properties":{"nome":"Jaraguá","osm_id":5970724418,"osm_tipo":"node","tipo_lugar":"suburb"},"geometry":{"type":"Point","coordinates":[-45.2591229,-19.7171111]}},{"type":"Feature","properties":{"nome":"Mangabeiras","osm_id":5970724419,"osm_tipo":"node","tipo_lugar":"suburb"},"geometry":{"type":"Point","coordinates":[-45.2598631,-19.7150608]}},{"type":"Feature","properties":{"nome":"Geraldo Sabiá","osm_id":5970741126,"osm_tipo":"node","tipo_lugar":"suburb"},"geometry":{"type":"Point","coordinates":[-45.2430135,-19.742298]}},{"type":"Feature","properties":{"nome":"Ana Rosa","osm_id":5970741127,"osm_tipo":"node","tipo_lugar":"suburb"},"geometry":{"type":"Point","coordinates":[-45.2435446,-19.7396624]}},{"type":"Feature","properties":{"nome":"Monte Castelo","osm_id":5970741128,"osm_tipo":"node","tipo_lugar":"suburb"},"geometry":{"type":"Point","coordinates":[-45.2429464,-19.7348757]}},{"type":"Feature","properties":{"nome":"Nossa Senhora de Fátima","osm_id":5970741810,"osm_tipo":"node","tipo_lugar":"suburb"},"geometry":{"type":"Point","coordinates":[-45.2641869,-19.7243475]}},{"type":"Feature","properties":{"nome":"Morada do Sol","osm_id":5970741812,"osm_tipo":"node","tipo_lugar":"suburb"},"geometry":{"type":"Point","coordinates":[-45.2645946,-19.7175656]}},{"type":"Feature","properties":{"nome":"Jardins","osm_id":5970741813,"osm_tipo":"node","tipo_lugar":"suburb"},"geometry":{"type":"Point","coordinates":[-45.2688539,-19.7145053]}},{"type":"Feature","properties":{"nome":"Liberdade","osm_id":5970741814,"osm_tipo":"node","tipo_lugar":"suburb"},"geometry":{"type":"Point","coordinates":[-45.272845,-19.71397]}},{"type":"Feature","properties":{"nome":"Simeão Ferreira de Souza","osm_id":5970741815,"osm_tipo":"node","tipo_lugar":"suburb"},"geometry":{"type":"Point","coordinates":[-45.2691007,-19.7107986]}},{"type":"Feature","properties":{"nome":"Santa Rita","osm_id":5970758111,"osm_tipo":"node","tipo_lugar":"suburb"},"geometry":{"type":"Point","coordinates":[-45.2480614,-19.7343606]}},{"type":"Feature","properties":{"nome":"Babilônia","osm_id":5976961963,"osm_tipo":"node","tipo_lugar":"suburb"},"geometry":{"type":"Point","coordinates":[-45.2752805,-19.7311189]}},{"type":"Feature","properties":{"nome":"Olegário Maciel","osm_id":5976961964,"osm_tipo":"node","tipo_lugar":"suburb"},"geometry":{"type":"Point","coordinates":[-45.2588546,-19.7303868]}},{"type":"Feature","properties":{"nome":"Ozanam","osm_id":5976961965,"osm_tipo":"node","tipo_lugar":"suburb"},"geometry":{"type":"Point","coordinates":[-45.2656782,-19.7285942]}},{"type":"Feature","properties":{"nome":"Santo Antônio","osm_id":5976962101,"osm_tipo":"node","tipo_lugar":"suburb"},"geometry":{"type":"Point","coordinates":[-45.2734029,-19.7266955]}},{"type":"Feature","properties":{"nome":"Nossa Senhora do Rosário","osm_id":5977024796,"osm_tipo":"node","tipo_lugar":"suburb"},"geometry":{"type":"Point","coordinates":[-45.2658177,-19.7446105]}},{"type":"Feature","properties":{"nome":"São João","osm_id":5977024797,"osm_tipo":"node","tipo_lugar":"suburb"},"geometry":{"type":"Point","coordinates":[-45.2569878,-19.7416921]}},{"type":"Feature","properties":{"nome":"Palmeiras","osm_id":5977024798,"osm_tipo":"node","tipo_lugar":"suburb"},"geometry":{"type":"Point","coordinates":[-45.2592623,-19.7434694]}},{"type":"Feature","properties":{"nome":"São Geraldo","osm_id":5977024799,"osm_tipo":"node","tipo_lugar":"suburb"},"geometry":{"type":"Point","coordinates":[-45.2602065,-19.7395917]}},{"type":"Feature","properties":{"nome":"Realengo","osm_id":5977024804,"osm_tipo":"node","tipo_lugar":"suburb"},"geometry":{"type":"Point","coordinates":[-45.2661771,-19.7419446]}},{"type":"Feature","properties":{"nome":"Novo Horizonte","osm_id":5977024805,"osm_tipo":"node","tipo_lugar":"suburb"},"geometry":{"type":"Point","coordinates":[-45.2820182,-19.7520021]}},{"type":"Feature","properties":{"nome":"Santa Marta","osm_id":5977024806,"osm_tipo":"node","tipo_lugar":"suburb"},"geometry":{"type":"Point","coordinates":[-45.281471,-19.7472663]}},{"type":"Feature","properties":{"nome":"J K","osm_id":5977024846,"osm_tipo":"node","tipo_lugar":"suburb"},"geometry":{"type":"Point","coordinates":[-45.288434,-19.7504976]}},{"type":"Feature","properties":{"nome":"N S do Rosário II","osm_id":5977024847,"osm_tipo":"node","tipo_lugar":"suburb"},"geometry":{"type":"Point","coordinates":[-45.2732742,-19.7518708]}},{"type":"Feature","properties":{"nome":"São Vicente","osm_id":5977024994,"osm_tipo":"node","tipo_lugar":"suburb"},"geometry":{"type":"Point","coordinates":[-45.2789497,-19.7432069]}},{"type":"Feature","properties":{"nome":"Aeroporto","osm_id":5977024995,"osm_tipo":"node","tipo_lugar":"suburb"},"geometry":{"type":"Point","coordinates":[-45.284636,-19.7444792]}},{"type":"Feature","properties":{"nome":"Novo São Vicente","osm_id":5977024996,"osm_tipo":"node","tipo_lugar":"suburb"},"geometry":{"type":"Point","coordinates":[-45.2853495,-19.738496]}},{"type":"Feature","properties":{"nome":"Gran Park","osm_id":5977024997,"osm_tipo":"node","tipo_lugar":"suburb"},"geometry":{"type":"Point","coordinates":[-45.2694118,-19.7373397]}},{"type":"Feature","properties":{"nome":"Centro","osm_id":5977024998,"osm_tipo":"node","tipo_lugar":"suburb"},"geometry":{"type":"Point","coordinates":[-45.251881,-19.7371681]}},{"type":"Feature","properties":{"nome":"São Lucas","osm_id":5977024999,"osm_tipo":"node","tipo_lugar":"suburb"},"geometry":{"type":"Point","coordinates":[-45.2575886,-19.7375619]}},{"type":"Feature","properties":{"nome":"São Francisco","osm_id":5977025000,"osm_tipo":"node","tipo_lugar":"suburb"},"geometry":{"type":"Point","coordinates":[-45.2574921,-19.7338456]}},{"type":"Feature","properties":{"nome":"Santo Agostinho","osm_id":5977025002,"osm_tipo":"node","tipo_lugar":"suburb"},"geometry":{"type":"Point","coordinates":[-45.2612043,-19.7347747]}},{"type":"Feature","properties":{"nome":"Santa Lúcia","osm_id":5977025032,"osm_tipo":"node","tipo_lugar":"suburb"},"geometry":{"type":"Point","coordinates":[-45.2644014,-19.7333003]}},{"type":"Feature","properties":{"nome":"Bela Vista","osm_id":6005054170,"osm_tipo":"node","tipo_lugar":"suburb"},"geometry":{"type":"Point","coordinates":[-45.2761898,-19.7506061]}},{"type":"Feature","properties":{"nome":"Residencial Jardim dos Ipês","osm_id":6005054171,"osm_tipo":"node","tipo_lugar":"suburb"},"geometry":{"type":"Point","coordinates":[-45.2624381,-19.7698537]}},{"type":"Feature","properties":{"nome":"Gameleira","osm_id":6005054182,"osm_tipo":"node","tipo_lugar":"suburb"},"geometry":{"type":"Point","coordinates":[-45.2650666,-19.760807]}},{"type":"Feature","properties":{"nome":"Campos Elíseos","osm_id":6005054183,"osm_tipo":"node","tipo_lugar":"suburb"},"geometry":{"type":"Point","coordinates":[-45.2592731,-19.7570104]}},{"type":"Feature","properties":{"nome":"Dom Joaquim","osm_id":6005054184,"osm_tipo":"node","tipo_lugar":"suburb"},"geometry":{"type":"Point","coordinates":[-45.2664668,-19.7559654]}},{"type":"Feature","properties":{"nome":"Belvedere","osm_id":6005054885,"osm_tipo":"node","tipo_lugar":"suburb"},"geometry":{"type":"Point","coordinates":[-45.2492953,-19.7550314]}},{"type":"Feature","properties":{"nome":"São José","osm_id":6005054887,"osm_tipo":"node","tipo_lugar":"suburb"},"geometry":{"type":"Point","coordinates":[-45.2558184,-19.7508914]}},{"type":"Feature","properties":{"nome":"Jardim América","osm_id":6005054888,"osm_tipo":"node","tipo_lugar":"suburb"},"geometry":{"type":"Point","coordinates":[-45.2617622,-19.7495181]}},{"type":"Feature","properties":{"nome":"Liberdade","osm_id":631420182,"osm_tipo":"way","tipo_lugar":"suburb"},"geometry":{"type":"Polygon","coordinates":[[[-45.2739126,-19.7141821],[-45.2690256,-19.712248],[-45.2671105,-19.7145154],[-45.2701789,-19.7170758],[-45.2714557,-19.7141165],[-45.2739126,-19.7141821]]]}}]}