{"type":"FeatureCollection","features":[{"type":"Feature","properties":{"nome":"Altamira","osm_id":2402002176,"osm_tipo":"node","tipo_lugar":"suburb"},"geometry":{"type":"Point","coordinates":[-49.2003906,-18.7194547]}},{"type":"Feature","properties":{"nome":"Balduíno","osm_id":2402002177,"osm_tipo":"node","tipo_lugar":"suburb"},"geometry":{"type":"Point","coordinates":[-49.205273,-18.7175167]}},{"type":"Feature","properties":{"nome":"Bela Vista","osm_id":2402002178,"osm_tipo":"node","tipo_lugar":"suburb"},"geometry":{"type":"Point","coordinates":[-49.2025564,-18.7183595]}},{"type":"Feature","properties":{"nome":"Boa Esperança","osm_id":2402002179,"osm_tipo":"node","tipo_lugar":"suburb"},"geometry":{"type":"Point","coordinates":[-49.198445,-18.7208801]}},{"type":"Feature","properties":{"nome":"Centro","osm_id":2402002180,"osm_tipo":"node","tipo_lugar":"suburb"},"geometry":{"type":"Point","coordinates":[-49.2037311,-18.7244089]}},{"type":"Feature","properties":{"nome":"Godói","osm_id":2402002181,"osm_tipo":"node","tipo_lugar":"suburb"},"geometry":{"type":"Point","coordinates":[-49.1975456,-18.7239222]}},{"type":"Feature","properties":{"nome":"Ivete Guerreiro Daniel","osm_id":2402002182,"osm_tipo":"node","tipo_lugar":"suburb"},"geometry":{"type":"Point","coordinates":[-49.196481,-18.7257474]}},{"type":"Feature","properties":{"nome":"Jorge de Paula Gouveia","osm_id":2402002183,"osm_tipo":"node","tipo_lugar":"suburb"},"geometry":{"type":"Point","coordinates":[-49.1976557,-18.7294847]}},{"type":"Feature","properties":{"nome":"Luiz Ângelo de Souza","osm_id":2402002184,"osm_tipo":"node","tipo_lugar":"suburb"},"geometry":{"type":"Point","coordinates":[-49.1943519,-18.7248783]}}]}