{"type":"FeatureCollection","features":[{"type":"Feature","properties":{"nome":"Santa Rita","osm_id":4555675580,"osm_tipo":"node","tipo_lugar":"suburb"},"geometry":{"type":"Point","coordinates":[-46.9272965,-20.5867278]}},{"type":"Feature","properties":{"nome":"Bela Vista","osm_id":4555675582,"osm_tipo":"node","tipo_lugar":"suburb"},"geometry":{"type":"Point","coordinates":[-46.9188345,-20.5748536]}},{"type":"Feature","properties":{"nome":"Jardim Alvorada","osm_id":4555675583,"osm_tipo":"node","tipo_lugar":"suburb"},"geometry":{"type":"Point","coordinates":[-46.9210387,-20.5787535]}},{"type":"Feature","properties":{"nome":"Patrimônio","osm_id":4555675584,"osm_tipo":"node","tipo_lugar":"suburb"},"geometry":{"type":"Point","coordinates":[-46.9287723,-20.5728949]}},{"type":"Feature","properties":{"nome":"Cassialar","osm_id":4555675585,"osm_tipo":"node","tipo_lugar":"suburb"},"geometry":{"type":"Point","coordinates":[-46.9259142,-20.5722478]}},{"type":"Feature","properties":{"nome":"Canta Galo","osm_id":4555675586,"osm_tipo":"node","tipo_lugar":"suburb"},"geometry":{"type":"Point","coordinates":[-46.9272031,-20.5693971]}},{"type":"Feature","properties":{"nome":"São Gabriel","osm_id":4555675587,"osm_tipo":"node","tipo_lugar":"suburb"},"geometry":{"type":"Point","coordinates":[-46.9140337,-20.5884241]}},{"type":"Feature","properties":{"nome":"Peixotos","osm_id":4555675588,"osm_tipo":"node","tipo_lugar":"suburb"},"geometry":{"type":"Point","coordinates":[-46.9200674,-20.5880918]}},{"type":"Feature","properties":{"nome":"São José","osm_id":4555678089,"osm_tipo":"node","tipo_lugar":"suburb"},"geometry":{"type":"Point","coordinates":[-46.9142859,-20.5959257]}},{"type":"Feature","properties":{"nome":"Itambé","osm_id":6032181791,"osm_tipo":"node","tipo_lugar":"suburb"},"geometry":{"type":"Point","coordinates":[-46.986227,-20.4037898]}},{"type":"Feature","properties":{"nome":"Itambé","osm_id":6032181838,"osm_tipo":"node","tipo_lugar":"suburb"},"geometry":{"type":"Point","coordinates":[-46.9948841,-20.3865091]}},{"type":"Feature","properties":{"nome":"Distrito Industrial","osm_id":6053227439,"osm_tipo":"node","tipo_lugar":"suburb"},"geometry":{"type":"Point","coordinates":[-46.9127025,-20.6063078]}},{"type":"Feature","properties":{"nome":"Alto das Palmeiras","osm_id":6302086756,"osm_tipo":"node","tipo_lugar":"suburb"},"geometry":{"type":"Point","coordinates":[-46.9300845,-20.5631442]}},{"type":"Feature","properties":{"nome":"Vitória Liporoni","osm_id":6319971608,"osm_tipo":"node","tipo_lugar":"suburb"},"geometry":{"type":"Point","coordinates":[-46.9336992,-20.5818215]}},{"type":"Feature","properties":{"nome":"Pq. das Águas","osm_id":9860331744,"osm_tipo":"node","tipo_lugar":"suburb"},"geometry":{"type":"Point","coordinates":[-46.9126861,-20.5812099]}},{"type":"Feature","properties":{"nome":"São Francisco","osm_id":10840014070,"osm_tipo":"node","tipo_lugar":"suburb"},"geometry":{"type":"Point","coordinates":[-46.9298287,-20.5806811]}},{"type":"Feature","properties":{"nome":"Distrito Industrial III","osm_id":13248148013,"osm_tipo":"node","tipo_lugar":"suburb"},"geometry":{"type":"Point","coordinates":[-46.9176404,-20.6001859]}}]}