{"type":"FeatureCollection","features":[{"type":"Feature","properties":{"nome":"Areião","osm_id":12457484111,"osm_tipo":"node","tipo_lugar":"suburb"},"geometry":{"type":"Point","coordinates":[-41.6833437,-20.0501604]}},{"type":"Feature","properties":{"nome":"Centro","osm_id":12457484112,"osm_tipo":"node","tipo_lugar":"suburb"},"geometry":{"type":"Point","coordinates":[-41.6884675,-20.0431569]}},{"type":"Feature","properties":{"nome":"Sagrada Família","osm_id":12457484113,"osm_tipo":"node","tipo_lugar":"suburb"},"geometry":{"type":"Point","coordinates":[-41.695156,-20.0421939]}},{"type":"Feature","properties":{"nome":"Betel","osm_id":12457484115,"osm_tipo":"node","tipo_lugar":"suburb"},"geometry":{"type":"Point","coordinates":[-41.6859012,-20.0480121]}},{"type":"Feature","properties":{"nome":"Floresta","osm_id":12457484116,"osm_tipo":"node","tipo_lugar":"suburb"},"geometry":{"type":"Point","coordinates":[-41.6921054,-20.0465351]}},{"type":"Feature","properties":{"nome":"Ceasa","osm_id":12600889049,"osm_tipo":"node","tipo_lugar":"suburb"},"geometry":{"type":"Point","coordinates":[-41.6890042,-20.0477567]}}]}