{"type":"FeatureCollection","features":[{"type":"Feature","properties":{"nome":"Centro","osm_id":9328369744,"osm_tipo":"node","tipo_lugar":"suburb"},"geometry":{"type":"Point","coordinates":[-44.0655186,-20.6701083]}},{"type":"Feature","properties":{"nome":"Cachoeira","osm_id":9328369745,"osm_tipo":"node","tipo_lugar":"suburb"},"geometry":{"type":"Point","coordinates":[-44.0662589,-20.6751775]}},{"type":"Feature","properties":{"nome":"Cruzeiro","osm_id":9328369746,"osm_tipo":"node","tipo_lugar":"suburb"},"geometry":{"type":"Point","coordinates":[-44.0622248,-20.6770847]}},{"type":"Feature","properties":{"nome":"Santa Efigênia","osm_id":9328369747,"osm_tipo":"node","tipo_lugar":"suburb"},"geometry":{"type":"Point","coordinates":[-44.0569033,-20.6797246]}},{"type":"Feature","properties":{"nome":"Ribeiro Cardoso","osm_id":9328369748,"osm_tipo":"node","tipo_lugar":"suburb"},"geometry":{"type":"Point","coordinates":[-44.0651216,-20.663222]}},{"type":"Feature","properties":{"nome":"São Lucas","osm_id":9328369749,"osm_tipo":"node","tipo_lugar":"suburb"},"geometry":{"type":"Point","coordinates":[-44.0716018,-20.6640552]}},{"type":"Feature","properties":{"nome":"Vila São Vicente","osm_id":9328369750,"osm_tipo":"node","tipo_lugar":"suburb"},"geometry":{"type":"Point","coordinates":[-44.0682222,-20.6700581]}},{"type":"Feature","properties":{"nome":"Sassafrás","osm_id":9328369751,"osm_tipo":"node","tipo_lugar":"suburb"},"geometry":{"type":"Point","coordinates":[-44.0756037,-20.6713029]}},{"type":"Feature","properties":{"nome":"Senhor dos Passos","osm_id":9328369752,"osm_tipo":"node","tipo_lugar":"suburb"},"geometry":{"type":"Point","coordinates":[-44.0671386,-20.6607223]}},{"type":"Feature","properties":{"nome":"Marcelo Batista","osm_id":9328369753,"osm_tipo":"node","tipo_lugar":"suburb"},"geometry":{"type":"Point","coordinates":[-44.0784897,-20.6616559]}},{"type":"Feature","properties":{"nome":"Padre Vitor","osm_id":9328369754,"osm_tipo":"node","tipo_lugar":"suburb"},"geometry":{"type":"Point","coordinates":[-44.0585126,-20.6778777]}},{"type":"Feature","properties":{"nome":"Vargem do Engenho","osm_id":9405863039,"osm_tipo":"node","tipo_lugar":"suburb"},"geometry":{"type":"Point","coordinates":[-44.0619024,-20.6548598]}}]}