{"type":"FeatureCollection","features":[{"type":"Feature","properties":{"nome":"Vale do Sol","osm_id":3068701704,"osm_tipo":"node","tipo_lugar":"suburb"},"geometry":{"type":"Point","coordinates":[-42.656818,-20.8473543]}},{"type":"Feature","properties":{"nome":"Progresso","osm_id":3068701706,"osm_tipo":"node","tipo_lugar":"suburb"},"geometry":{"type":"Point","coordinates":[-42.6634028,-20.8373269]}},{"type":"Feature","properties":{"nome":"Vila São Geraldo","osm_id":3068701707,"osm_tipo":"node","tipo_lugar":"suburb"},"geometry":{"type":"Point","coordinates":[-42.6580811,-20.8305945]}},{"type":"Feature","properties":{"nome":"Sapucaia","osm_id":3068701708,"osm_tipo":"node","tipo_lugar":"suburb"},"geometry":{"type":"Point","coordinates":[-42.6521626,-20.8349712]}},{"type":"Feature","properties":{"nome":"Pedreira","osm_id":3068701709,"osm_tipo":"node","tipo_lugar":"suburb"},"geometry":{"type":"Point","coordinates":[-42.6464449,-20.8418202]}},{"type":"Feature","properties":{"nome":"Alto São Pedro","osm_id":3068701711,"osm_tipo":"node","tipo_lugar":"suburb"},"geometry":{"type":"Point","coordinates":[-42.6488233,-20.8472221]}},{"type":"Feature","properties":{"nome":"São Pedro","osm_id":3068701712,"osm_tipo":"node","tipo_lugar":"suburb"},"geometry":{"type":"Point","coordinates":[-42.6534023,-20.8446164]}},{"type":"Feature","properties":{"nome":"Bela Vista","osm_id":3068701713,"osm_tipo":"node","tipo_lugar":"suburb"},"geometry":{"type":"Point","coordinates":[-42.6606647,-20.8503854]}},{"type":"Feature","properties":{"nome":"Centro","osm_id":11976391672,"osm_tipo":"node","tipo_lugar":"suburb"},"geometry":{"type":"Point","coordinates":[-42.6570122,-20.8389819]}}]}