{"type":"FeatureCollection","features":[{"type":"Feature","properties":{"nome":"Vargem do Bento da Costa","osm_id":416656123,"osm_tipo":"node","tipo_lugar":"suburb"},"geometry":{"type":"Point","coordinates":[-44.3802827,-19.7035453]}},{"type":"Feature","properties":{"nome":"Urucuia","osm_id":416656129,"osm_tipo":"node","tipo_lugar":"neighbourhood"},"geometry":{"type":"Point","coordinates":[-44.3567884,-19.6400002]}},{"type":"Feature","properties":{"nome":"Caracóis","osm_id":416656134,"osm_tipo":"node","tipo_lugar":"neighbourhood"},"geometry":{"type":"Point","coordinates":[-44.2434585,-19.7779088]}},{"type":"Feature","properties":{"nome":"La Tolita 1","osm_id":1144505967,"osm_tipo":"node","tipo_lugar":"neighbourhood"},"geometry":{"type":"Point","coordinates":[-79.6835233,0.9213556]}},{"type":"Feature","properties":{"nome":"Vale Bom Jesus","osm_id":2294850417,"osm_tipo":"node","tipo_lugar":"suburb"},"geometry":{"type":"Point","coordinates":[-44.2376944,-19.6037881]}},{"type":"Feature","properties":{"nome":"Macacos","osm_id":2294850420,"osm_tipo":"node","tipo_lugar":"suburb"},"geometry":{"type":"Point","coordinates":[-44.2465349,-19.6106607]}},{"type":"Feature","properties":{"nome":"Porteira de Chaves","osm_id":2294863794,"osm_tipo":"node","tipo_lugar":"neighbourhood"},"geometry":{"type":"Point","coordinates":[-44.4134327,-19.6614278]}},{"type":"Feature","properties":{"nome":"Fernão Dias","osm_id":2294881105,"osm_tipo":"node","tipo_lugar":"neighbourhood"},"geometry":{"type":"Point","coordinates":[-44.3040201,-19.775817]}},{"type":"Feature","properties":{"nome":"Cidade Jardim","osm_id":2294881109,"osm_tipo":"node","tipo_lugar":"neighbourhood"},"geometry":{"type":"Point","coordinates":[-44.2822405,-19.8054766]}},{"type":"Feature","properties":{"nome":"Bambus","osm_id":2294881110,"osm_tipo":"node","tipo_lugar":"suburb"},"geometry":{"type":"Point","coordinates":[-44.33876,-19.8611061]}},{"type":"Feature","properties":{"nome":"Centro","osm_id":2294881111,"osm_tipo":"node","tipo_lugar":"neighbourhood"},"geometry":{"type":"Point","coordinates":[-44.3134635,-19.7604746]}},{"type":"Feature","properties":{"nome":"Nova Esmeraldas","osm_id":2294881112,"osm_tipo":"node","tipo_lugar":"neighbourhood"},"geometry":{"type":"Point","coordinates":[-44.3148347,-19.7909201]}},{"type":"Feature","properties":{"nome":"Parque Lagoa das Flores","osm_id":2294881114,"osm_tipo":"node","tipo_lugar":"neighbourhood"},"geometry":{"type":"Point","coordinates":[-44.2710825,-19.8198905]}},{"type":"Feature","properties":{"nome":"Santa Quitéria","osm_id":2294881115,"osm_tipo":"node","tipo_lugar":"neighbourhood"},"geometry":{"type":"Point","coordinates":[-44.3182465,-19.7828841]}},{"type":"Feature","properties":{"nome":"Abóboras","osm_id":2294881116,"osm_tipo":"node","tipo_lugar":"neighbourhood"},"geometry":{"type":"Point","coordinates":[-44.2835709,-19.8185985]}},{"type":"Feature","properties":{"nome":"Residencial Caio Martins","osm_id":2294881117,"osm_tipo":"node","tipo_lugar":"neighbourhood"},"geometry":{"type":"Point","coordinates":[-44.3116804,-19.8100391]}},{"type":"Feature","properties":{"nome":"Vista Alegre","osm_id":2294881118,"osm_tipo":"node","tipo_lugar":"suburb"},"geometry":{"type":"Point","coordinates":[-44.3769118,-19.8446373]}},{"type":"Feature","properties":{"nome":"Cachoeirinha","osm_id":2294881119,"osm_tipo":"node","tipo_lugar":"neighbourhood"},"geometry":{"type":"Point","coordinates":[-44.4635471,-19.6718642]}},{"type":"Feature","properties":{"nome":"Medeiros","osm_id":2294881120,"osm_tipo":"node","tipo_lugar":"neighbourhood"},"geometry":{"type":"Point","coordinates":[-44.4409415,-19.6497883]}},{"type":"Feature","properties":{"nome":"Caracóis de Cima","osm_id":2294881121,"osm_tipo":"node","tipo_lugar":"neighbourhood"},"geometry":{"type":"Point","coordinates":[-44.2389782,-19.7590657]}},{"type":"Feature","properties":{"nome":"Refúgio dos Tropeiros","osm_id":2294881122,"osm_tipo":"node","tipo_lugar":"neighbourhood"},"geometry":{"type":"Point","coordinates":[-44.2970811,-19.8019972]}},{"type":"Feature","properties":{"nome":"Mamona","osm_id":2294881123,"osm_tipo":"node","tipo_lugar":"suburb"},"geometry":{"type":"Point","coordinates":[-44.33615,-19.9266059]}},{"type":"Feature","properties":{"nome":"Pousada do Lago","osm_id":2294881124,"osm_tipo":"node","tipo_lugar":"neighbourhood"},"geometry":{"type":"Point","coordinates":[-44.3206497,-19.8101199]}},{"type":"Feature","properties":{"nome":"São Pedro","osm_id":2294889420,"osm_tipo":"node","tipo_lugar":"neighbourhood"},"geometry":{"type":"Point","coordinates":[-44.1572281,-19.7800775]}},{"type":"Feature","properties":{"nome":"Vale de Esmeraldas","osm_id":2294889421,"osm_tipo":"node","tipo_lugar":"neighbourhood"},"geometry":{"type":"Point","coordinates":[-44.1660687,-19.7592384]}},{"type":"Feature","properties":{"nome":"São Francisco","osm_id":2294889422,"osm_tipo":"node","tipo_lugar":"neighbourhood"},"geometry":{"type":"Point","coordinates":[-44.1647383,-19.7738584]}},{"type":"Feature","properties":{"nome":"Recanto Verde","osm_id":2294889423,"osm_tipo":"node","tipo_lugar":"neighbourhood"},"geometry":{"type":"Point","coordinates":[-44.1608759,-19.8230739]}},{"type":"Feature","properties":{"nome":"Manga","osm_id":2294889425,"osm_tipo":"node","tipo_lugar":"neighbourhood"},"geometry":{"type":"Point","coordinates":[-44.172674,-19.6867413]}},{"type":"Feature","properties":{"nome":"Amarilys","osm_id":2294889426,"osm_tipo":"node","tipo_lugar":"neighbourhood"},"geometry":{"type":"Point","coordinates":[-44.2089411,-19.8264712]}},{"type":"Feature","properties":{"nome":"Floresta Encantada","osm_id":2294889427,"osm_tipo":"node","tipo_lugar":"neighbourhood"},"geometry":{"type":"Point","coordinates":[-44.1792162,-19.7786685]}},{"type":"Feature","properties":{"nome":"Condomínio Turmalina","osm_id":2294889428,"osm_tipo":"node","tipo_lugar":"neighbourhood"},"geometry":{"type":"Point","coordinates":[-44.1925474,-19.8342223]}},{"type":"Feature","properties":{"nome":"Rota PUC","osm_id":2294889429,"osm_tipo":"node","tipo_lugar":"neighbourhood"},"geometry":{"type":"Point","coordinates":[-44.1807028,-19.7888808]}},{"type":"Feature","properties":{"nome":"Condomínio Nossa Fazenda","osm_id":2294889430,"osm_tipo":"node","tipo_lugar":"neighbourhood"},"geometry":{"type":"Point","coordinates":[-44.1529152,-19.798613]}},{"type":"Feature","properties":{"nome":"Ipê Amarelo","osm_id":2294889433,"osm_tipo":"node","tipo_lugar":"neighbourhood"},"geometry":{"type":"Point","coordinates":[-44.1394612,-19.7118475]}},{"type":"Feature","properties":{"nome":"Condomínio Vale do Ipê Amarelo","osm_id":2294889434,"osm_tipo":"node","tipo_lugar":"neighbourhood"},"geometry":{"type":"Point","coordinates":[-44.1453597,-19.7055075]}},{"type":"Feature","properties":{"nome":"Mirante do Palmital II","osm_id":2294889435,"osm_tipo":"node","tipo_lugar":"neighbourhood"},"geometry":{"type":"Point","coordinates":[-44.179587,-19.7175459]}},{"type":"Feature","properties":{"nome":"Recreio dos Bandeirantes","osm_id":2294889436,"osm_tipo":"node","tipo_lugar":"neighbourhood"},"geometry":{"type":"Point","coordinates":[-44.1706606,-19.7276514]}},{"type":"Feature","properties":{"nome":"Tijuco","osm_id":2294889437,"osm_tipo":"node","tipo_lugar":"neighbourhood"},"geometry":{"type":"Point","coordinates":[-44.1599774,-19.7319353]}},{"type":"Feature","properties":{"nome":"Paraguai","osm_id":2294889438,"osm_tipo":"node","tipo_lugar":"neighbourhood"},"geometry":{"type":"Point","coordinates":[-44.1836881,-19.7103293]}},{"type":"Feature","properties":{"nome":"Condomínio Aldeias do Lago","osm_id":2294889439,"osm_tipo":"node","tipo_lugar":"neighbourhood"},"geometry":{"type":"Point","coordinates":[-44.1861531,-19.7255508]}},{"type":"Feature","properties":{"nome":"Santa Cecília","osm_id":2294889440,"osm_tipo":"node","tipo_lugar":"neighbourhood"},"geometry":{"type":"Point","coordinates":[-44.1555544,-19.7731315]}},{"type":"Feature","properties":{"nome":"Mirante do Palmital I","osm_id":2294889441,"osm_tipo":"node","tipo_lugar":"neighbourhood"},"geometry":{"type":"Point","coordinates":[-44.1915767,-19.7078015]}},{"type":"Feature","properties":{"nome":"Quintas São José","osm_id":2294889442,"osm_tipo":"node","tipo_lugar":"neighbourhood"},"geometry":{"type":"Point","coordinates":[-44.1459414,-19.7258255]}},{"type":"Feature","properties":{"nome":"Vianinha","osm_id":2294893768,"osm_tipo":"node","tipo_lugar":"neighbourhood"},"geometry":{"type":"Point","coordinates":[-44.2005563,-19.6977602]}},{"type":"Feature","properties":{"nome":"Quati","osm_id":2294893769,"osm_tipo":"node","tipo_lugar":"neighbourhood"},"geometry":{"type":"Point","coordinates":[-44.1930624,-19.7396487]}},{"type":"Feature","properties":{"nome":"Jardim das Oliveiras","osm_id":2294893770,"osm_tipo":"node","tipo_lugar":"neighbourhood"},"geometry":{"type":"Point","coordinates":[-44.2207003,-19.7074702]}},{"type":"Feature","properties":{"nome":"Redentor","osm_id":2294893771,"osm_tipo":"node","tipo_lugar":"neighbourhood"},"geometry":{"type":"Point","coordinates":[-44.2069855,-19.7218072]}},{"type":"Feature","properties":{"nome":"Boa Vista","osm_id":2294898219,"osm_tipo":"node","tipo_lugar":"suburb"},"geometry":{"type":"Point","coordinates":[-44.369515,-19.7865947]}},{"type":"Feature","properties":{"nome":"Las 50 Casas","osm_id":3658345976,"osm_tipo":"node","tipo_lugar":"neighbourhood"},"geometry":{"type":"Point","coordinates":[-79.6904513,0.9231626]}},{"type":"Feature","properties":{"nome":"Valle Hermoso","osm_id":3658355511,"osm_tipo":"node","tipo_lugar":"neighbourhood"},"geometry":{"type":"Point","coordinates":[-79.6933964,0.9093732]}},{"type":"Feature","properties":{"nome":"Ciudadela La Victoria","osm_id":3658386822,"osm_tipo":"node","tipo_lugar":"neighbourhood"},"geometry":{"type":"Point","coordinates":[-79.6727958,0.9251287]}},{"type":"Feature","properties":{"nome":"Ciudadela La Nueva Concordia","osm_id":3658396161,"osm_tipo":"node","tipo_lugar":"neighbourhood"},"geometry":{"type":"Point","coordinates":[-79.6665063,0.9235934]}},{"type":"Feature","properties":{"nome":"Ciudadela Las Orquídeas","osm_id":3658401618,"osm_tipo":"node","tipo_lugar":"neighbourhood"},"geometry":{"type":"Point","coordinates":[-79.6855816,0.9185234]}},{"type":"Feature","properties":{"nome":"Ciudadela Casa Bonita","osm_id":3659226733,"osm_tipo":"node","tipo_lugar":"neighbourhood"},"geometry":{"type":"Point","coordinates":[-79.7116118,0.8911931]}},{"type":"Feature","properties":{"nome":"Barrio La Primavera","osm_id":3659230729,"osm_tipo":"node","tipo_lugar":"neighbourhood"},"geometry":{"type":"Point","coordinates":[-79.7094486,0.8968351]}},{"type":"Feature","properties":{"nome":"Barrio Gatazo","osm_id":3659238646,"osm_tipo":"node","tipo_lugar":"neighbourhood"},"geometry":{"type":"Point","coordinates":[-79.7113152,0.8944389]}},{"type":"Feature","properties":{"nome":"Barrio La Cananga","osm_id":3659241304,"osm_tipo":"node","tipo_lugar":"neighbourhood"},"geometry":{"type":"Point","coordinates":[-79.7072298,0.9015369]}},{"type":"Feature","properties":{"nome":"Conjunto Residencial Costa Verde","osm_id":3659241349,"osm_tipo":"node","tipo_lugar":"neighbourhood"},"geometry":{"type":"Point","coordinates":[-79.7172209,0.8934792]}},{"type":"Feature","properties":{"nome":"São José","osm_id":3967137814,"osm_tipo":"node","tipo_lugar":"neighbourhood"},"geometry":{"type":"Point","coordinates":[-44.4599894,-19.6988467]}},{"type":"Feature","properties":{"nome":"Chácara das Goiabeiras","osm_id":4028356526,"osm_tipo":"node","tipo_lugar":"neighbourhood"},"geometry":{"type":"Point","coordinates":[-44.2045625,-19.7048556]}},{"type":"Feature","properties":{"nome":"Corcovado II","osm_id":4028356527,"osm_tipo":"node","tipo_lugar":"neighbourhood"},"geometry":{"type":"Point","coordinates":[-44.2220021,-19.7009349]}},{"type":"Feature","properties":{"nome":"Corcovado","osm_id":4028356528,"osm_tipo":"node","tipo_lugar":"neighbourhood"},"geometry":{"type":"Point","coordinates":[-44.2248862,-19.7036756]}},{"type":"Feature","properties":{"nome":"Jardim Bandeirante","osm_id":4028356530,"osm_tipo":"node","tipo_lugar":"neighbourhood"},"geometry":{"type":"Point","coordinates":[-44.1980799,-19.710895]}},{"type":"Feature","properties":{"nome":"Jardim Barone","osm_id":4028356531,"osm_tipo":"node","tipo_lugar":"neighbourhood"},"geometry":{"type":"Point","coordinates":[-44.1999532,-19.705528]}},{"type":"Feature","properties":{"nome":"Jardim Coqueirais I","osm_id":4028356532,"osm_tipo":"node","tipo_lugar":"neighbourhood"},"geometry":{"type":"Point","coordinates":[-44.1707193,-19.6996572]}},{"type":"Feature","properties":{"nome":"Jardim Flamboyant","osm_id":4028356533,"osm_tipo":"node","tipo_lugar":"neighbourhood"},"geometry":{"type":"Point","coordinates":[-44.1522288,-19.7372509]}},{"type":"Feature","properties":{"nome":"Los Angeles","osm_id":4028356534,"osm_tipo":"node","tipo_lugar":"neighbourhood"},"geometry":{"type":"Point","coordinates":[-44.180725,-19.6834181]}},{"type":"Feature","properties":{"nome":"Mediterrâneo","osm_id":4028356535,"osm_tipo":"node","tipo_lugar":"neighbourhood"},"geometry":{"type":"Point","coordinates":[-44.181469,-19.6911693]}},{"type":"Feature","properties":{"nome":"Novo Oriente","osm_id":4028356536,"osm_tipo":"node","tipo_lugar":"neighbourhood"},"geometry":{"type":"Point","coordinates":[-44.1773096,-19.7019636]}},{"type":"Feature","properties":{"nome":"Pinheiros","osm_id":4028356537,"osm_tipo":"node","tipo_lugar":"neighbourhood"},"geometry":{"type":"Point","coordinates":[-44.1821603,-19.730436]}},{"type":"Feature","properties":{"nome":"Quinta das Esmeraldas","osm_id":4028356538,"osm_tipo":"node","tipo_lugar":"neighbourhood"},"geometry":{"type":"Point","coordinates":[-44.1738451,-19.6929997]}},{"type":"Feature","properties":{"nome":"Recanto das Estrelas","osm_id":4028356539,"osm_tipo":"node","tipo_lugar":"neighbourhood"},"geometry":{"type":"Point","coordinates":[-44.1672288,-19.7328197]}},{"type":"Feature","properties":{"nome":"Recreio do Tijuco","osm_id":4028356540,"osm_tipo":"node","tipo_lugar":"neighbourhood"},"geometry":{"type":"Point","coordinates":[-44.163436,-19.7343087]}},{"type":"Feature","properties":{"nome":"Redentor II","osm_id":4028356541,"osm_tipo":"node","tipo_lugar":"neighbourhood"},"geometry":{"type":"Point","coordinates":[-44.2088721,-19.7259661]}},{"type":"Feature","properties":{"nome":"Vale das Esmeraldas I","osm_id":4028356542,"osm_tipo":"node","tipo_lugar":"neighbourhood"},"geometry":{"type":"Point","coordinates":[-44.1486456,-19.7298595]}},{"type":"Feature","properties":{"nome":"Vale das Esmeraldas II","osm_id":4028356543,"osm_tipo":"node","tipo_lugar":"neighbourhood"},"geometry":{"type":"Point","coordinates":[-44.1551831,-19.7308103]}},{"type":"Feature","properties":{"nome":"Vale das Esmeraldas III","osm_id":4028356544,"osm_tipo":"node","tipo_lugar":"neighbourhood"},"geometry":{"type":"Point","coordinates":[-44.1486456,-19.7340935]}},{"type":"Feature","properties":{"nome":"Vivendas Barbosa","osm_id":4028356545,"osm_tipo":"node","tipo_lugar":"neighbourhood"},"geometry":{"type":"Point","coordinates":[-44.1612466,-19.7084496]}},{"type":"Feature","properties":{"nome":"Vivendas Cambuí","osm_id":4028356546,"osm_tipo":"node","tipo_lugar":"neighbourhood"},"geometry":{"type":"Point","coordinates":[-44.1710624,-19.7059555]}},{"type":"Feature","properties":{"nome":"Ciudadela Estupiñán","osm_id":4139547535,"osm_tipo":"node","tipo_lugar":"neighbourhood"},"geometry":{"type":"Point","coordinates":[-79.6764997,0.9201844]}},{"type":"Feature","properties":{"nome":"Las Palmas","osm_id":4699240010,"osm_tipo":"node","tipo_lugar":"neighbourhood"},"geometry":{"type":"Point","coordinates":[-79.6574934,0.9899086]}},{"type":"Feature","properties":{"nome":"Serra Verde","osm_id":4727908298,"osm_tipo":"node","tipo_lugar":"neighbourhood"},"geometry":{"type":"Point","coordinates":[-44.1604718,-19.8366047]}},{"type":"Feature","properties":{"nome":"Monte Sinai","osm_id":4727908299,"osm_tipo":"node","tipo_lugar":"neighbourhood"},"geometry":{"type":"Point","coordinates":[-44.1672953,-19.8393901]}},{"type":"Feature","properties":{"nome":"Recanto Verde II","osm_id":4727908300,"osm_tipo":"node","tipo_lugar":"neighbourhood"},"geometry":{"type":"Point","coordinates":[-44.1513308,-19.8133505]}},{"type":"Feature","properties":{"nome":"Recreio","osm_id":4727908301,"osm_tipo":"node","tipo_lugar":"neighbourhood"},"geometry":{"type":"Point","coordinates":[-44.1504511,-19.8187606]}},{"type":"Feature","properties":{"nome":"Novo Retiro","osm_id":4727908303,"osm_tipo":"node","tipo_lugar":"neighbourhood"},"geometry":{"type":"Point","coordinates":[-44.176329,-19.8320227]}},{"type":"Feature","properties":{"nome":"Condomínio Topázio","osm_id":4727908304,"osm_tipo":"node","tipo_lugar":"neighbourhood"},"geometry":{"type":"Point","coordinates":[-44.2024859,-19.8135826]}},{"type":"Feature","properties":{"nome":"Retiro","osm_id":4728332189,"osm_tipo":"node","tipo_lugar":"neighbourhood"},"geometry":{"type":"Point","coordinates":[-44.1674496,-19.833063]}},{"type":"Feature","properties":{"nome":"Praia","osm_id":4728364816,"osm_tipo":"node","tipo_lugar":"neighbourhood"},"geometry":{"type":"Point","coordinates":[-44.2304645,-19.7783411]}},{"type":"Feature","properties":{"nome":"Volta","osm_id":4728437410,"osm_tipo":"node","tipo_lugar":"neighbourhood"},"geometry":{"type":"Point","coordinates":[-44.1833434,-19.7629844]}},{"type":"Feature","properties":{"nome":"Beira Córrego","osm_id":4728437416,"osm_tipo":"node","tipo_lugar":"neighbourhood"},"geometry":{"type":"Point","coordinates":[-44.2200212,-19.783777]}},{"type":"Feature","properties":{"nome":"Padre João","osm_id":5170844836,"osm_tipo":"node","tipo_lugar":"neighbourhood"},"geometry":{"type":"Point","coordinates":[-44.3420023,-19.9045048]}},{"type":"Feature","properties":{"nome":"Tiwintza","osm_id":6218697201,"osm_tipo":"node","tipo_lugar":"neighbourhood"},"geometry":{"type":"Point","coordinates":[-79.6900499,0.9157101]}},{"type":"Feature","properties":{"nome":"Palmera Real","osm_id":6218697203,"osm_tipo":"node","tipo_lugar":"neighbourhood"},"geometry":{"type":"Point","coordinates":[-79.6890199,0.9103464]}},{"type":"Feature","properties":{"nome":"Condor Mirador","osm_id":6218697204,"osm_tipo":"node","tipo_lugar":"neighbourhood"},"geometry":{"type":"Point","coordinates":[-79.6905917,0.9120681]}},{"type":"Feature","properties":{"nome":"Samanes Bajo","osm_id":6218697205,"osm_tipo":"node","tipo_lugar":"neighbourhood"},"geometry":{"type":"Point","coordinates":[-79.6930325,0.9112367]}},{"type":"Feature","properties":{"nome":"31 de Mayo","osm_id":6218697206,"osm_tipo":"node","tipo_lugar":"neighbourhood"},"geometry":{"type":"Point","coordinates":[-79.6918416,0.9066668]}},{"type":"Feature","properties":{"nome":"Lucha de los Pobres","osm_id":6218697207,"osm_tipo":"node","tipo_lugar":"neighbourhood"},"geometry":{"type":"Point","coordinates":[-79.697721,0.9191965]}},{"type":"Feature","properties":{"nome":"Castelo Branco","osm_id":7228275544,"osm_tipo":"node","tipo_lugar":"neighbourhood"},"geometry":{"type":"Point","coordinates":[-44.3078614,-19.7508712]}},{"type":"Feature","properties":{"nome":"Sihabitad","osm_id":8443694231,"osm_tipo":"node","tipo_lugar":"neighbourhood"},"geometry":{"type":"Point","coordinates":[-79.6863898,0.9198407]}},{"type":"Feature","properties":{"nome":"S/N","osm_id":8443907258,"osm_tipo":"node","tipo_lugar":"neighbourhood"},"geometry":{"type":"Point","coordinates":[-79.6688156,0.9232144]}},{"type":"Feature","properties":{"nome":"Barrio La Floresta","osm_id":9853700080,"osm_tipo":"node","tipo_lugar":"neighbourhood"},"geometry":{"type":"Point","coordinates":[-79.7036916,0.9010134]}},{"type":"Feature","properties":{"nome":"Barrio La Pumpula","osm_id":9853700081,"osm_tipo":"node","tipo_lugar":"neighbourhood"},"geometry":{"type":"Point","coordinates":[-79.701747,0.9014747]}},{"type":"Feature","properties":{"nome":"Las Acacias","osm_id":9853700092,"osm_tipo":"node","tipo_lugar":"neighbourhood"},"geometry":{"type":"Point","coordinates":[-79.6826953,0.9163967]}},{"type":"Feature","properties":{"nome":"Ciudadela Tecnipetrol","osm_id":427235180,"osm_tipo":"way","tipo_lugar":"neighbourhood"},"geometry":{"type":"Polygon","coordinates":[[[-79.7073545,0.9001785],[-79.7089766,0.9009502],[-79.7078023,0.8994743],[-79.7073545,0.9001785]]]}},{"type":"Feature","properties":{"nome":"Retiro","osm_id":5420583,"osm_tipo":"relation","tipo_lugar":"neighbourhood"},"geometry":{"type":"MultiPolygon","coordinates":[[[[-44.155324,-19.8349527],[-44.1541396,-19.832698],[-44.1487166,-19.8357002],[-44.155324,-19.8349527]]],[[[-44.1703791,-19.8401905],[-44.1668086,-19.8348313],[-44.1606284,-19.8394182],[-44.1662915,-19.8444406],[-44.170341,-19.8440231],[-44.1703791,-19.8401905]]],[[[-44.170341,-19.8440231],[-44.1702718,-19.8415522],[-44.1703791,-19.8401905],[-44.170341,-19.8440231]]]]}}]}