{"type":"FeatureCollection","features":[{"type":"Feature","properties":{"nome":"Progresso","osm_id":3413737283,"osm_tipo":"node","tipo_lugar":"suburb"},"geometry":{"type":"Point","coordinates":[-49.4573478,-18.9663104]}},{"type":"Feature","properties":{"nome":"Novo Tempo II","osm_id":3414603929,"osm_tipo":"node","tipo_lugar":"suburb"},"geometry":{"type":"Point","coordinates":[-49.4806705,-19.0039387]}},{"type":"Feature","properties":{"nome":"Jerônimo Mendonça","osm_id":3414606749,"osm_tipo":"node","tipo_lugar":"suburb"},"geometry":{"type":"Point","coordinates":[-49.473873,-18.9966198]}},{"type":"Feature","properties":{"nome":"Residencial Santa Edwiges","osm_id":3414615016,"osm_tipo":"node","tipo_lugar":"suburb"},"geometry":{"type":"Point","coordinates":[-49.436817,-18.9933389]}},{"type":"Feature","properties":{"nome":"Residencial Canaã","osm_id":3414615212,"osm_tipo":"node","tipo_lugar":"suburb"},"geometry":{"type":"Point","coordinates":[-49.4374295,-18.984084]}},{"type":"Feature","properties":{"nome":"Portal dos Ipês","osm_id":3414615213,"osm_tipo":"node","tipo_lugar":"suburb"},"geometry":{"type":"Point","coordinates":[-49.4395538,-18.9801679]}},{"type":"Feature","properties":{"nome":"Buritis","osm_id":3414615214,"osm_tipo":"node","tipo_lugar":"suburb"},"geometry":{"type":"Point","coordinates":[-49.4356699,-18.9795185]}},{"type":"Feature","properties":{"nome":"Chácaras Esperança","osm_id":3414615613,"osm_tipo":"node","tipo_lugar":"suburb"},"geometry":{"type":"Point","coordinates":[-49.4367428,-18.9983476]}},{"type":"Feature","properties":{"nome":"Residencial Drummond","osm_id":3414616412,"osm_tipo":"node","tipo_lugar":"suburb"},"geometry":{"type":"Point","coordinates":[-49.4417132,-18.964961]}},{"type":"Feature","properties":{"nome":"Satélite Andradina","osm_id":3414617071,"osm_tipo":"node","tipo_lugar":"suburb"},"geometry":{"type":"Point","coordinates":[-49.4792076,-18.9601191]}},{"type":"Feature","properties":{"nome":"Santo Antônio","osm_id":3414619327,"osm_tipo":"node","tipo_lugar":"suburb"},"geometry":{"type":"Point","coordinates":[-49.4610766,-18.9589736]}},{"type":"Feature","properties":{"nome":"Jardim Europa","osm_id":3414639943,"osm_tipo":"node","tipo_lugar":"suburb"},"geometry":{"type":"Point","coordinates":[-49.488819,-18.9742143]}},{"type":"Feature","properties":{"nome":"Bela Vista","osm_id":3418373164,"osm_tipo":"node","tipo_lugar":"suburb"},"geometry":{"type":"Point","coordinates":[-49.4511973,-18.9567418]}},{"type":"Feature","properties":{"nome":"Setor Industrial Antônio Baduy","osm_id":3418373165,"osm_tipo":"node","tipo_lugar":"suburb"},"geometry":{"type":"Point","coordinates":[-49.4550522,-18.9505614]}},{"type":"Feature","properties":{"nome":"Tiradentes","osm_id":3418373746,"osm_tipo":"node","tipo_lugar":"suburb"},"geometry":{"type":"Point","coordinates":[-49.4572195,-18.9505208]}},{"type":"Feature","properties":{"nome":"Paranaíba","osm_id":3418374319,"osm_tipo":"node","tipo_lugar":"suburb"},"geometry":{"type":"Point","coordinates":[-49.4611891,-18.9460762]}},{"type":"Feature","properties":{"nome":"Maria Vilela","osm_id":3418374442,"osm_tipo":"node","tipo_lugar":"suburb"},"geometry":{"type":"Point","coordinates":[-49.4582845,-18.9559244]}},{"type":"Feature","properties":{"nome":"Gardênia","osm_id":3418375005,"osm_tipo":"node","tipo_lugar":"suburb"},"geometry":{"type":"Point","coordinates":[-49.4598295,-18.9506693]}},{"type":"Feature","properties":{"nome":"São José","osm_id":3418376493,"osm_tipo":"node","tipo_lugar":"suburb"},"geometry":{"type":"Point","coordinates":[-49.4647768,-18.9554997]}},{"type":"Feature","properties":{"nome":"Cristina","osm_id":3418376998,"osm_tipo":"node","tipo_lugar":"suburb"},"geometry":{"type":"Point","coordinates":[-49.4537648,-18.9575629]}},{"type":"Feature","properties":{"nome":"Ipiranga","osm_id":3418377009,"osm_tipo":"node","tipo_lugar":"suburb"},"geometry":{"type":"Point","coordinates":[-49.453164,-18.9623725]}},{"type":"Feature","properties":{"nome":"Nossa Senhora Aparecida","osm_id":3418377493,"osm_tipo":"node","tipo_lugar":"suburb"},"geometry":{"type":"Point","coordinates":[-49.4557818,-18.9547624]}},{"type":"Feature","properties":{"nome":"Universitário","osm_id":3418377623,"osm_tipo":"node","tipo_lugar":"suburb"},"geometry":{"type":"Point","coordinates":[-49.4471627,-18.9702548]}},{"type":"Feature","properties":{"nome":"Novo Horizonte","osm_id":3418378459,"osm_tipo":"node","tipo_lugar":"suburb"},"geometry":{"type":"Point","coordinates":[-49.4436153,-18.9757046]}},{"type":"Feature","properties":{"nome":"Camargo","osm_id":3418378674,"osm_tipo":"node","tipo_lugar":"suburb"},"geometry":{"type":"Point","coordinates":[-49.4471085,-18.9784629]}},{"type":"Feature","properties":{"nome":"Jardim do Rosário","osm_id":3418378853,"osm_tipo":"node","tipo_lugar":"suburb"},"geometry":{"type":"Point","coordinates":[-49.4477744,-18.9824725]}},{"type":"Feature","properties":{"nome":"Setor Norte","osm_id":3418379444,"osm_tipo":"node","tipo_lugar":"suburb"},"geometry":{"type":"Point","coordinates":[-49.4661129,-18.9623555]}},{"type":"Feature","properties":{"nome":"Centro","osm_id":3418380193,"osm_tipo":"node","tipo_lugar":"suburb"},"geometry":{"type":"Point","coordinates":[-49.4605574,-18.9749688]}},{"type":"Feature","properties":{"nome":"Alcides Junqueira","osm_id":3418382070,"osm_tipo":"node","tipo_lugar":"suburb"},"geometry":{"type":"Point","coordinates":[-49.450906,-18.9868421]}},{"type":"Feature","properties":{"nome":"Brasil","osm_id":3418383693,"osm_tipo":"node","tipo_lugar":"suburb"},"geometry":{"type":"Point","coordinates":[-49.4455477,-18.9921507]}},{"type":"Feature","properties":{"nome":"Residencial Eldorado","osm_id":3418385310,"osm_tipo":"node","tipo_lugar":"suburb"},"geometry":{"type":"Point","coordinates":[-49.4426675,-18.9921916]}},{"type":"Feature","properties":{"nome":"Elândia","osm_id":3418386755,"osm_tipo":"node","tipo_lugar":"suburb"},"geometry":{"type":"Point","coordinates":[-49.4616361,-18.9904328]}},{"type":"Feature","properties":{"nome":"Carvalho","osm_id":3418387395,"osm_tipo":"node","tipo_lugar":"suburb"},"geometry":{"type":"Point","coordinates":[-49.4564338,-18.9888933]}},{"type":"Feature","properties":{"nome":"Nadime Derze Jorge","osm_id":3467581392,"osm_tipo":"node","tipo_lugar":"suburb"},"geometry":{"type":"Point","coordinates":[-49.4286268,-18.9838714]}},{"type":"Feature","properties":{"nome":"Jardim Estados Unidos","osm_id":3598544600,"osm_tipo":"node","tipo_lugar":"suburb"},"geometry":{"type":"Point","coordinates":[-49.4924266,-18.9785969]}},{"type":"Feature","properties":{"nome":"Vila Hélio","osm_id":3599301921,"osm_tipo":"node","tipo_lugar":"suburb"},"geometry":{"type":"Point","coordinates":[-49.4829562,-18.9789043]}},{"type":"Feature","properties":{"nome":"Lagoa Azul","osm_id":3599302963,"osm_tipo":"node","tipo_lugar":"suburb"},"geometry":{"type":"Point","coordinates":[-49.4892004,-18.9791275]}},{"type":"Feature","properties":{"nome":"Nova Ituiutaba","osm_id":3631170893,"osm_tipo":"node","tipo_lugar":"suburb"},"geometry":{"type":"Point","coordinates":[-49.4523585,-19.0135038]}},{"type":"Feature","properties":{"nome":"Alvorada","osm_id":3695637517,"osm_tipo":"node","tipo_lugar":"suburb"},"geometry":{"type":"Point","coordinates":[-49.4805417,-18.9706754]}},{"type":"Feature","properties":{"nome":"Sol Nascente","osm_id":3695637518,"osm_tipo":"node","tipo_lugar":"suburb"},"geometry":{"type":"Point","coordinates":[-49.4893623,-18.9820605]}},{"type":"Feature","properties":{"nome":"Independência","osm_id":3695650753,"osm_tipo":"node","tipo_lugar":"suburb"},"geometry":{"type":"Point","coordinates":[-49.4531727,-18.9938235]}},{"type":"Feature","properties":{"nome":"Central","osm_id":3695652799,"osm_tipo":"node","tipo_lugar":"suburb"},"geometry":{"type":"Point","coordinates":[-49.4703309,-18.9695364]}},{"type":"Feature","properties":{"nome":"Marta Helena","osm_id":3695652800,"osm_tipo":"node","tipo_lugar":"suburb"},"geometry":{"type":"Point","coordinates":[-49.4806857,-18.9815237]}},{"type":"Feature","properties":{"nome":"Novo Mundo","osm_id":3695652801,"osm_tipo":"node","tipo_lugar":"suburb"},"geometry":{"type":"Point","coordinates":[-49.4722683,-18.968972]}},{"type":"Feature","properties":{"nome":"Platina","osm_id":3695652802,"osm_tipo":"node","tipo_lugar":"suburb"},"geometry":{"type":"Point","coordinates":[-49.4729721,-18.9756713]}},{"type":"Feature","properties":{"nome":"Natal","osm_id":3730538192,"osm_tipo":"node","tipo_lugar":"suburb"},"geometry":{"type":"Point","coordinates":[-49.4713826,-18.9893051]}},{"type":"Feature","properties":{"nome":"Setor Sul","osm_id":3730538193,"osm_tipo":"node","tipo_lugar":"suburb"},"geometry":{"type":"Point","coordinates":[-49.4623132,-18.9853008]}},{"type":"Feature","properties":{"nome":"Guimarães","osm_id":3736455944,"osm_tipo":"node","tipo_lugar":"suburb"},"geometry":{"type":"Point","coordinates":[-49.4817609,-18.9845444]}},{"type":"Feature","properties":{"nome":"Jardim Jamila","osm_id":3736455945,"osm_tipo":"node","tipo_lugar":"suburb"},"geometry":{"type":"Point","coordinates":[-49.4805776,-18.9927814]}},{"type":"Feature","properties":{"nome":"Pirapitinga","osm_id":3736455946,"osm_tipo":"node","tipo_lugar":"suburb"},"geometry":{"type":"Point","coordinates":[-49.4805483,-18.9880909]}},{"type":"Feature","properties":{"nome":"Ribeiro","osm_id":3736455947,"osm_tipo":"node","tipo_lugar":"suburb"},"geometry":{"type":"Point","coordinates":[-49.4846085,-18.9849654]}},{"type":"Feature","properties":{"nome":"Morada do Sol","osm_id":3747884159,"osm_tipo":"node","tipo_lugar":"suburb"},"geometry":{"type":"Point","coordinates":[-49.4745562,-18.9729812]}},{"type":"Feature","properties":{"nome":"Camilo Chaves","osm_id":4612433758,"osm_tipo":"node","tipo_lugar":"suburb"},"geometry":{"type":"Point","coordinates":[-49.4951823,-18.986478]}},{"type":"Feature","properties":{"nome":"Cidade Jardim","osm_id":4612433759,"osm_tipo":"node","tipo_lugar":"suburb"},"geometry":{"type":"Point","coordinates":[-49.4899466,-18.9884258]}},{"type":"Feature","properties":{"nome":"Di Maria","osm_id":4612433760,"osm_tipo":"node","tipo_lugar":"suburb"},"geometry":{"type":"Point","coordinates":[-49.4339557,-18.9818938]}},{"type":"Feature","properties":{"nome":"Distrito Industrial Manoel Afonso Cancella","osm_id":4612433761,"osm_tipo":"node","tipo_lugar":"suburb"},"geometry":{"type":"Point","coordinates":[-49.4913341,-18.9626578]}},{"type":"Feature","properties":{"nome":"Doutor Marcondes Bernardes Ferreira","osm_id":4612433762,"osm_tipo":"node","tipo_lugar":"suburb"},"geometry":{"type":"Point","coordinates":[-49.4914916,-18.9955272]}},{"type":"Feature","properties":{"nome":"Gerson Baduy","osm_id":4612433763,"osm_tipo":"node","tipo_lugar":"suburb"},"geometry":{"type":"Point","coordinates":[-49.4641974,-19.0012081]}},{"type":"Feature","properties":{"nome":"Gilca Vilela Cancella","osm_id":4612433764,"osm_tipo":"node","tipo_lugar":"suburb"},"geometry":{"type":"Point","coordinates":[-49.4438126,-18.9999502]}},{"type":"Feature","properties":{"nome":"Jardim Europa II","osm_id":4612433765,"osm_tipo":"node","tipo_lugar":"suburb"},"geometry":{"type":"Point","coordinates":[-49.4944098,-18.9706051]}},{"type":"Feature","properties":{"nome":"Monte Verde","osm_id":4612433766,"osm_tipo":"node","tipo_lugar":"suburb"},"geometry":{"type":"Point","coordinates":[-49.4859769,-18.9729184]}},{"type":"Feature","properties":{"nome":"Portal do Cerrado","osm_id":4612433767,"osm_tipo":"node","tipo_lugar":"suburb"},"geometry":{"type":"Point","coordinates":[-49.4367452,-18.9889485]}},{"type":"Feature","properties":{"nome":"Residencial Ituiutaba","osm_id":4612433768,"osm_tipo":"node","tipo_lugar":"suburb"},"geometry":{"type":"Point","coordinates":[-49.4478896,-18.9992959]}},{"type":"Feature","properties":{"nome":"Santa Maria","osm_id":4612433769,"osm_tipo":"node","tipo_lugar":"suburb"},"geometry":{"type":"Point","coordinates":[-49.4623091,-18.9939801]}},{"type":"Feature","properties":{"nome":"Sol Nascente II","osm_id":4612433770,"osm_tipo":"node","tipo_lugar":"suburb"},"geometry":{"type":"Point","coordinates":[-49.4929507,-18.9973532]}},{"type":"Feature","properties":{"nome":"Tupã","osm_id":4612433771,"osm_tipo":"node","tipo_lugar":"suburb"},"geometry":{"type":"Point","coordinates":[-49.4548848,-19.000148]}},{"type":"Feature","properties":{"nome":"Chácaras Tijuco","osm_id":4624489864,"osm_tipo":"node","tipo_lugar":"suburb"},"geometry":{"type":"Point","coordinates":[-49.3797576,-18.9440149]}},{"type":"Feature","properties":{"nome":"Nova Ituiutaba","osm_id":358122095,"osm_tipo":"way","tipo_lugar":"suburb"},"geometry":{"type":"Polygon","coordinates":[[[-49.4565125,-19.0108428],[-49.4463251,-19.0098654],[-49.4460352,-19.0116438],[-49.4496264,-19.0177439],[-49.4585181,-19.0178736],[-49.4565125,-19.0108428]]]}}]}