{"type":"FeatureCollection","features":[{"type":"Feature","properties":{"nome":"Cama da Vaca","osm_id":1261381704,"osm_tipo":"node","tipo_lugar":"neighbourhood"},"geometry":{"type":"Point","coordinates":[-8.7589878,37.0775205]}},{"type":"Feature","properties":{"nome":"Monsenhor Parreiras","osm_id":4979666105,"osm_tipo":"node","tipo_lugar":"neighbourhood"},"geometry":{"type":"Point","coordinates":[-45.6876111,-19.7892882]}},{"type":"Feature","properties":{"nome":"Matos Morenos","osm_id":9821079015,"osm_tipo":"node","tipo_lugar":"neighbourhood"},"geometry":{"type":"Point","coordinates":[-8.7193981,37.1077003]}},{"type":"Feature","properties":{"nome":"Ferrel","osm_id":9821198087,"osm_tipo":"node","tipo_lugar":"neighbourhood"},"geometry":{"type":"Point","coordinates":[-8.7252727,37.1056246]}},{"type":"Feature","properties":{"nome":"Caliços","osm_id":9821201788,"osm_tipo":"node","tipo_lugar":"neighbourhood"},"geometry":{"type":"Point","coordinates":[-8.7364951,37.0971867]}},{"type":"Feature","properties":{"nome":"Monte Lemos","osm_id":9821201814,"osm_tipo":"node","tipo_lugar":"neighbourhood"},"geometry":{"type":"Point","coordinates":[-8.7383391,37.0902188]}},{"type":"Feature","properties":{"nome":"Valverde","osm_id":9821204560,"osm_tipo":"node","tipo_lugar":"neighbourhood"},"geometry":{"type":"Point","coordinates":[-8.7187184,37.101057]}},{"type":"Feature","properties":{"nome":"Montinhos da Luz","osm_id":9821204772,"osm_tipo":"node","tipo_lugar":"neighbourhood"},"geometry":{"type":"Point","coordinates":[-8.7488294,37.088786]}},{"type":"Feature","properties":{"nome":"Mata Porcas","osm_id":9821204824,"osm_tipo":"node","tipo_lugar":"neighbourhood"},"geometry":{"type":"Point","coordinates":[-8.7433338,37.0822037]}},{"type":"Feature","properties":{"nome":"Cerro Lamy","osm_id":9821204847,"osm_tipo":"node","tipo_lugar":"neighbourhood"},"geometry":{"type":"Point","coordinates":[-8.7519535,37.0787612]}}]}