{"type":"FeatureCollection","features":[{"type":"Feature","properties":{"nome":"Cabeceira do Bonfim","osm_id":3331922719,"osm_tipo":"node","tipo_lugar":"neighbourhood"},"geometry":{"type":"Point","coordinates":[-41.8610978,-20.3133039]}},{"type":"Feature","properties":{"nome":"Bonfim","osm_id":3331923928,"osm_tipo":"node","tipo_lugar":"neighbourhood"},"geometry":{"type":"Point","coordinates":[-41.8572139,-20.3312326]}},{"type":"Feature","properties":{"nome":"Vila Rica","osm_id":12251679108,"osm_tipo":"node","tipo_lugar":"suburb"},"geometry":{"type":"Point","coordinates":[-41.9450002,-20.345086]}},{"type":"Feature","properties":{"nome":"Campestre","osm_id":12251679109,"osm_tipo":"node","tipo_lugar":"suburb"},"geometry":{"type":"Point","coordinates":[-41.9380095,-20.3471198]}},{"type":"Feature","properties":{"nome":"Morada Nova","osm_id":12251679110,"osm_tipo":"node","tipo_lugar":"suburb"},"geometry":{"type":"Point","coordinates":[-41.9490712,-20.3468363]}},{"type":"Feature","properties":{"nome":"Nossa Sra. da Penha","osm_id":12251679111,"osm_tipo":"node","tipo_lugar":"suburb"},"geometry":{"type":"Point","coordinates":[-41.9522763,-20.3473487]}},{"type":"Feature","properties":{"nome":"Cidade Jardim","osm_id":12251679112,"osm_tipo":"node","tipo_lugar":"suburb"},"geometry":{"type":"Point","coordinates":[-41.9561804,-20.3496528]}},{"type":"Feature","properties":{"nome":"Nossa Sra. de Lourdes","osm_id":12251679113,"osm_tipo":"node","tipo_lugar":"suburb"},"geometry":{"type":"Point","coordinates":[-41.9472828,-20.3526815]}},{"type":"Feature","properties":{"nome":"Vila Verde","osm_id":12263152345,"osm_tipo":"node","tipo_lugar":"suburb"},"geometry":{"type":"Point","coordinates":[-41.9648641,-20.3518592]}},{"type":"Feature","properties":{"nome":"Vidal Soares","osm_id":12263152346,"osm_tipo":"node","tipo_lugar":"suburb"},"geometry":{"type":"Point","coordinates":[-41.9528473,-20.3549698]}},{"type":"Feature","properties":{"nome":"Mangueiras","osm_id":12263152348,"osm_tipo":"node","tipo_lugar":"suburb"},"geometry":{"type":"Point","coordinates":[-41.9555425,-20.3530092]}},{"type":"Feature","properties":{"nome":"Roque","osm_id":12263152349,"osm_tipo":"node","tipo_lugar":"suburb"},"geometry":{"type":"Point","coordinates":[-41.9519095,-20.3577534]}},{"type":"Feature","properties":{"nome":"Centro","osm_id":12263152350,"osm_tipo":"node","tipo_lugar":"suburb"},"geometry":{"type":"Point","coordinates":[-41.9594853,-20.3581266]}},{"type":"Feature","properties":{"nome":"Isidoro","osm_id":12263190360,"osm_tipo":"node","tipo_lugar":"suburb"},"geometry":{"type":"Point","coordinates":[-41.9582805,-20.3644132]}},{"type":"Feature","properties":{"nome":"Santo Antonio","osm_id":12263190361,"osm_tipo":"node","tipo_lugar":"suburb"},"geometry":{"type":"Point","coordinates":[-41.9531651,-20.3601491]}},{"type":"Feature","properties":{"nome":"São Vicente","osm_id":12263190362,"osm_tipo":"node","tipo_lugar":"suburb"},"geometry":{"type":"Point","coordinates":[-41.9544832,-20.3626465]}},{"type":"Feature","properties":{"nome":"Santa Rita","osm_id":12263190363,"osm_tipo":"node","tipo_lugar":"suburb"},"geometry":{"type":"Point","coordinates":[-41.9609281,-20.3701536]}},{"type":"Feature","properties":{"nome":"Divinéia","osm_id":12263190364,"osm_tipo":"node","tipo_lugar":"suburb"},"geometry":{"type":"Point","coordinates":[-41.9603578,-20.3731146]}},{"type":"Feature","properties":{"nome":"Vila Mariselma","osm_id":12264119661,"osm_tipo":"node","tipo_lugar":"suburb"},"geometry":{"type":"Point","coordinates":[-41.9227707,-20.3425728]}},{"type":"Feature","properties":{"nome":"Villa Werner","osm_id":12264331434,"osm_tipo":"node","tipo_lugar":"suburb"},"geometry":{"type":"Point","coordinates":[-41.9682769,-20.3085007]}},{"type":"Feature","properties":{"nome":"Residencial Jardins","osm_id":12277780452,"osm_tipo":"node","tipo_lugar":"suburb"},"geometry":{"type":"Point","coordinates":[-41.9496059,-20.3787173]}},{"type":"Feature","properties":{"nome":"Residencial Vila Park","osm_id":12277780453,"osm_tipo":"node","tipo_lugar":"suburb"},"geometry":{"type":"Point","coordinates":[-41.9539185,-20.3825738]}}]}