{"type":"FeatureCollection","features":[{"type":"Feature","properties":{"nome":"Jardim Quinta da Bela Vista","osm_id":10671150898,"osm_tipo":"node","tipo_lugar":"suburb"},"geometry":{"type":"Point","coordinates":[-46.5302955,-21.3736913]}},{"type":"Feature","properties":{"nome":"Jardim Cerávolo","osm_id":10671150899,"osm_tipo":"node","tipo_lugar":"suburb"},"geometry":{"type":"Point","coordinates":[-46.5300854,-21.3719305]}},{"type":"Feature","properties":{"nome":"Jardim Chico Pedro","osm_id":10671163951,"osm_tipo":"node","tipo_lugar":"suburb"},"geometry":{"type":"Point","coordinates":[-46.5317286,-21.3706884]}},{"type":"Feature","properties":{"nome":"Brejo Alegre","osm_id":10671169278,"osm_tipo":"node","tipo_lugar":"suburb"},"geometry":{"type":"Point","coordinates":[-46.5273825,-21.3720027]}},{"type":"Feature","properties":{"nome":"Recanto das Palneiras","osm_id":10671272101,"osm_tipo":"node","tipo_lugar":"suburb"},"geometry":{"type":"Point","coordinates":[-46.533,-21.3690907]}},{"type":"Feature","properties":{"nome":"Jardim São Roque","osm_id":10671272102,"osm_tipo":"node","tipo_lugar":"suburb"},"geometry":{"type":"Point","coordinates":[-46.5293413,-21.3752416]}},{"type":"Feature","properties":{"nome":"Jardim Europa","osm_id":10671272103,"osm_tipo":"node","tipo_lugar":"suburb"},"geometry":{"type":"Point","coordinates":[-46.5285256,-21.3778587]}},{"type":"Feature","properties":{"nome":"Jardim Europa 2","osm_id":10671273005,"osm_tipo":"node","tipo_lugar":"suburb"},"geometry":{"type":"Point","coordinates":[-46.5315426,-21.3768139]}},{"type":"Feature","properties":{"nome":"Jardim América","osm_id":10671273006,"osm_tipo":"node","tipo_lugar":"suburb"},"geometry":{"type":"Point","coordinates":[-46.5317462,-21.3791484]}},{"type":"Feature","properties":{"nome":"Jardim dos Imigrantes","osm_id":10671273007,"osm_tipo":"node","tipo_lugar":"suburb"},"geometry":{"type":"Point","coordinates":[-46.5329225,-21.3842801]}},{"type":"Feature","properties":{"nome":"Vila Lima","osm_id":10671273012,"osm_tipo":"node","tipo_lugar":"suburb"},"geometry":{"type":"Point","coordinates":[-46.5301029,-21.3825983]}},{"type":"Feature","properties":{"nome":"Altos dos Machados","osm_id":10671273013,"osm_tipo":"node","tipo_lugar":"suburb"},"geometry":{"type":"Point","coordinates":[-46.5275318,-21.3840355]}},{"type":"Feature","properties":{"nome":"Vila Severo","osm_id":10671273014,"osm_tipo":"node","tipo_lugar":"suburb"},"geometry":{"type":"Point","coordinates":[-46.5261963,-21.3820637]}},{"type":"Feature","properties":{"nome":"Jardim Paraíso","osm_id":10671273015,"osm_tipo":"node","tipo_lugar":"suburb"},"geometry":{"type":"Point","coordinates":[-46.5275692,-21.3812889]}},{"type":"Feature","properties":{"nome":"Alto do Anjo","osm_id":10671273016,"osm_tipo":"node","tipo_lugar":"suburb"},"geometry":{"type":"Point","coordinates":[-46.5256888,-21.3802313]}},{"type":"Feature","properties":{"nome":"Vila D'oro","osm_id":10671273017,"osm_tipo":"node","tipo_lugar":"suburb"},"geometry":{"type":"Point","coordinates":[-46.5253934,-21.3782245]}},{"type":"Feature","properties":{"nome":"Recanto Verde","osm_id":10671273018,"osm_tipo":"node","tipo_lugar":"suburb"},"geometry":{"type":"Point","coordinates":[-46.5241453,-21.3772986]}},{"type":"Feature","properties":{"nome":"Chácaras Primavera","osm_id":10671273019,"osm_tipo":"node","tipo_lugar":"suburb"},"geometry":{"type":"Point","coordinates":[-46.5207713,-21.3747688]}},{"type":"Feature","properties":{"nome":"Jardim São Lucas","osm_id":10671273020,"osm_tipo":"node","tipo_lugar":"suburb"},"geometry":{"type":"Point","coordinates":[-46.5213454,-21.3777519]}},{"type":"Feature","properties":{"nome":"Barra Funda","osm_id":10671273021,"osm_tipo":"node","tipo_lugar":"suburb"},"geometry":{"type":"Point","coordinates":[-46.5222107,-21.3723358]}},{"type":"Feature","properties":{"nome":"Centro","osm_id":10671273022,"osm_tipo":"node","tipo_lugar":"suburb"},"geometry":{"type":"Point","coordinates":[-46.5236668,-21.3725218]}},{"type":"Feature","properties":{"nome":"Centro","osm_id":10671273023,"osm_tipo":"node","tipo_lugar":"suburb"},"geometry":{"type":"Point","coordinates":[-46.5232168,-21.3679563]}},{"type":"Feature","properties":{"nome":"Parque da Colina","osm_id":10681669478,"osm_tipo":"node","tipo_lugar":"suburb"},"geometry":{"type":"Point","coordinates":[-46.5128462,-21.3609277]}},{"type":"Feature","properties":{"nome":"Vila Socialista","osm_id":10681710308,"osm_tipo":"node","tipo_lugar":"suburb"},"geometry":{"type":"Point","coordinates":[-46.5130516,-21.3640252]}},{"type":"Feature","properties":{"nome":"JD. Novo Horizonte","osm_id":10681710309,"osm_tipo":"node","tipo_lugar":"suburb"},"geometry":{"type":"Point","coordinates":[-46.5123287,-21.3665885]}},{"type":"Feature","properties":{"nome":"JD. Novo Horizonte","osm_id":10681710310,"osm_tipo":"node","tipo_lugar":"suburb"},"geometry":{"type":"Point","coordinates":[-46.5144984,-21.3682995]}},{"type":"Feature","properties":{"nome":"JD. Beira Rio","osm_id":10681710311,"osm_tipo":"node","tipo_lugar":"suburb"},"geometry":{"type":"Point","coordinates":[-46.5193267,-21.3690426]}},{"type":"Feature","properties":{"nome":"Jardim Ágape III","osm_id":10689337366,"osm_tipo":"node","tipo_lugar":"suburb"},"geometry":{"type":"Point","coordinates":[-46.5222433,-21.3798354]}},{"type":"Feature","properties":{"nome":"Jardim dos Ipês","osm_id":10742614368,"osm_tipo":"node","tipo_lugar":"suburb"},"geometry":{"type":"Point","coordinates":[-46.5119241,-21.354808]}},{"type":"Feature","properties":{"nome":"Jardim Anápolis","osm_id":10742614369,"osm_tipo":"node","tipo_lugar":"suburb"},"geometry":{"type":"Point","coordinates":[-46.5174751,-21.3559984]}},{"type":"Feature","properties":{"nome":"Jardim Altamira","osm_id":10742614370,"osm_tipo":"node","tipo_lugar":"suburb"},"geometry":{"type":"Point","coordinates":[-46.5184544,-21.3594285]}},{"type":"Feature","properties":{"nome":"Jardim Mirian","osm_id":10742614371,"osm_tipo":"node","tipo_lugar":"suburb"},"geometry":{"type":"Point","coordinates":[-46.5195234,-21.3623001]}},{"type":"Feature","properties":{"nome":"Jardim Canaâ","osm_id":10742614373,"osm_tipo":"node","tipo_lugar":"suburb"},"geometry":{"type":"Point","coordinates":[-46.5200116,-21.3612642]}},{"type":"Feature","properties":{"nome":"Jardim Palmeiras","osm_id":10742614374,"osm_tipo":"node","tipo_lugar":"suburb"},"geometry":{"type":"Point","coordinates":[-46.5180589,-21.3647976]}},{"type":"Feature","properties":{"nome":"Jardim Itália","osm_id":10742614375,"osm_tipo":"node","tipo_lugar":"suburb"},"geometry":{"type":"Point","coordinates":[-46.5183679,-21.3656895]}},{"type":"Feature","properties":{"nome":"Vale do Sol","osm_id":10742614376,"osm_tipo":"node","tipo_lugar":"suburb"},"geometry":{"type":"Point","coordinates":[-46.5190291,-21.3673526]}},{"type":"Feature","properties":{"nome":"Jardim Itália 2","osm_id":10742614377,"osm_tipo":"node","tipo_lugar":"suburb"},"geometry":{"type":"Point","coordinates":[-46.5167427,-21.366898]}},{"type":"Feature","properties":{"nome":"Jardim Boa Vista","osm_id":10742614378,"osm_tipo":"node","tipo_lugar":"suburb"},"geometry":{"type":"Point","coordinates":[-46.5245162,-21.3632093]}},{"type":"Feature","properties":{"nome":"Jardim Por do Sol","osm_id":10742614379,"osm_tipo":"node","tipo_lugar":"suburb"},"geometry":{"type":"Point","coordinates":[-46.5252206,-21.3617246]}},{"type":"Feature","properties":{"nome":"Vila Bueno","osm_id":10742614380,"osm_tipo":"node","tipo_lugar":"suburb"},"geometry":{"type":"Point","coordinates":[-46.5269817,-21.3622713]}},{"type":"Feature","properties":{"nome":"Jardim Primavera","osm_id":10742614381,"osm_tipo":"node","tipo_lugar":"suburb"},"geometry":{"type":"Point","coordinates":[-46.5271115,-21.3583466]}},{"type":"Feature","properties":{"nome":"Jardim Por do Sol","osm_id":10742614382,"osm_tipo":"node","tipo_lugar":"suburb"},"geometry":{"type":"Point","coordinates":[-46.5258385,-21.3589969]}},{"type":"Feature","properties":{"nome":"Cohab","osm_id":10742614383,"osm_tipo":"node","tipo_lugar":"suburb"},"geometry":{"type":"Point","coordinates":[-46.523855,-21.3595666]}},{"type":"Feature","properties":{"nome":"Araucária","osm_id":10742614384,"osm_tipo":"node","tipo_lugar":"suburb"},"geometry":{"type":"Point","coordinates":[-46.5303065,-21.3676583]}},{"type":"Feature","properties":{"nome":"Girassol","osm_id":10742614385,"osm_tipo":"node","tipo_lugar":"suburb"},"geometry":{"type":"Point","coordinates":[-46.5283539,-21.3676699]}},{"type":"Feature","properties":{"nome":"Jardim Ágape II","osm_id":11386631112,"osm_tipo":"node","tipo_lugar":"suburb"},"geometry":{"type":"Point","coordinates":[-46.5216479,-21.3793399]}},{"type":"Feature","properties":{"nome":"Jardim Ágape I","osm_id":11386631113,"osm_tipo":"node","tipo_lugar":"suburb"},"geometry":{"type":"Point","coordinates":[-46.5212778,-21.3790052]}}]}