{"type":"FeatureCollection","features":[{"type":"Feature","properties":{"nome":"Aleixo","osm_id":3471349355,"osm_tipo":"node","tipo_lugar":"neighbourhood"},"geometry":{"type":"Point","coordinates":[-43.0492579,-19.7884065]}},{"type":"Feature","properties":{"nome":"Capoeirana","osm_id":3471638431,"osm_tipo":"node","tipo_lugar":"neighbourhood"},"geometry":{"type":"Point","coordinates":[-43.0575819,-19.699562]}},{"type":"Feature","properties":{"nome":"Baixada da Pimenta","osm_id":6010844534,"osm_tipo":"node","tipo_lugar":"neighbourhood"},"geometry":{"type":"Point","coordinates":[-43.0063999,-19.7221811]}},{"type":"Feature","properties":{"nome":"Capelinha","osm_id":6010844540,"osm_tipo":"node","tipo_lugar":"neighbourhood"},"geometry":{"type":"Point","coordinates":[-43.0225146,-19.7492152]}},{"type":"Feature","properties":{"nome":"Nossa Senhora de Fátima","osm_id":6010844541,"osm_tipo":"node","tipo_lugar":"neighbourhood"},"geometry":{"type":"Point","coordinates":[-43.0296493,-19.7580101]}},{"type":"Feature","properties":{"nome":"Colina","osm_id":6010844542,"osm_tipo":"node","tipo_lugar":"neighbourhood"},"geometry":{"type":"Point","coordinates":[-43.0325139,-19.7570407]}},{"type":"Feature","properties":{"nome":"Bairro da Estação","osm_id":6010844543,"osm_tipo":"node","tipo_lugar":"neighbourhood"},"geometry":{"type":"Point","coordinates":[-43.0271065,-19.7628971]}},{"type":"Feature","properties":{"nome":"Armazém","osm_id":6010844544,"osm_tipo":"node","tipo_lugar":"neighbourhood"},"geometry":{"type":"Point","coordinates":[-43.0283725,-19.7610998]}},{"type":"Feature","properties":{"nome":"Sagrada Família","osm_id":6010844545,"osm_tipo":"node","tipo_lugar":"neighbourhood"},"geometry":{"type":"Point","coordinates":[-43.0281848,-19.7642197]}},{"type":"Feature","properties":{"nome":"Serra","osm_id":6010844546,"osm_tipo":"node","tipo_lugar":"neighbourhood"},"geometry":{"type":"Point","coordinates":[-43.0355501,-19.7620085]}},{"type":"Feature","properties":{"nome":"Praia Grande","osm_id":6010844547,"osm_tipo":"node","tipo_lugar":"neighbourhood"},"geometry":{"type":"Point","coordinates":[-43.0466116,-19.7741143]}},{"type":"Feature","properties":{"nome":"Aroeiras","osm_id":6010844548,"osm_tipo":"node","tipo_lugar":"neighbourhood"},"geometry":{"type":"Point","coordinates":[-43.0385757,-19.7675315]}},{"type":"Feature","properties":{"nome":"Manjahy","osm_id":6010844549,"osm_tipo":"node","tipo_lugar":"neighbourhood"},"geometry":{"type":"Point","coordinates":[-43.0382967,-19.7661179]}},{"type":"Feature","properties":{"nome":"Centro","osm_id":6010844550,"osm_tipo":"node","tipo_lugar":"neighbourhood"},"geometry":{"type":"Point","coordinates":[-43.0349815,-19.7665925]}},{"type":"Feature","properties":{"nome":"São José","osm_id":6010844551,"osm_tipo":"node","tipo_lugar":"neighbourhood"},"geometry":{"type":"Point","coordinates":[-43.0438811,-19.7628516]}},{"type":"Feature","properties":{"nome":"Santa Maria","osm_id":6010844552,"osm_tipo":"node","tipo_lugar":"neighbourhood"},"geometry":{"type":"Point","coordinates":[-43.0406785,-19.773973]}},{"type":"Feature","properties":{"nome":"Centenário","osm_id":6010844553,"osm_tipo":"node","tipo_lugar":"neighbourhood"},"geometry":{"type":"Point","coordinates":[-43.033576,-19.7706816]}},{"type":"Feature","properties":{"nome":"Morro do Pau do Óleo","osm_id":6010844554,"osm_tipo":"node","tipo_lugar":"neighbourhood"},"geometry":{"type":"Point","coordinates":[-43.0322886,-19.7651688]}},{"type":"Feature","properties":{"nome":"Castelo","osm_id":6010844555,"osm_tipo":"node","tipo_lugar":"neighbourhood"},"geometry":{"type":"Point","coordinates":[-43.0287641,-19.7673548]}},{"type":"Feature","properties":{"nome":"Nossa Senhora das Graças","osm_id":6010844556,"osm_tipo":"node","tipo_lugar":"neighbourhood"},"geometry":{"type":"Point","coordinates":[-43.0260229,-19.7694801]}},{"type":"Feature","properties":{"nome":"Jardim das Acácias","osm_id":6010844557,"osm_tipo":"node","tipo_lugar":"neighbourhood"},"geometry":{"type":"Point","coordinates":[-43.0261088,-19.7727816]}},{"type":"Feature","properties":{"nome":"Pedra Furada","osm_id":6010845088,"osm_tipo":"node","tipo_lugar":"neighbourhood"},"geometry":{"type":"Point","coordinates":[-43.0687237,-19.7781527]}},{"type":"Feature","properties":{"nome":"Paiolzinho","osm_id":6010845437,"osm_tipo":"node","tipo_lugar":"neighbourhood"},"geometry":{"type":"Point","coordinates":[-43.0798173,-19.7001122]}},{"type":"Feature","properties":{"nome":"Vila Santa Rosa","osm_id":6010845541,"osm_tipo":"node","tipo_lugar":"neighbourhood"},"geometry":{"type":"Point","coordinates":[-43.0097581,-19.7733873]}},{"type":"Feature","properties":{"nome":"Drumond Central","osm_id":6010845542,"osm_tipo":"node","tipo_lugar":"neighbourhood"},"geometry":{"type":"Point","coordinates":[-43.0185235,-19.7397482]}},{"type":"Feature","properties":{"nome":"Morada dos Heróis","osm_id":6013203457,"osm_tipo":"node","tipo_lugar":"neighbourhood"},"geometry":{"type":"Point","coordinates":[-43.0093932,-19.7769008]}}]}