{"type":"FeatureCollection","features":[{"type":"Feature","properties":{"nome":"Vila Residencial Antônio Pererira","osm_id":658004125,"osm_tipo":"node","tipo_lugar":"suburb"},"geometry":{"type":"Point","coordinates":[-43.4749935,-20.2898821]}},{"type":"Feature","properties":{"nome":"Paragem do Tripuí","osm_id":2025414371,"osm_tipo":"node","tipo_lugar":"suburb"},"geometry":{"type":"Point","coordinates":[-43.6855979,-20.3204786]}},{"type":"Feature","properties":{"nome":"Bauxita","osm_id":2035755472,"osm_tipo":"node","tipo_lugar":"suburb"},"geometry":{"type":"Point","coordinates":[-43.5059818,-20.4000266]}},{"type":"Feature","properties":{"nome":"Pilar","osm_id":2045210931,"osm_tipo":"node","tipo_lugar":"suburb"},"geometry":{"type":"Point","coordinates":[-43.5108186,-20.3855836]}},{"type":"Feature","properties":{"nome":"Saramenha","osm_id":2055410592,"osm_tipo":"node","tipo_lugar":"suburb"},"geometry":{"type":"Point","coordinates":[-43.5171404,-20.3997258]}},{"type":"Feature","properties":{"nome":"Cabeças","osm_id":2057832156,"osm_tipo":"node","tipo_lugar":"suburb"},"geometry":{"type":"Point","coordinates":[-43.5166603,-20.3819794]}},{"type":"Feature","properties":{"nome":"Antônio Dias","osm_id":2057832202,"osm_tipo":"node","tipo_lugar":"suburb"},"geometry":{"type":"Point","coordinates":[-43.4986908,-20.3868244]}},{"type":"Feature","properties":{"nome":"Morro São João","osm_id":2067590938,"osm_tipo":"node","tipo_lugar":"suburb"},"geometry":{"type":"Point","coordinates":[-43.4851165,-20.3770534]}},{"type":"Feature","properties":{"nome":"Alto do Beleza","osm_id":2366609348,"osm_tipo":"node","tipo_lugar":"neighbourhood"},"geometry":{"type":"Point","coordinates":[-43.6534436,-20.3350257]}},{"type":"Feature","properties":{"nome":"Coelhos","osm_id":3922985575,"osm_tipo":"node","tipo_lugar":"neighbourhood"},"geometry":{"type":"Point","coordinates":[-43.7151165,-20.2915463]}},{"type":"Feature","properties":{"nome":"Maracujá","osm_id":3922985580,"osm_tipo":"node","tipo_lugar":"neighbourhood"},"geometry":{"type":"Point","coordinates":[-43.7047304,-20.2725629]}},{"type":"Feature","properties":{"nome":"Catete","osm_id":4545752899,"osm_tipo":"node","tipo_lugar":"neighbourhood"},"geometry":{"type":"Point","coordinates":[-43.7095887,-20.3794818]}},{"type":"Feature","properties":{"nome":"São José do Gouveia","osm_id":4604742884,"osm_tipo":"node","tipo_lugar":"neighbourhood"},"geometry":{"type":"Point","coordinates":[-43.7035756,-20.3680475]}},{"type":"Feature","properties":{"nome":"Vale do Tropeiro","osm_id":4957486658,"osm_tipo":"node","tipo_lugar":"neighbourhood"},"geometry":{"type":"Point","coordinates":[-43.6877775,-20.2718189]}},{"type":"Feature","properties":{"nome":"Riacho","osm_id":4957486772,"osm_tipo":"node","tipo_lugar":"neighbourhood"},"geometry":{"type":"Point","coordinates":[-43.7206507,-20.321126]}},{"type":"Feature","properties":{"nome":"Vila Operária","osm_id":4957817820,"osm_tipo":"node","tipo_lugar":"neighbourhood"},"geometry":{"type":"Point","coordinates":[-43.5168564,-20.3960227]}},{"type":"Feature","properties":{"nome":"Novo Horizonte","osm_id":5828208924,"osm_tipo":"node","tipo_lugar":"suburb"},"geometry":{"type":"Point","coordinates":[-43.5023755,-20.4037395]}},{"type":"Feature","properties":{"nome":"Taquaral","osm_id":6319748544,"osm_tipo":"node","tipo_lugar":"suburb"},"geometry":{"type":"Point","coordinates":[-43.479,-20.3852009]}},{"type":"Feature","properties":{"nome":"Alto da Cruz","osm_id":6319748545,"osm_tipo":"node","tipo_lugar":"suburb"},"geometry":{"type":"Point","coordinates":[-43.4930913,-20.38593]}},{"type":"Feature","properties":{"nome":"Vila dos Engenheiros","osm_id":6320863359,"osm_tipo":"node","tipo_lugar":"suburb"},"geometry":{"type":"Point","coordinates":[-43.5129645,-20.40514]}},{"type":"Feature","properties":{"nome":"Vila Aparecida","osm_id":6320863362,"osm_tipo":"node","tipo_lugar":"suburb"},"geometry":{"type":"Point","coordinates":[-43.5034033,-20.3921279]}},{"type":"Feature","properties":{"nome":"Barra","osm_id":6320863363,"osm_tipo":"node","tipo_lugar":"suburb"},"geometry":{"type":"Point","coordinates":[-43.5024422,-20.3910681]}},{"type":"Feature","properties":{"nome":"Santa Cruz","osm_id":6320863364,"osm_tipo":"node","tipo_lugar":"suburb"},"geometry":{"type":"Point","coordinates":[-43.4915267,-20.3918713]}},{"type":"Feature","properties":{"nome":"Padre Faria","osm_id":6320863365,"osm_tipo":"node","tipo_lugar":"suburb"},"geometry":{"type":"Point","coordinates":[-43.4927948,-20.3883334]}},{"type":"Feature","properties":{"nome":"Piedade","osm_id":6320863366,"osm_tipo":"node","tipo_lugar":"suburb"},"geometry":{"type":"Point","coordinates":[-43.4882601,-20.3853478]}},{"type":"Feature","properties":{"nome":"Lajes","osm_id":6482794501,"osm_tipo":"node","tipo_lugar":"suburb"},"geometry":{"type":"Point","coordinates":[-43.4988973,-20.3836537]}},{"type":"Feature","properties":{"nome":"Nossa Senhora do Carmo(Pocinho)","osm_id":8613815368,"osm_tipo":"node","tipo_lugar":"suburb"},"geometry":{"type":"Point","coordinates":[-43.4963451,-20.4061939]}},{"type":"Feature","properties":{"nome":"São Francisco","osm_id":12170008266,"osm_tipo":"node","tipo_lugar":"suburb"},"geometry":{"type":"Point","coordinates":[-43.5088328,-20.3774381]}},{"type":"Feature","properties":{"nome":"Morro da Queimada","osm_id":13113501691,"osm_tipo":"node","tipo_lugar":"suburb"},"geometry":{"type":"Point","coordinates":[-43.4962169,-20.3843949]}},{"type":"Feature","properties":{"nome":"Morro Santana","osm_id":13113501692,"osm_tipo":"node","tipo_lugar":"suburb"},"geometry":{"type":"Point","coordinates":[-43.4882979,-20.3819241]}},{"type":"Feature","properties":{"nome":"Morro São Sebastião","osm_id":13113501693,"osm_tipo":"node","tipo_lugar":"suburb"},"geometry":{"type":"Point","coordinates":[-43.5006211,-20.3750127]}},{"type":"Feature","properties":{"nome":"JARDIM ITACOLOMI","osm_id":928723111,"osm_tipo":"way","tipo_lugar":"suburb"},"geometry":{"type":"Polygon","coordinates":[[[-43.4995881,-20.4042488],[-43.5029254,-20.4072189],[-43.4993396,-20.4083086],[-43.4995881,-20.4042488]]]}},{"type":"Feature","properties":{"nome":"Morro São Sebastião","osm_id":1336840104,"osm_tipo":"way","tipo_lugar":"suburb"},"geometry":{"type":"Polygon","coordinates":[[[-43.513009,-20.3679973],[-43.5012931,-20.3716785],[-43.497538,-20.3753797],[-43.4902137,-20.3756449],[-43.4900064,-20.3780148],[-43.4968295,-20.3822128],[-43.5022583,-20.3815088],[-43.5062709,-20.379075],[-43.5045972,-20.3759773],[-43.5190612,-20.3700432],[-43.518396,-20.3667844],[-43.513009,-20.3679973]]]}}]}