{"type":"FeatureCollection","features":[{"type":"Feature","properties":{"nome":"Pinhalzinho dos Góes","osm_id":416657096,"osm_tipo":"node","tipo_lugar":"suburb"},"geometry":{"type":"Point","coordinates":[-46.3377373,-22.369134]}},{"type":"Feature","properties":{"nome":"Centro","osm_id":5907262671,"osm_tipo":"node","tipo_lugar":"suburb"},"geometry":{"type":"Point","coordinates":[-46.3786543,-22.2836499]}},{"type":"Feature","properties":{"nome":"Jardim dos Ypês","osm_id":5907351479,"osm_tipo":"node","tipo_lugar":"suburb"},"geometry":{"type":"Point","coordinates":[-46.3755619,-22.2856569]}},{"type":"Feature","properties":{"nome":"Jardim Centenário","osm_id":5907450407,"osm_tipo":"node","tipo_lugar":"suburb"},"geometry":{"type":"Point","coordinates":[-46.3637757,-22.2625008]}},{"type":"Feature","properties":{"nome":"São Judas Tadeu","osm_id":5908125635,"osm_tipo":"node","tipo_lugar":"suburb"},"geometry":{"type":"Point","coordinates":[-46.3537231,-22.2841782]}},{"type":"Feature","properties":{"nome":"Palmeiras","osm_id":5908212189,"osm_tipo":"node","tipo_lugar":"suburb"},"geometry":{"type":"Point","coordinates":[-46.3935115,-22.3007567]}},{"type":"Feature","properties":{"nome":"Várzea","osm_id":5908291086,"osm_tipo":"node","tipo_lugar":"suburb"},"geometry":{"type":"Point","coordinates":[-46.3927846,-22.2783809]}},{"type":"Feature","properties":{"nome":"Córrego da Gralha","osm_id":5908291160,"osm_tipo":"node","tipo_lugar":"suburb"},"geometry":{"type":"Point","coordinates":[-46.3830347,-22.2769934]}}]}