{"type":"FeatureCollection","features":[{"type":"Feature","properties":{"nome":"Cajuru","osm_id":2517666905,"osm_tipo":"node","tipo_lugar":"neighbourhood"},"geometry":{"type":"Point","coordinates":[-45.968665,-22.2586854]}},{"type":"Feature","properties":{"nome":"São Francisco Paineral","osm_id":2517666906,"osm_tipo":"node","tipo_lugar":"neighbourhood"},"geometry":{"type":"Point","coordinates":[-45.9933848,-22.3234467]}},{"type":"Feature","properties":{"nome":"Água Verde","osm_id":2517666907,"osm_tipo":"node","tipo_lugar":"neighbourhood"},"geometry":{"type":"Point","coordinates":[-45.9751124,-22.2905546]}},{"type":"Feature","properties":{"nome":"Ferreiras","osm_id":2517666912,"osm_tipo":"node","tipo_lugar":"neighbourhood"},"geometry":{"type":"Point","coordinates":[-45.8941289,-22.3673017]}},{"type":"Feature","properties":{"nome":"Serrinha","osm_id":2517666991,"osm_tipo":"node","tipo_lugar":"neighbourhood"},"geometry":{"type":"Point","coordinates":[-45.9960255,-22.3719566]}},{"type":"Feature","properties":{"nome":"Jardim Canadá","osm_id":2518635339,"osm_tipo":"node","tipo_lugar":"neighbourhood"},"geometry":{"type":"Point","coordinates":[-45.9410081,-22.2606365]}},{"type":"Feature","properties":{"nome":"Paraíso","osm_id":2518635340,"osm_tipo":"node","tipo_lugar":"neighbourhood"},"geometry":{"type":"Point","coordinates":[-45.9402265,-22.2529133]}},{"type":"Feature","properties":{"nome":"Santa Rita","osm_id":2518635341,"osm_tipo":"node","tipo_lugar":"neighbourhood"},"geometry":{"type":"Point","coordinates":[-45.9336348,-22.2630182]}},{"type":"Feature","properties":{"nome":"Cidade Vergani","osm_id":2524620066,"osm_tipo":"node","tipo_lugar":"neighbourhood"},"geometry":{"type":"Point","coordinates":[-45.9460473,-22.2715511]}},{"type":"Feature","properties":{"nome":"São Carlos","osm_id":2525569555,"osm_tipo":"node","tipo_lugar":"neighbourhood"},"geometry":{"type":"Point","coordinates":[-45.9255618,-22.25577]}},{"type":"Feature","properties":{"nome":"São Judas Tadeu","osm_id":4385718869,"osm_tipo":"node","tipo_lugar":"neighbourhood"},"geometry":{"type":"Point","coordinates":[-45.9458419,-22.2016452]}},{"type":"Feature","properties":{"nome":"Veneza","osm_id":4611935603,"osm_tipo":"node","tipo_lugar":"neighbourhood"},"geometry":{"type":"Point","coordinates":[-45.9104104,-22.2881142]}},{"type":"Feature","properties":{"nome":"Morumbi","osm_id":4611935604,"osm_tipo":"node","tipo_lugar":"neighbourhood"},"geometry":{"type":"Point","coordinates":[-45.9107753,-22.2921844]}},{"type":"Feature","properties":{"nome":"Cervo","osm_id":4613171717,"osm_tipo":"node","tipo_lugar":"neighbourhood"},"geometry":{"type":"Point","coordinates":[-45.9208874,-22.1270206]}},{"type":"Feature","properties":{"nome":"Bairro dos Afonsos","osm_id":4614280124,"osm_tipo":"node","tipo_lugar":"neighbourhood"},"geometry":{"type":"Point","coordinates":[-45.9358021,-22.1747598]}},{"type":"Feature","properties":{"nome":"Bicudos","osm_id":4614280125,"osm_tipo":"node","tipo_lugar":"neighbourhood"},"geometry":{"type":"Point","coordinates":[-45.955232,-22.1883605]}},{"type":"Feature","properties":{"nome":"Residencial Jardim Ipê","osm_id":4614374834,"osm_tipo":"node","tipo_lugar":"neighbourhood"},"geometry":{"type":"Point","coordinates":[-45.9121104,-22.2780698]}},{"type":"Feature","properties":{"nome":"Portal Vila Verde","osm_id":4614374835,"osm_tipo":"node","tipo_lugar":"neighbourhood"},"geometry":{"type":"Point","coordinates":[-45.913151,-22.278586]}},{"type":"Feature","properties":{"nome":"São Paulo","osm_id":4614374836,"osm_tipo":"node","tipo_lugar":"neighbourhood"},"geometry":{"type":"Point","coordinates":[-45.9128936,-22.2802837]}},{"type":"Feature","properties":{"nome":"Aeroporto Jatobá","osm_id":4614374838,"osm_tipo":"node","tipo_lugar":"neighbourhood"},"geometry":{"type":"Point","coordinates":[-45.9078762,-22.2778445]}},{"type":"Feature","properties":{"nome":"Jardim Jacarandá","osm_id":4614374839,"osm_tipo":"node","tipo_lugar":"neighbourhood"},"geometry":{"type":"Point","coordinates":[-45.9088847,-22.2818355]}},{"type":"Feature","properties":{"nome":"Morada do Sol","osm_id":4614401407,"osm_tipo":"node","tipo_lugar":"suburb"},"geometry":{"type":"Point","coordinates":[-45.9054531,-22.3014867]}},{"type":"Feature","properties":{"nome":"Colina dos Bandeirantes","osm_id":4614401606,"osm_tipo":"node","tipo_lugar":"neighbourhood"},"geometry":{"type":"Point","coordinates":[-45.9014727,-22.3146781]}},{"type":"Feature","properties":{"nome":"Paraty","osm_id":4614430201,"osm_tipo":"node","tipo_lugar":"neighbourhood"},"geometry":{"type":"Point","coordinates":[-45.9135621,-22.2867579]}},{"type":"Feature","properties":{"nome":"Monte Carlo","osm_id":4614430205,"osm_tipo":"node","tipo_lugar":"neighbourhood"},"geometry":{"type":"Point","coordinates":[-45.9124409,-22.289411]}},{"type":"Feature","properties":{"nome":"Parque Real","osm_id":4616850221,"osm_tipo":"node","tipo_lugar":"neighbourhood"},"geometry":{"type":"Point","coordinates":[-45.9268913,-22.2904867]}},{"type":"Feature","properties":{"nome":"Jardim Brasil I","osm_id":4616850222,"osm_tipo":"node","tipo_lugar":"neighbourhood"},"geometry":{"type":"Point","coordinates":[-45.9223637,-22.2849869]}},{"type":"Feature","properties":{"nome":"Colina Verde","osm_id":4616850223,"osm_tipo":"node","tipo_lugar":"neighbourhood"},"geometry":{"type":"Point","coordinates":[-45.9163314,-22.2907758]}},{"type":"Feature","properties":{"nome":"Imbuía","osm_id":4616850225,"osm_tipo":"node","tipo_lugar":"neighbourhood"},"geometry":{"type":"Point","coordinates":[-46.0402696,-22.2835493]}},{"type":"Feature","properties":{"nome":"Bairro dos Farias","osm_id":4616850227,"osm_tipo":"node","tipo_lugar":"neighbourhood"},"geometry":{"type":"Point","coordinates":[-45.9976547,-22.2498162]}},{"type":"Feature","properties":{"nome":"Cava","osm_id":4616850228,"osm_tipo":"node","tipo_lugar":"neighbourhood"},"geometry":{"type":"Point","coordinates":[-45.9117382,-22.1838855]}},{"type":"Feature","properties":{"nome":"Roseta","osm_id":4616850229,"osm_tipo":"node","tipo_lugar":"neighbourhood"},"geometry":{"type":"Point","coordinates":[-45.925278,-22.1636472]}},{"type":"Feature","properties":{"nome":"Palmeiras","osm_id":4616850230,"osm_tipo":"node","tipo_lugar":"neighbourhood"},"geometry":{"type":"Point","coordinates":[-45.8734362,-22.2878032]}},{"type":"Feature","properties":{"nome":"Costinha","osm_id":4616850231,"osm_tipo":"node","tipo_lugar":"neighbourhood"},"geometry":{"type":"Point","coordinates":[-45.8816545,-22.3056216]}},{"type":"Feature","properties":{"nome":"Ipiranga","osm_id":4616850232,"osm_tipo":"node","tipo_lugar":"neighbourhood"},"geometry":{"type":"Point","coordinates":[-45.9024255,-22.2376118]}},{"type":"Feature","properties":{"nome":"Monte Verde","osm_id":4616850233,"osm_tipo":"node","tipo_lugar":"neighbourhood"},"geometry":{"type":"Point","coordinates":[-45.9302561,-22.2861056]}},{"type":"Feature","properties":{"nome":"Olaria","osm_id":4616850234,"osm_tipo":"node","tipo_lugar":"neighbourhood"},"geometry":{"type":"Point","coordinates":[-45.9807997,-22.3874972]}},{"type":"Feature","properties":{"nome":"Gabiroval","osm_id":4616850235,"osm_tipo":"node","tipo_lugar":"neighbourhood"},"geometry":{"type":"Point","coordinates":[-45.9893881,-22.3109393]}},{"type":"Feature","properties":{"nome":"Algodão","osm_id":4616850236,"osm_tipo":"node","tipo_lugar":"neighbourhood"},"geometry":{"type":"Point","coordinates":[-45.9346496,-22.3492322]}},{"type":"Feature","properties":{"nome":"Cruz Alta","osm_id":4616850237,"osm_tipo":"node","tipo_lugar":"neighbourhood"},"geometry":{"type":"Point","coordinates":[-45.952953,-22.3859719]}},{"type":"Feature","properties":{"nome":"Massaranduba","osm_id":4616850238,"osm_tipo":"node","tipo_lugar":"neighbourhood"},"geometry":{"type":"Point","coordinates":[-45.9785305,-22.361675]}},{"type":"Feature","properties":{"nome":"Anhumas","osm_id":4616850239,"osm_tipo":"node","tipo_lugar":"neighbourhood"},"geometry":{"type":"Point","coordinates":[-46.0308497,-22.2586239]}},{"type":"Feature","properties":{"nome":"Canta Galo","osm_id":4616850240,"osm_tipo":"node","tipo_lugar":"neighbourhood"},"geometry":{"type":"Point","coordinates":[-45.9669809,-22.1985533]}},{"type":"Feature","properties":{"nome":"Guanabara","osm_id":4616926856,"osm_tipo":"node","tipo_lugar":"neighbourhood"},"geometry":{"type":"Point","coordinates":[-45.9260679,-22.228881]}},{"type":"Feature","properties":{"nome":"Jardim São José","osm_id":4616926857,"osm_tipo":"node","tipo_lugar":"neighbourhood"},"geometry":{"type":"Point","coordinates":[-45.9278274,-22.232357]}},{"type":"Feature","properties":{"nome":"Santa Filomena","osm_id":4616926858,"osm_tipo":"node","tipo_lugar":"neighbourhood"},"geometry":{"type":"Point","coordinates":[-45.9410453,-22.2358726]}},{"type":"Feature","properties":{"nome":"Centro","osm_id":4616926859,"osm_tipo":"node","tipo_lugar":"neighbourhood"},"geometry":{"type":"Point","coordinates":[-45.9367323,-22.2310461]}},{"type":"Feature","properties":{"nome":"Jardim Santa Cruz","osm_id":4616926860,"osm_tipo":"node","tipo_lugar":"neighbourhood"},"geometry":{"type":"Point","coordinates":[-45.9435344,-22.2290995]}},{"type":"Feature","properties":{"nome":"Jardim América","osm_id":4616926861,"osm_tipo":"node","tipo_lugar":"neighbourhood"},"geometry":{"type":"Point","coordinates":[-45.9458948,-22.2307481]}},{"type":"Feature","properties":{"nome":"Jardim Noronha","osm_id":4616926862,"osm_tipo":"node","tipo_lugar":"neighbourhood"},"geometry":{"type":"Point","coordinates":[-45.9456837,-22.2335098]}},{"type":"Feature","properties":{"nome":"Jardim Yara","osm_id":4616926863,"osm_tipo":"node","tipo_lugar":"neighbourhood"},"geometry":{"type":"Point","coordinates":[-45.9443445,-22.2401404]}},{"type":"Feature","properties":{"nome":"São Geraldo","osm_id":4616926864,"osm_tipo":"node","tipo_lugar":"neighbourhood"},"geometry":{"type":"Point","coordinates":[-45.9301234,-22.2426652]}},{"type":"Feature","properties":{"nome":"Shangri-lá","osm_id":4616926865,"osm_tipo":"node","tipo_lugar":"neighbourhood"},"geometry":{"type":"Point","coordinates":[-45.92345,-22.2617901]}},{"type":"Feature","properties":{"nome":"Jardim Industrial Mariosa","osm_id":4616926866,"osm_tipo":"node","tipo_lugar":"neighbourhood"},"geometry":{"type":"Point","coordinates":[-45.9276557,-22.2628425]}},{"type":"Feature","properties":{"nome":"Santa Marta","osm_id":4616926867,"osm_tipo":"node","tipo_lugar":"neighbourhood"},"geometry":{"type":"Point","coordinates":[-45.9250594,-22.2620085]}},{"type":"Feature","properties":{"nome":"Aristeu da Costa Rios","osm_id":4616926868,"osm_tipo":"node","tipo_lugar":"neighbourhood"},"geometry":{"type":"Point","coordinates":[-45.9338999,-22.2520393]}},{"type":"Feature","properties":{"nome":"Jardim Paraíso","osm_id":4616926869,"osm_tipo":"node","tipo_lugar":"neighbourhood"},"geometry":{"type":"Point","coordinates":[-45.9335351,-22.2549785]}},{"type":"Feature","properties":{"nome":"Vila Costa Rios","osm_id":4616926870,"osm_tipo":"node","tipo_lugar":"neighbourhood"},"geometry":{"type":"Point","coordinates":[-45.9323335,-22.2500732]}},{"type":"Feature","properties":{"nome":"Foch II","osm_id":4616926871,"osm_tipo":"node","tipo_lugar":"neighbourhood"},"geometry":{"type":"Point","coordinates":[-45.9240723,-22.25053]}},{"type":"Feature","properties":{"nome":"Foch I","osm_id":4616926872,"osm_tipo":"node","tipo_lugar":"neighbourhood"},"geometry":{"type":"Point","coordinates":[-45.928514,-22.2507286]}},{"type":"Feature","properties":{"nome":"Recanto das Rosas","osm_id":4616926873,"osm_tipo":"node","tipo_lugar":"neighbourhood"},"geometry":{"type":"Point","coordinates":[-45.9225059,-22.2537075]}},{"type":"Feature","properties":{"nome":"Jardim Olímpico","osm_id":4616926874,"osm_tipo":"node","tipo_lugar":"neighbourhood"},"geometry":{"type":"Point","coordinates":[-45.9285784,-22.2532706]}},{"type":"Feature","properties":{"nome":"Vale do Sol","osm_id":4616926875,"osm_tipo":"node","tipo_lugar":"neighbourhood"},"geometry":{"type":"Point","coordinates":[-45.9426761,-22.2628823]}},{"type":"Feature","properties":{"nome":"Francisca Augusta Rios","osm_id":4616926876,"osm_tipo":"node","tipo_lugar":"neighbourhood"},"geometry":{"type":"Point","coordinates":[-45.9260035,-22.2592283]}},{"type":"Feature","properties":{"nome":"Santa Rita II","osm_id":4616926877,"osm_tipo":"node","tipo_lugar":"neighbourhood"},"geometry":{"type":"Point","coordinates":[-45.9354234,-22.2684424]}},{"type":"Feature","properties":{"nome":"Santa Branca","osm_id":4616926878,"osm_tipo":"node","tipo_lugar":"neighbourhood"},"geometry":{"type":"Point","coordinates":[-45.9303594,-22.270309]}},{"type":"Feature","properties":{"nome":"Serra Morena","osm_id":4616926879,"osm_tipo":"node","tipo_lugar":"neighbourhood"},"geometry":{"type":"Point","coordinates":[-45.9350586,-22.2740024]}},{"type":"Feature","properties":{"nome":"Jardim Flamboyant","osm_id":4616926880,"osm_tipo":"node","tipo_lugar":"neighbourhood"},"geometry":{"type":"Point","coordinates":[-45.9202636,-22.2680602]}},{"type":"Feature","properties":{"nome":"Jardim Califórnia","osm_id":4616926881,"osm_tipo":"node","tipo_lugar":"neighbourhood"},"geometry":{"type":"Point","coordinates":[-45.920918,-22.2692429]}},{"type":"Feature","properties":{"nome":"Bandeirantes II","osm_id":4616926882,"osm_tipo":"node","tipo_lugar":"neighbourhood"},"geometry":{"type":"Point","coordinates":[-45.915044,-22.275741]}},{"type":"Feature","properties":{"nome":"Santo Expedito III","osm_id":4616926883,"osm_tipo":"node","tipo_lugar":"neighbourhood"},"geometry":{"type":"Point","coordinates":[-45.9133059,-22.2745]}},{"type":"Feature","properties":{"nome":"Santo Expedito II","osm_id":4616926884,"osm_tipo":"node","tipo_lugar":"neighbourhood"},"geometry":{"type":"Point","coordinates":[-45.9157199,-22.2741029]}},{"type":"Feature","properties":{"nome":"Santo Expedito","osm_id":4616926885,"osm_tipo":"node","tipo_lugar":"neighbourhood"},"geometry":{"type":"Point","coordinates":[-45.9202562,-22.2761279]}},{"type":"Feature","properties":{"nome":"Bela Vista","osm_id":4616926886,"osm_tipo":"node","tipo_lugar":"neighbourhood"},"geometry":{"type":"Point","coordinates":[-45.9161276,-22.2788088]}},{"type":"Feature","properties":{"nome":"Jardim Aeroporto","osm_id":4616926887,"osm_tipo":"node","tipo_lugar":"neighbourhood"},"geometry":{"type":"Point","coordinates":[-45.9218246,-22.2802483]}},{"type":"Feature","properties":{"nome":"Distrito Industrial","osm_id":4616926888,"osm_tipo":"node","tipo_lugar":"neighbourhood"},"geometry":{"type":"Point","coordinates":[-45.8891338,-22.2704945]}},{"type":"Feature","properties":{"nome":"Jardim Redentor","osm_id":4626376167,"osm_tipo":"node","tipo_lugar":"neighbourhood"},"geometry":{"type":"Point","coordinates":[-45.9745198,-22.2403298]}},{"type":"Feature","properties":{"nome":"Jardim Amazonas II","osm_id":4626377200,"osm_tipo":"node","tipo_lugar":"neighbourhood"},"geometry":{"type":"Point","coordinates":[-45.9533102,-22.2369776]}},{"type":"Feature","properties":{"nome":"Jardim Amazonas I","osm_id":4626377201,"osm_tipo":"node","tipo_lugar":"neighbourhood"},"geometry":{"type":"Point","coordinates":[-45.9544367,-22.2380601]}},{"type":"Feature","properties":{"nome":"Distrito Industrial São João","osm_id":4626377202,"osm_tipo":"node","tipo_lugar":"neighbourhood"},"geometry":{"type":"Point","coordinates":[-45.9596724,-22.236769]}},{"type":"Feature","properties":{"nome":"São João","osm_id":4626377203,"osm_tipo":"node","tipo_lugar":"neighbourhood"},"geometry":{"type":"Point","coordinates":[-45.9586746,-22.2394305]}},{"type":"Feature","properties":{"nome":"Vista Alegre","osm_id":4626377204,"osm_tipo":"node","tipo_lugar":"neighbourhood"},"geometry":{"type":"Point","coordinates":[-45.9590179,-22.2424196]}},{"type":"Feature","properties":{"nome":"Jardim Brasil II","osm_id":4626377205,"osm_tipo":"node","tipo_lugar":"neighbourhood"},"geometry":{"type":"Point","coordinates":[-45.9702188,-22.2397681]}},{"type":"Feature","properties":{"nome":"Jardim São João","osm_id":4626377206,"osm_tipo":"node","tipo_lugar":"neighbourhood"},"geometry":{"type":"Point","coordinates":[-45.9630413,-22.2384871]}},{"type":"Feature","properties":{"nome":"Nossa Senhora de Guadalupe","osm_id":4626377207,"osm_tipo":"node","tipo_lugar":"neighbourhood"},"geometry":{"type":"Point","coordinates":[-45.9668178,-22.2385665]}},{"type":"Feature","properties":{"nome":"Santa Adélia","osm_id":4626377208,"osm_tipo":"node","tipo_lugar":"neighbourhood"},"geometry":{"type":"Point","coordinates":[-45.9668714,-22.2409995]}},{"type":"Feature","properties":{"nome":"Santa Angelina","osm_id":4626568199,"osm_tipo":"node","tipo_lugar":"neighbourhood"},"geometry":{"type":"Point","coordinates":[-45.9534637,-22.241736]}},{"type":"Feature","properties":{"nome":"Bairro dos Ferrreiras","osm_id":6166811610,"osm_tipo":"node","tipo_lugar":"neighbourhood"},"geometry":{"type":"Point","coordinates":[-45.8976891,-22.3634829]}},{"type":"Feature","properties":{"nome":"Gran Royalle Pouso Alegre","osm_id":6251539184,"osm_tipo":"node","tipo_lugar":"suburb"},"geometry":{"type":"Point","coordinates":[-45.9147808,-22.3040442]}},{"type":"Feature","properties":{"nome":"Fátima 1","osm_id":12294116115,"osm_tipo":"node","tipo_lugar":"suburb"},"geometry":{"type":"Point","coordinates":[-45.9172372,-22.2214495]}},{"type":"Feature","properties":{"nome":"são geraldo","osm_id":1309093250,"osm_tipo":"way","tipo_lugar":"neighbourhood"},"geometry":{"type":"Polygon","coordinates":[[[-45.9280325,-22.2346635],[-45.9205438,-22.2364511],[-45.9180535,-22.247742],[-45.936878,-22.2498876],[-45.9357384,-22.2380978],[-45.9280325,-22.2346635]]]}}]}