{"type":"FeatureCollection","features":[{"type":"Feature","properties":{"nome":"Serra Negra","osm_id":416657284,"osm_tipo":"node","tipo_lugar":"neighbourhood"},"geometry":{"type":"Point","coordinates":[-45.0457264,-20.182495]}},{"type":"Feature","properties":{"nome":"Carmos","osm_id":7193807563,"osm_tipo":"node","tipo_lugar":"neighbourhood"},"geometry":{"type":"Point","coordinates":[-45.0031329,-20.2129115]}},{"type":"Feature","properties":{"nome":"Ponte Nova","osm_id":7193807564,"osm_tipo":"node","tipo_lugar":"neighbourhood"},"geometry":{"type":"Point","coordinates":[-44.9921251,-20.2647536]}},{"type":"Feature","properties":{"nome":"Nilda Barros","osm_id":7193807565,"osm_tipo":"node","tipo_lugar":"neighbourhood"},"geometry":{"type":"Point","coordinates":[-45.0094629,-20.2692625]}},{"type":"Feature","properties":{"nome":"Conjunto Habitacional Bela Vista","osm_id":7193807566,"osm_tipo":"node","tipo_lugar":"neighbourhood"},"geometry":{"type":"Point","coordinates":[-45.0056434,-20.2714968]}},{"type":"Feature","properties":{"nome":"Padre Libério","osm_id":7193807567,"osm_tipo":"node","tipo_lugar":"neighbourhood"},"geometry":{"type":"Point","coordinates":[-44.9955797,-20.2794273]}},{"type":"Feature","properties":{"nome":"COHAB Divino Espírito Santo","osm_id":7193807568,"osm_tipo":"node","tipo_lugar":"neighbourhood"},"geometry":{"type":"Point","coordinates":[-44.9946141,-20.2830905]}},{"type":"Feature","properties":{"nome":"Nossa Senhora Aparecida","osm_id":7193807569,"osm_tipo":"node","tipo_lugar":"neighbourhood"},"geometry":{"type":"Point","coordinates":[-45.0035191,-20.2794675]}},{"type":"Feature","properties":{"nome":"São José","osm_id":7193807570,"osm_tipo":"node","tipo_lugar":"neighbourhood"},"geometry":{"type":"Point","coordinates":[-45.0108361,-20.2868944]}},{"type":"Feature","properties":{"nome":"Floresta","osm_id":7193807571,"osm_tipo":"node","tipo_lugar":"neighbourhood"},"geometry":{"type":"Point","coordinates":[-45.0063944,-20.2829898]}}]}