{"type":"FeatureCollection","features":[{"type":"Feature","properties":{"nome":"Bela Vista I","osm_id":3226035106,"osm_tipo":"node","tipo_lugar":"suburb"},"geometry":{"type":"Point","coordinates":[-43.0176075,-21.5210539]}},{"type":"Feature","properties":{"nome":"Bela Vista II","osm_id":3226035107,"osm_tipo":"node","tipo_lugar":"suburb"},"geometry":{"type":"Point","coordinates":[-43.0197814,-21.5185752]}},{"type":"Feature","properties":{"nome":"Novo Horizonte","osm_id":3226035108,"osm_tipo":"node","tipo_lugar":"suburb"},"geometry":{"type":"Point","coordinates":[-43.0208402,-21.5247439]}},{"type":"Feature","properties":{"nome":"São Cristovão","osm_id":3226035109,"osm_tipo":"node","tipo_lugar":"suburb"},"geometry":{"type":"Point","coordinates":[-43.0137237,-21.5196166]}},{"type":"Feature","properties":{"nome":"Industrial","osm_id":3226035110,"osm_tipo":"node","tipo_lugar":"suburb"},"geometry":{"type":"Point","coordinates":[-43.0131654,-21.5232136]}},{"type":"Feature","properties":{"nome":"Cidade Nova","osm_id":3226035112,"osm_tipo":"node","tipo_lugar":"suburb"},"geometry":{"type":"Point","coordinates":[-43.0146384,-21.5282792]}},{"type":"Feature","properties":{"nome":"Santo Antônio","osm_id":3226035113,"osm_tipo":"node","tipo_lugar":"suburb"},"geometry":{"type":"Point","coordinates":[-43.012549,-21.5310753]}},{"type":"Feature","properties":{"nome":"Lourdes","osm_id":3226035114,"osm_tipo":"node","tipo_lugar":"suburb"},"geometry":{"type":"Point","coordinates":[-43.0167882,-21.5316891]}},{"type":"Feature","properties":{"nome":"Shangrilá","osm_id":3226035115,"osm_tipo":"node","tipo_lugar":"suburb"},"geometry":{"type":"Point","coordinates":[-43.0193181,-21.5321259]}},{"type":"Feature","properties":{"nome":"Três Marias","osm_id":3226035116,"osm_tipo":"node","tipo_lugar":"suburb"},"geometry":{"type":"Point","coordinates":[-43.0226072,-21.5340883]}},{"type":"Feature","properties":{"nome":"Centenário","osm_id":3226035117,"osm_tipo":"node","tipo_lugar":"suburb"},"geometry":{"type":"Point","coordinates":[-43.0199491,-21.5375785]}},{"type":"Feature","properties":{"nome":"Centro","osm_id":3226035118,"osm_tipo":"node","tipo_lugar":"suburb"},"geometry":{"type":"Point","coordinates":[-43.0133297,-21.5359035]}},{"type":"Feature","properties":{"nome":"Caxangá","osm_id":3226040395,"osm_tipo":"node","tipo_lugar":"suburb"},"geometry":{"type":"Point","coordinates":[-43.0172558,-21.5367432]}},{"type":"Feature","properties":{"nome":"Dona Lalá","osm_id":3226040396,"osm_tipo":"node","tipo_lugar":"suburb"},"geometry":{"type":"Point","coordinates":[-43.0043378,-21.5372555]}},{"type":"Feature","properties":{"nome":"São José","osm_id":3226040397,"osm_tipo":"node","tipo_lugar":"suburb"},"geometry":{"type":"Point","coordinates":[-43.0083933,-21.5362775]}},{"type":"Feature","properties":{"nome":"Santa Terezinha","osm_id":3226040398,"osm_tipo":"node","tipo_lugar":"suburb"},"geometry":{"type":"Point","coordinates":[-43.0173799,-21.5410342]}},{"type":"Feature","properties":{"nome":"Santa Rita","osm_id":3226040399,"osm_tipo":"node","tipo_lugar":"suburb"},"geometry":{"type":"Point","coordinates":[-43.0140145,-21.5415594]}},{"type":"Feature","properties":{"nome":"Alto dos Pinheiros","osm_id":3226040400,"osm_tipo":"node","tipo_lugar":"suburb"},"geometry":{"type":"Point","coordinates":[-43.017327,-21.5478762]}},{"type":"Feature","properties":{"nome":"Bosque dos Ypês","osm_id":3226040401,"osm_tipo":"node","tipo_lugar":"suburb"},"geometry":{"type":"Point","coordinates":[-43.0154612,-21.5507895]}},{"type":"Feature","properties":{"nome":"Bosque dos Eucaliptos","osm_id":3226040402,"osm_tipo":"node","tipo_lugar":"suburb"},"geometry":{"type":"Point","coordinates":[-43.0263105,-21.5530825]}},{"type":"Feature","properties":{"nome":"Stiebler","osm_id":5676771909,"osm_tipo":"node","tipo_lugar":"suburb"},"geometry":{"type":"Point","coordinates":[-43.0180051,-21.533598]}},{"type":"Feature","properties":{"nome":"Vale do Sol","osm_id":5716377889,"osm_tipo":"node","tipo_lugar":"suburb"},"geometry":{"type":"Point","coordinates":[-43.023225,-21.5370222]}},{"type":"Feature","properties":{"nome":"Caminho Real","osm_id":5718823331,"osm_tipo":"node","tipo_lugar":"suburb"},"geometry":{"type":"Point","coordinates":[-43.0079269,-21.520793]}},{"type":"Feature","properties":{"nome":"Jardim Bom Clima","osm_id":5720106765,"osm_tipo":"node","tipo_lugar":"suburb"},"geometry":{"type":"Point","coordinates":[-43.0053367,-21.5392102]}},{"type":"Feature","properties":{"nome":"Belvedere","osm_id":5720301659,"osm_tipo":"node","tipo_lugar":"suburb"},"geometry":{"type":"Point","coordinates":[-43.0170434,-21.5520668]}},{"type":"Feature","properties":{"nome":"Matriz","osm_id":8237672219,"osm_tipo":"node","tipo_lugar":"suburb"},"geometry":{"type":"Point","coordinates":[-43.0103043,-21.5415526]}},{"type":"Feature","properties":{"nome":"São Sebastião","osm_id":8237672220,"osm_tipo":"node","tipo_lugar":"suburb"},"geometry":{"type":"Point","coordinates":[-43.0079863,-21.5413917]}},{"type":"Feature","properties":{"nome":"Vila da Serra","osm_id":8237672221,"osm_tipo":"node","tipo_lugar":"suburb"},"geometry":{"type":"Point","coordinates":[-43.0067062,-21.5454143]}},{"type":"Feature","properties":{"nome":"Matadouro","osm_id":8237715574,"osm_tipo":"node","tipo_lugar":"suburb"},"geometry":{"type":"Point","coordinates":[-43.0182612,-21.529663]}},{"type":"Feature","properties":{"nome":"Palmeirinha","osm_id":8237717694,"osm_tipo":"node","tipo_lugar":"suburb"},"geometry":{"type":"Point","coordinates":[-43.0111993,-21.5126081]}},{"type":"Feature","properties":{"nome":"José Maria Fam","osm_id":8237796571,"osm_tipo":"node","tipo_lugar":"suburb"},"geometry":{"type":"Point","coordinates":[-43.0145624,-21.5465774]}},{"type":"Feature","properties":{"nome":"Vivendas dos Barões","osm_id":8237796572,"osm_tipo":"node","tipo_lugar":"suburb"},"geometry":{"type":"Point","coordinates":[-43.0110528,-21.5448183]}},{"type":"Feature","properties":{"nome":"Palmares","osm_id":8237796573,"osm_tipo":"node","tipo_lugar":"suburb"},"geometry":{"type":"Point","coordinates":[-43.0059793,-21.5326228]}},{"type":"Feature","properties":{"nome":"Jardim Harmonia","osm_id":8237796574,"osm_tipo":"node","tipo_lugar":"suburb"},"geometry":{"type":"Point","coordinates":[-43.0085615,-21.529578]}},{"type":"Feature","properties":{"nome":"Liberdade","osm_id":8237796575,"osm_tipo":"node","tipo_lugar":"suburb"},"geometry":{"type":"Point","coordinates":[-43.0235202,-21.5323417]}},{"type":"Feature","properties":{"nome":"Aeroporto","osm_id":8237796576,"osm_tipo":"node","tipo_lugar":"suburb"},"geometry":{"type":"Point","coordinates":[-43.0233299,-21.5408456]}},{"type":"Feature","properties":{"nome":"Bairro da matriz","osm_id":601067822,"osm_tipo":"way","tipo_lugar":"suburb"},"geometry":{"type":"Polygon","coordinates":[[[-43.0097217,-21.5425811],[-43.0116409,-21.5414611],[-43.011255,-21.5392002],[-43.0086637,-21.5437362],[-43.0097217,-21.5425811]]]}},{"type":"Feature","properties":{"nome":"Bairro São Sebastião","osm_id":885892185,"osm_tipo":"way","tipo_lugar":"suburb"},"geometry":{"type":"Polygon","coordinates":[[[-43.0093451,-21.5395646],[-43.0071432,-21.5428026],[-43.0088528,-21.5420146],[-43.0093451,-21.5395646]]]}},{"type":"Feature","properties":{"nome":"Condomínio Vila da Serra","osm_id":885892761,"osm_tipo":"way","tipo_lugar":"suburb"},"geometry":{"type":"Polygon","coordinates":[[[-43.0086637,-21.5437362],[-43.0076784,-21.5454251],[-43.0040105,-21.5473191],[-43.0086637,-21.5437362]]]}}]}