{"type":"FeatureCollection","features":[{"type":"Feature","properties":{"nome":"Guyra Pepó Indigenous Territory","osm_id":7080242527,"osm_tipo":"node","tipo_lugar":"neighbourhood"},"geometry":{"type":"Point","coordinates":[-47.5413069,-23.9362092]}},{"type":"Feature","properties":{"nome":"Turvo de Baixo","osm_id":9351606671,"osm_tipo":"node","tipo_lugar":"suburb"},"geometry":{"type":"Point","coordinates":[-47.5119236,-23.9125186]}},{"type":"Feature","properties":{"nome":"Bairro dos Venâncios","osm_id":9351606864,"osm_tipo":"node","tipo_lugar":"suburb"},"geometry":{"type":"Point","coordinates":[-47.5374583,-23.8971781]}},{"type":"Feature","properties":{"nome":"Juquiazinho","osm_id":9351620749,"osm_tipo":"node","tipo_lugar":"suburb"},"geometry":{"type":"Point","coordinates":[-47.5098637,-23.9428824]}},{"type":"Feature","properties":{"nome":"Bairro Quaresmal","osm_id":9351674876,"osm_tipo":"node","tipo_lugar":"suburb"},"geometry":{"type":"Point","coordinates":[-47.5241802,-23.9054577]}},{"type":"Feature","properties":{"nome":"Monos de Baixo","osm_id":9351676550,"osm_tipo":"node","tipo_lugar":"suburb"},"geometry":{"type":"Point","coordinates":[-47.4582795,-23.9048682]}},{"type":"Feature","properties":{"nome":"Claro","osm_id":9351677435,"osm_tipo":"node","tipo_lugar":"suburb"},"geometry":{"type":"Point","coordinates":[-47.4826983,-23.9267609]}},{"type":"Feature","properties":{"nome":"Bairro Alecrim de Cima","osm_id":9351688735,"osm_tipo":"node","tipo_lugar":"suburb"},"geometry":{"type":"Point","coordinates":[-47.4985512,-24.005631]}},{"type":"Feature","properties":{"nome":"Bairro dos Garcias","osm_id":9351690312,"osm_tipo":"node","tipo_lugar":"suburb"},"geometry":{"type":"Point","coordinates":[-47.5268357,-23.8936664]}},{"type":"Feature","properties":{"nome":"Juquiazinho de Cima","osm_id":9351690313,"osm_tipo":"node","tipo_lugar":"suburb"},"geometry":{"type":"Point","coordinates":[-47.4952296,-23.9375872]}},{"type":"Feature","properties":{"nome":"Monos","osm_id":9351691248,"osm_tipo":"node","tipo_lugar":"suburb"},"geometry":{"type":"Point","coordinates":[-47.4439007,-23.9072801]}},{"type":"Feature","properties":{"nome":"Murunduva","osm_id":9351692524,"osm_tipo":"node","tipo_lugar":"suburb"},"geometry":{"type":"Point","coordinates":[-47.5471571,-23.9132248]}},{"type":"Feature","properties":{"nome":"Quatro Barras","osm_id":9351695406,"osm_tipo":"node","tipo_lugar":"suburb"},"geometry":{"type":"Point","coordinates":[-47.5357417,-23.9819401]}},{"type":"Feature","properties":{"nome":"Vila Dona Tereza","osm_id":9353480699,"osm_tipo":"node","tipo_lugar":"neighbourhood"},"geometry":{"type":"Point","coordinates":[-47.5025296,-23.9599376]}},{"type":"Feature","properties":{"nome":"Jardim Primavera","osm_id":9353527727,"osm_tipo":"node","tipo_lugar":"neighbourhood"},"geometry":{"type":"Point","coordinates":[-47.4997723,-23.9573492]}},{"type":"Feature","properties":{"nome":"Vila Dona Leó","osm_id":9353564459,"osm_tipo":"node","tipo_lugar":"neighbourhood"},"geometry":{"type":"Point","coordinates":[-47.5133797,-23.9665284]}},{"type":"Feature","properties":{"nome":"Conjunto Habitacional Padre Guilherme Hoovel","osm_id":9353565288,"osm_tipo":"node","tipo_lugar":"neighbourhood"},"geometry":{"type":"Point","coordinates":[-47.5027321,-23.9635678]}},{"type":"Feature","properties":{"nome":"Jardim Nova Conquista","osm_id":9353570634,"osm_tipo":"node","tipo_lugar":"neighbourhood"},"geometry":{"type":"Point","coordinates":[-47.4993686,-23.9615825]}},{"type":"Feature","properties":{"nome":"Vila Nádia","osm_id":9353571953,"osm_tipo":"node","tipo_lugar":"neighbourhood"},"geometry":{"type":"Point","coordinates":[-47.517013,-23.9664764]}},{"type":"Feature","properties":{"nome":"Jardim Nova Esperança","osm_id":9353586817,"osm_tipo":"node","tipo_lugar":"neighbourhood"},"geometry":{"type":"Point","coordinates":[-47.5137123,-23.9647051]}},{"type":"Feature","properties":{"nome":"Bairro dos Pires","osm_id":9356132997,"osm_tipo":"node","tipo_lugar":"suburb"},"geometry":{"type":"Point","coordinates":[-47.4746927,-23.9133117]}},{"type":"Feature","properties":{"nome":"Bairro dos Marianos","osm_id":9356134911,"osm_tipo":"node","tipo_lugar":"suburb"},"geometry":{"type":"Point","coordinates":[-47.4958259,-23.9011189]}},{"type":"Feature","properties":{"nome":"Caulim","osm_id":9356174206,"osm_tipo":"node","tipo_lugar":"neighbourhood"},"geometry":{"type":"Point","coordinates":[-47.4966547,-23.9523901]}},{"type":"Feature","properties":{"nome":"Bairro Sul Brasil","osm_id":9356174207,"osm_tipo":"node","tipo_lugar":"suburb"},"geometry":{"type":"Point","coordinates":[-47.4944231,-23.9494977]}},{"type":"Feature","properties":{"nome":"Bairro Kubota","osm_id":9356223752,"osm_tipo":"node","tipo_lugar":"suburb"},"geometry":{"type":"Point","coordinates":[-47.4955507,-23.925874]}},{"type":"Feature","properties":{"nome":"Bairro Pescador","osm_id":9356277330,"osm_tipo":"node","tipo_lugar":"suburb"},"geometry":{"type":"Point","coordinates":[-47.4027462,-24.0421521]}},{"type":"Feature","properties":{"nome":"Bairro Princesa Isabel","osm_id":9356603108,"osm_tipo":"node","tipo_lugar":"suburb"},"geometry":{"type":"Point","coordinates":[-47.5906111,-24.0611349]}},{"type":"Feature","properties":{"nome":"Bairro Alecrim de Baixo","osm_id":9356613126,"osm_tipo":"node","tipo_lugar":"suburb"},"geometry":{"type":"Point","coordinates":[-47.4787707,-24.0366846]}},{"type":"Feature","properties":{"nome":"Bairro dos Valandros","osm_id":9356694441,"osm_tipo":"node","tipo_lugar":"suburb"},"geometry":{"type":"Point","coordinates":[-47.6376407,-24.0329219]}},{"type":"Feature","properties":{"nome":"Bairro do Rio Verde","osm_id":9356729797,"osm_tipo":"node","tipo_lugar":"suburb"},"geometry":{"type":"Point","coordinates":[-47.610876,-24.0144549]}},{"type":"Feature","properties":{"nome":"Bairro do Piúva","osm_id":9356730685,"osm_tipo":"node","tipo_lugar":"suburb"},"geometry":{"type":"Point","coordinates":[-47.5762712,-23.9729199]}},{"type":"Feature","properties":{"nome":"Bairro do Olavo","osm_id":9356769062,"osm_tipo":"node","tipo_lugar":"suburb"},"geometry":{"type":"Point","coordinates":[-47.5906913,-23.9081633]}},{"type":"Feature","properties":{"nome":"Vila Raymunda","osm_id":9359213147,"osm_tipo":"node","tipo_lugar":"neighbourhood"},"geometry":{"type":"Point","coordinates":[-47.5167691,-23.9072796]}},{"type":"Feature","properties":{"nome":"Bairro dos Venâncios","osm_id":9359303404,"osm_tipo":"node","tipo_lugar":"suburb"},"geometry":{"type":"Point","coordinates":[-47.5690614,-23.8829144]}},{"type":"Feature","properties":{"nome":"Bairro dos Garcia","osm_id":9359336867,"osm_tipo":"node","tipo_lugar":"suburb"},"geometry":{"type":"Point","coordinates":[-47.5559722,-23.869985]}},{"type":"Feature","properties":{"nome":"Bairro dos Góes","osm_id":9359365460,"osm_tipo":"node","tipo_lugar":"suburb"},"geometry":{"type":"Point","coordinates":[-47.5850474,-23.8811103]}},{"type":"Feature","properties":{"nome":"Bairro da Fazenda Velha","osm_id":9359418564,"osm_tipo":"node","tipo_lugar":"neighbourhood"},"geometry":{"type":"Point","coordinates":[-47.5342345,-23.9453872]}},{"type":"Feature","properties":{"nome":"Big Valley","osm_id":9359433041,"osm_tipo":"node","tipo_lugar":"suburb"},"geometry":{"type":"Point","coordinates":[-47.6016985,-23.9366032]}},{"type":"Feature","properties":{"nome":"Bairro Ribeirão do Ouro","osm_id":9359441503,"osm_tipo":"node","tipo_lugar":"suburb"},"geometry":{"type":"Point","coordinates":[-47.5705634,-23.9470747]}},{"type":"Feature","properties":{"nome":"Bairro da Água Doce","osm_id":9359441504,"osm_tipo":"node","tipo_lugar":"neighbourhood"},"geometry":{"type":"Point","coordinates":[-47.5371528,-24.0249436]}},{"type":"Feature","properties":{"nome":"Bairro da Figueira","osm_id":9359452123,"osm_tipo":"node","tipo_lugar":"suburb"},"geometry":{"type":"Point","coordinates":[-47.5446855,-23.9561541]}},{"type":"Feature","properties":{"nome":"Bairro Santa Paula","osm_id":9359464718,"osm_tipo":"node","tipo_lugar":"suburb"},"geometry":{"type":"Point","coordinates":[-47.5259089,-23.9871536]}},{"type":"Feature","properties":{"nome":"Bairro do Belchior","osm_id":9359464739,"osm_tipo":"node","tipo_lugar":"suburb"},"geometry":{"type":"Point","coordinates":[-47.609036,-23.9698985]}},{"type":"Feature","properties":{"nome":"Cedro","osm_id":9359467775,"osm_tipo":"node","tipo_lugar":"suburb"},"geometry":{"type":"Point","coordinates":[-47.5614225,-24.0037379]}},{"type":"Feature","properties":{"nome":"Bairro do Chá","osm_id":9359470132,"osm_tipo":"node","tipo_lugar":"suburb"},"geometry":{"type":"Point","coordinates":[-47.6042294,-24.0310602]}},{"type":"Feature","properties":{"nome":"Jardim Nova União","osm_id":9364152467,"osm_tipo":"node","tipo_lugar":"neighbourhood"},"geometry":{"type":"Point","coordinates":[-47.5236609,-23.9024474]}},{"type":"Feature","properties":{"nome":"Bairro dos Americanos","osm_id":9364172029,"osm_tipo":"node","tipo_lugar":"neighbourhood"},"geometry":{"type":"Point","coordinates":[-47.5044003,-23.9664552]}},{"type":"Feature","properties":{"nome":"Comunicade Canelal","osm_id":9443503395,"osm_tipo":"node","tipo_lugar":"neighbourhood"},"geometry":{"type":"Point","coordinates":[-47.6180297,-23.9356233]}}]}