{"type":"FeatureCollection","features":[{"type":"Feature","properties":{"nome":"José Tristão de Miranda","osm_id":5901934246,"osm_tipo":"node","tipo_lugar":"neighbourhood"},"geometry":{"type":"Point","coordinates":[-42.8650904,-20.6429099]}},{"type":"Feature","properties":{"nome":"Castelinho","osm_id":5901934247,"osm_tipo":"node","tipo_lugar":"neighbourhood"},"geometry":{"type":"Point","coordinates":[-42.8571349,-20.6547466]}},{"type":"Feature","properties":{"nome":"Vila Santana","osm_id":5901934280,"osm_tipo":"node","tipo_lugar":"neighbourhood"},"geometry":{"type":"Point","coordinates":[-42.8587818,-20.6438788]}},{"type":"Feature","properties":{"nome":"Morro da Querosene","osm_id":5901934281,"osm_tipo":"node","tipo_lugar":"neighbourhood"},"geometry":{"type":"Point","coordinates":[-42.8643555,-20.6469861]}},{"type":"Feature","properties":{"nome":"Pedro Paulo da Fonseca","osm_id":5901936589,"osm_tipo":"node","tipo_lugar":"neighbourhood"},"geometry":{"type":"Point","coordinates":[-42.8647095,-20.6448024]}},{"type":"Feature","properties":{"nome":"Alice Lopes Baião","osm_id":5901936590,"osm_tipo":"node","tipo_lugar":"neighbourhood"},"geometry":{"type":"Point","coordinates":[-42.8593719,-20.6570506]}},{"type":"Feature","properties":{"nome":"Alencar","osm_id":5901936591,"osm_tipo":"node","tipo_lugar":"neighbourhood"},"geometry":{"type":"Point","coordinates":[-42.8591144,-20.6660554]}},{"type":"Feature","properties":{"nome":"Buraco Frio","osm_id":5901936592,"osm_tipo":"node","tipo_lugar":"neighbourhood"},"geometry":{"type":"Point","coordinates":[-42.8551877,-20.6653426]}},{"type":"Feature","properties":{"nome":"Herculino Pio","osm_id":5901936594,"osm_tipo":"node","tipo_lugar":"neighbourhood"},"geometry":{"type":"Point","coordinates":[-42.8538197,-20.6579993]}},{"type":"Feature","properties":{"nome":"Centro","osm_id":5901936597,"osm_tipo":"node","tipo_lugar":"neighbourhood"},"geometry":{"type":"Point","coordinates":[-42.8557348,-20.6528442]}},{"type":"Feature","properties":{"nome":"Represa","osm_id":5901936598,"osm_tipo":"node","tipo_lugar":"neighbourhood"},"geometry":{"type":"Point","coordinates":[-42.8464115,-20.6472622]}},{"type":"Feature","properties":{"nome":"Progresso","osm_id":5901936599,"osm_tipo":"node","tipo_lugar":"neighbourhood"},"geometry":{"type":"Point","coordinates":[-42.8397703,-20.6505652]}}]}