{"type":"FeatureCollection","features":[{"type":"Feature","properties":{"nome":"Bairro do Século","osm_id":3879174538,"osm_tipo":"node","tipo_lugar":"neighbourhood"},"geometry":{"type":"Point","coordinates":[-45.5087664,-21.3583533]}},{"type":"Feature","properties":{"nome":"Bela Vista","osm_id":3879174539,"osm_tipo":"node","tipo_lugar":"neighbourhood"},"geometry":{"type":"Point","coordinates":[-45.5158649,-21.3599477]}},{"type":"Feature","properties":{"nome":"Cidade Jardim","osm_id":3879174540,"osm_tipo":"node","tipo_lugar":"neighbourhood"},"geometry":{"type":"Point","coordinates":[-45.5166718,-21.3567621]}},{"type":"Feature","properties":{"nome":"Distrito Industrial","osm_id":3879174541,"osm_tipo":"node","tipo_lugar":"neighbourhood"},"geometry":{"type":"Point","coordinates":[-45.5356418,-21.3686345]}},{"type":"Feature","properties":{"nome":"Eucaliptos","osm_id":3879174542,"osm_tipo":"node","tipo_lugar":"neighbourhood"},"geometry":{"type":"Point","coordinates":[-45.516848,-21.3585094]}},{"type":"Feature","properties":{"nome":"Jardim Greenville","osm_id":3879174543,"osm_tipo":"node","tipo_lugar":"neighbourhood"},"geometry":{"type":"Point","coordinates":[-45.5055375,-21.3586521]}},{"type":"Feature","properties":{"nome":"Major Brás","osm_id":3879174544,"osm_tipo":"node","tipo_lugar":"neighbourhood"},"geometry":{"type":"Point","coordinates":[-45.5257306,-21.3668636]}},{"type":"Feature","properties":{"nome":"Novo Horizonte","osm_id":3879174545,"osm_tipo":"node","tipo_lugar":"neighbourhood"},"geometry":{"type":"Point","coordinates":[-45.5206635,-21.3613936]}},{"type":"Feature","properties":{"nome":"Ouro Verde","osm_id":3879174546,"osm_tipo":"node","tipo_lugar":"neighbourhood"},"geometry":{"type":"Point","coordinates":[-45.516166,-21.3640911]}},{"type":"Feature","properties":{"nome":"Peret","osm_id":3879174547,"osm_tipo":"node","tipo_lugar":"neighbourhood"},"geometry":{"type":"Point","coordinates":[-45.5121694,-21.3602919]}},{"type":"Feature","properties":{"nome":"Santa Marta","osm_id":3879174548,"osm_tipo":"node","tipo_lugar":"neighbourhood"},"geometry":{"type":"Point","coordinates":[-45.5146065,-21.3548284]}},{"type":"Feature","properties":{"nome":"São Francisco de Assis I","osm_id":3879174549,"osm_tipo":"node","tipo_lugar":"neighbourhood"},"geometry":{"type":"Point","coordinates":[-45.5185761,-21.3595452]}},{"type":"Feature","properties":{"nome":"São Francisco de Assis II","osm_id":3879174550,"osm_tipo":"node","tipo_lugar":"neighbourhood"},"geometry":{"type":"Point","coordinates":[-45.5217857,-21.3636643]}},{"type":"Feature","properties":{"nome":"São Gabriel","osm_id":3879174551,"osm_tipo":"node","tipo_lugar":"neighbourhood"},"geometry":{"type":"Point","coordinates":[-45.5141538,-21.3626886]}},{"type":"Feature","properties":{"nome":"São Vicente","osm_id":3879174552,"osm_tipo":"node","tipo_lugar":"neighbourhood"},"geometry":{"type":"Point","coordinates":[-45.5179284,-21.363374]}},{"type":"Feature","properties":{"nome":"Vicentini","osm_id":3879174553,"osm_tipo":"node","tipo_lugar":"neighbourhood"},"geometry":{"type":"Point","coordinates":[-45.5223428,-21.3656367]}},{"type":"Feature","properties":{"nome":"Vila Campos","osm_id":3879174554,"osm_tipo":"node","tipo_lugar":"neighbourhood"},"geometry":{"type":"Point","coordinates":[-45.5193998,-21.3640751]}},{"type":"Feature","properties":{"nome":"Vila Rica","osm_id":3879174555,"osm_tipo":"node","tipo_lugar":"neighbourhood"},"geometry":{"type":"Point","coordinates":[-45.5301228,-21.3682809]}},{"type":"Feature","properties":{"nome":"Vila Rosa","osm_id":3879174556,"osm_tipo":"node","tipo_lugar":"neighbourhood"},"geometry":{"type":"Point","coordinates":[-45.5234036,-21.3668318]}},{"type":"Feature","properties":{"nome":"Village das Palmeiras","osm_id":3879174757,"osm_tipo":"node","tipo_lugar":"neighbourhood"},"geometry":{"type":"Point","coordinates":[-45.5272192,-21.3677081]}},{"type":"Feature","properties":{"nome":"Vivendas do Bosque I","osm_id":3879174758,"osm_tipo":"node","tipo_lugar":"neighbourhood"},"geometry":{"type":"Point","coordinates":[-45.5289305,-21.3654622]}},{"type":"Feature","properties":{"nome":"Vivendas do Bosque II","osm_id":3879174759,"osm_tipo":"node","tipo_lugar":"neighbourhood"},"geometry":{"type":"Point","coordinates":[-45.532201,-21.365132]}},{"type":"Feature","properties":{"nome":"Antônio de Brito Mendonça","osm_id":3913563886,"osm_tipo":"node","tipo_lugar":"neighbourhood"},"geometry":{"type":"Point","coordinates":[-45.5282263,-21.3721852]}},{"type":"Feature","properties":{"nome":"Azarias da Silva Campos","osm_id":3913563887,"osm_tipo":"node","tipo_lugar":"neighbourhood"},"geometry":{"type":"Point","coordinates":[-45.532679,-21.3689061]}},{"type":"Feature","properties":{"nome":"Catumbi","osm_id":3913563888,"osm_tipo":"node","tipo_lugar":"neighbourhood"},"geometry":{"type":"Point","coordinates":[-45.5217173,-21.369221]}},{"type":"Feature","properties":{"nome":"Centro","osm_id":3913563889,"osm_tipo":"node","tipo_lugar":"neighbourhood"},"geometry":{"type":"Point","coordinates":[-45.5122933,-21.3678965]}},{"type":"Feature","properties":{"nome":"Jardim Boa Vista II","osm_id":3913563890,"osm_tipo":"node","tipo_lugar":"neighbourhood"},"geometry":{"type":"Point","coordinates":[-45.5270266,-21.3819568]}},{"type":"Feature","properties":{"nome":"Jardim Boa Vista","osm_id":3913563891,"osm_tipo":"node","tipo_lugar":"neighbourhood"},"geometry":{"type":"Point","coordinates":[-45.5284621,-21.3787527]}},{"type":"Feature","properties":{"nome":"Jardim Brasil","osm_id":3913563892,"osm_tipo":"node","tipo_lugar":"neighbourhood"},"geometry":{"type":"Point","coordinates":[-45.5153269,-21.3655949]}},{"type":"Feature","properties":{"nome":"Morada Nova","osm_id":3913563893,"osm_tipo":"node","tipo_lugar":"neighbourhood"},"geometry":{"type":"Point","coordinates":[-45.5224425,-21.3755321]}},{"type":"Feature","properties":{"nome":"Morada Nova","osm_id":3913563894,"osm_tipo":"node","tipo_lugar":"neighbourhood"},"geometry":{"type":"Point","coordinates":[-45.5297401,-21.3773703]}},{"type":"Feature","properties":{"nome":"Santa Monica","osm_id":3913563895,"osm_tipo":"node","tipo_lugar":"neighbourhood"},"geometry":{"type":"Point","coordinates":[-45.52426,-21.3814293]}},{"type":"Feature","properties":{"nome":"Santa Teresa","osm_id":3913563896,"osm_tipo":"node","tipo_lugar":"neighbourhood"},"geometry":{"type":"Point","coordinates":[-45.517898,-21.3661154]}},{"type":"Feature","properties":{"nome":"Santa Terezinha","osm_id":3913563897,"osm_tipo":"node","tipo_lugar":"neighbourhood"},"geometry":{"type":"Point","coordinates":[-45.5291951,-21.3698951]}},{"type":"Feature","properties":{"nome":"São José","osm_id":3913563898,"osm_tipo":"node","tipo_lugar":"neighbourhood"},"geometry":{"type":"Point","coordinates":[-45.5096818,-21.3650397]}},{"type":"Feature","properties":{"nome":"São Judas Tadeu","osm_id":3913563899,"osm_tipo":"node","tipo_lugar":"neighbourhood"},"geometry":{"type":"Point","coordinates":[-45.5267972,-21.3805782]}},{"type":"Feature","properties":{"nome":"Esperança","osm_id":3913574548,"osm_tipo":"node","tipo_lugar":"neighbourhood"},"geometry":{"type":"Point","coordinates":[-45.5002882,-21.3750331]}},{"type":"Feature","properties":{"nome":"João P. Campos","osm_id":3913574549,"osm_tipo":"node","tipo_lugar":"neighbourhood"},"geometry":{"type":"Point","coordinates":[-45.5038129,-21.3709132]}},{"type":"Feature","properties":{"nome":"Meia Pataca","osm_id":3913574550,"osm_tipo":"node","tipo_lugar":"neighbourhood"},"geometry":{"type":"Point","coordinates":[-45.4931402,-21.36354]}},{"type":"Feature","properties":{"nome":"Padre Vitor","osm_id":3913574551,"osm_tipo":"node","tipo_lugar":"neighbourhood"},"geometry":{"type":"Point","coordinates":[-45.5057381,-21.3658635]}},{"type":"Feature","properties":{"nome":"Santa Edwiges","osm_id":3913574552,"osm_tipo":"node","tipo_lugar":"neighbourhood"},"geometry":{"type":"Point","coordinates":[-45.497388,-21.3656915]}},{"type":"Feature","properties":{"nome":"Santa Inês","osm_id":3913574553,"osm_tipo":"node","tipo_lugar":"neighbourhood"},"geometry":{"type":"Point","coordinates":[-45.501572,-21.3641673]}},{"type":"Feature","properties":{"nome":"Santa Margarida","osm_id":3913574554,"osm_tipo":"node","tipo_lugar":"neighbourhood"},"geometry":{"type":"Point","coordinates":[-45.4901561,-21.3669269]}},{"type":"Feature","properties":{"nome":"Santana","osm_id":3913574555,"osm_tipo":"node","tipo_lugar":"neighbourhood"},"geometry":{"type":"Point","coordinates":[-45.4915449,-21.3741312]}},{"type":"Feature","properties":{"nome":"Vila Romana","osm_id":3913574556,"osm_tipo":"node","tipo_lugar":"neighbourhood"},"geometry":{"type":"Point","coordinates":[-45.5065022,-21.3637411]}},{"type":"Feature","properties":{"nome":"Alcides Mesquita","osm_id":4128612937,"osm_tipo":"node","tipo_lugar":"neighbourhood"},"geometry":{"type":"Point","coordinates":[-45.517304,-21.3753064]}},{"type":"Feature","properties":{"nome":"Aristides Vieira de Mendonça","osm_id":4128612938,"osm_tipo":"node","tipo_lugar":"neighbourhood"},"geometry":{"type":"Point","coordinates":[-45.5210377,-21.3814806]}},{"type":"Feature","properties":{"nome":"Cohab Jardim das Oliveiras","osm_id":4128612939,"osm_tipo":"node","tipo_lugar":"neighbourhood"},"geometry":{"type":"Point","coordinates":[-45.5172558,-21.3808313]}},{"type":"Feature","properties":{"nome":"Francisco Vieira Campos","osm_id":4128612940,"osm_tipo":"node","tipo_lugar":"neighbourhood"},"geometry":{"type":"Point","coordinates":[-45.5196,-21.3734681]}},{"type":"Feature","properties":{"nome":"Jardim Primavera","osm_id":4128612941,"osm_tipo":"node","tipo_lugar":"neighbourhood"},"geometry":{"type":"Point","coordinates":[-45.5134175,-21.3867805]}},{"type":"Feature","properties":{"nome":"Jardim das Acácias","osm_id":4128612942,"osm_tipo":"node","tipo_lugar":"neighbourhood"},"geometry":{"type":"Point","coordinates":[-45.5144046,-21.3897175]}},{"type":"Feature","properties":{"nome":"Parque Veredas II","osm_id":4128612943,"osm_tipo":"node","tipo_lugar":"neighbourhood"},"geometry":{"type":"Point","coordinates":[-45.5227543,-21.3726289]}},{"type":"Feature","properties":{"nome":"Parque Veredas","osm_id":4128612944,"osm_tipo":"node","tipo_lugar":"neighbourhood"},"geometry":{"type":"Point","coordinates":[-45.521896,-21.3762656]}},{"type":"Feature","properties":{"nome":"Ponte Alta II","osm_id":4128612945,"osm_tipo":"node","tipo_lugar":"neighbourhood"},"geometry":{"type":"Point","coordinates":[-45.5122803,-21.3850522]}},{"type":"Feature","properties":{"nome":"São Benedito","osm_id":4128612946,"osm_tipo":"node","tipo_lugar":"neighbourhood"},"geometry":{"type":"Point","coordinates":[-45.5162097,-21.3778041]}},{"type":"Feature","properties":{"nome":"Turmalinas","osm_id":4128612947,"osm_tipo":"node","tipo_lugar":"neighbourhood"},"geometry":{"type":"Point","coordinates":[-45.5186237,-21.3828743]}},{"type":"Feature","properties":{"nome":"Vila Marilena","osm_id":4128612948,"osm_tipo":"node","tipo_lugar":"neighbourhood"},"geometry":{"type":"Point","coordinates":[-45.5125351,-21.3823998]}},{"type":"Feature","properties":{"nome":"Botafogo","osm_id":4128658279,"osm_tipo":"node","tipo_lugar":"neighbourhood"},"geometry":{"type":"Point","coordinates":[-45.508328,-21.3724778]}},{"type":"Feature","properties":{"nome":"Jardim Bom Pastor","osm_id":4128658280,"osm_tipo":"node","tipo_lugar":"neighbourhood"},"geometry":{"type":"Point","coordinates":[-45.5170465,-21.3724091]}},{"type":"Feature","properties":{"nome":"Jardim Paraíso","osm_id":4128658281,"osm_tipo":"node","tipo_lugar":"neighbourhood"},"geometry":{"type":"Point","coordinates":[-45.5096101,-21.3823835]}},{"type":"Feature","properties":{"nome":"Jardim Philadélphia","osm_id":4128658282,"osm_tipo":"node","tipo_lugar":"neighbourhood"},"geometry":{"type":"Point","coordinates":[-45.5088913,-21.3850309]}},{"type":"Feature","properties":{"nome":"Ouro Verde","osm_id":4128658283,"osm_tipo":"node","tipo_lugar":"neighbourhood"},"geometry":{"type":"Point","coordinates":[-45.5051737,-21.3736067]}},{"type":"Feature","properties":{"nome":"Ponte Alta I","osm_id":4128658284,"osm_tipo":"node","tipo_lugar":"neighbourhood"},"geometry":{"type":"Point","coordinates":[-45.5095082,-21.3794813]}},{"type":"Feature","properties":{"nome":"Vale do Sol II","osm_id":4128658285,"osm_tipo":"node","tipo_lugar":"neighbourhood"},"geometry":{"type":"Point","coordinates":[-45.5039507,-21.3723479]}},{"type":"Feature","properties":{"nome":"Vale do Sol","osm_id":4128658286,"osm_tipo":"node","tipo_lugar":"neighbourhood"},"geometry":{"type":"Point","coordinates":[-45.5074214,-21.3756199]}}]}