{"type":"FeatureCollection","features":[{"type":"Feature","properties":{"nome":"Novo Paraíso","osm_id":1710832502,"osm_tipo":"node","tipo_lugar":"neighbourhood"},"geometry":{"type":"Point","coordinates":[-42.8700812,-20.8115668]}},{"type":"Feature","properties":{"nome":"Bom Jesus","osm_id":2966140606,"osm_tipo":"node","tipo_lugar":"suburb"},"geometry":{"type":"Point","coordinates":[-42.8828889,-20.7686433]}},{"type":"Feature","properties":{"nome":"Sagrada Família","osm_id":2966140607,"osm_tipo":"node","tipo_lugar":"suburb"},"geometry":{"type":"Point","coordinates":[-42.8865689,-20.7717832]}},{"type":"Feature","properties":{"nome":"Estrelas","osm_id":2966140608,"osm_tipo":"node","tipo_lugar":"suburb"},"geometry":{"type":"Point","coordinates":[-42.8892082,-20.7702083]}},{"type":"Feature","properties":{"nome":"Conceição","osm_id":2966140609,"osm_tipo":"node","tipo_lugar":"suburb"},"geometry":{"type":"Point","coordinates":[-42.8871464,-20.7681374]}},{"type":"Feature","properties":{"nome":"Fátima","osm_id":2966140610,"osm_tipo":"node","tipo_lugar":"suburb"},"geometry":{"type":"Point","coordinates":[-42.8874144,-20.7633924]}},{"type":"Feature","properties":{"nome":"Centro","osm_id":2966140611,"osm_tipo":"node","tipo_lugar":"suburb"},"geometry":{"type":"Point","coordinates":[-42.8790139,-20.7555074]}},{"type":"Feature","properties":{"nome":"Santo Antônio","osm_id":2966140612,"osm_tipo":"node","tipo_lugar":"suburb"},"geometry":{"type":"Point","coordinates":[-42.8699063,-20.7479703]}},{"type":"Feature","properties":{"nome":"Nova Viçosa","osm_id":3149541908,"osm_tipo":"node","tipo_lugar":"suburb"},"geometry":{"type":"Point","coordinates":[-42.898702,-20.7713465]}},{"type":"Feature","properties":{"nome":"Arduíno Bolívar","osm_id":3150809872,"osm_tipo":"node","tipo_lugar":"suburb"},"geometry":{"type":"Point","coordinates":[-42.8870599,-20.729433]}},{"type":"Feature","properties":{"nome":"Vau-Açu","osm_id":3150810009,"osm_tipo":"node","tipo_lugar":"suburb"},"geometry":{"type":"Point","coordinates":[-42.8780002,-20.7273759]}},{"type":"Feature","properties":{"nome":"Boa Vista","osm_id":3150810011,"osm_tipo":"node","tipo_lugar":"suburb"},"geometry":{"type":"Point","coordinates":[-42.8824647,-20.7295641]}},{"type":"Feature","properties":{"nome":"Silvestre","osm_id":3150894883,"osm_tipo":"node","tipo_lugar":"suburb"},"geometry":{"type":"Point","coordinates":[-42.8662245,-20.7235766]}},{"type":"Feature","properties":{"nome":"Liberdade","osm_id":3150894884,"osm_tipo":"node","tipo_lugar":"suburb"},"geometry":{"type":"Point","coordinates":[-42.862986,-20.7278938]}},{"type":"Feature","properties":{"nome":"Inconfidência","osm_id":3150894885,"osm_tipo":"node","tipo_lugar":"suburb"},"geometry":{"type":"Point","coordinates":[-42.8684305,-20.7291785]}},{"type":"Feature","properties":{"nome":"Novo Silvestre","osm_id":3150894886,"osm_tipo":"node","tipo_lugar":"suburb"},"geometry":{"type":"Point","coordinates":[-42.8673583,-20.7017433]}},{"type":"Feature","properties":{"nome":"São Francisco de Assis","osm_id":3907081506,"osm_tipo":"node","tipo_lugar":"suburb"},"geometry":{"type":"Point","coordinates":[-42.8946042,-20.755398]}},{"type":"Feature","properties":{"nome":"Sol Nascente","osm_id":3907081518,"osm_tipo":"node","tipo_lugar":"suburb"},"geometry":{"type":"Point","coordinates":[-42.8951448,-20.7507504]}},{"type":"Feature","properties":{"nome":"Betânia","osm_id":3911016679,"osm_tipo":"node","tipo_lugar":"suburb"},"geometry":{"type":"Point","coordinates":[-42.8894243,-20.7569778]}},{"type":"Feature","properties":{"nome":"Ramos","osm_id":3911016680,"osm_tipo":"node","tipo_lugar":"suburb"},"geometry":{"type":"Point","coordinates":[-42.8815514,-20.7578416]}},{"type":"Feature","properties":{"nome":"Lourdes","osm_id":3911016681,"osm_tipo":"node","tipo_lugar":"suburb"},"geometry":{"type":"Point","coordinates":[-42.8853291,-20.7568961]}},{"type":"Feature","properties":{"nome":"Santa Clara","osm_id":3911016682,"osm_tipo":"node","tipo_lugar":"suburb"},"geometry":{"type":"Point","coordinates":[-42.8907922,-20.7597091]}},{"type":"Feature","properties":{"nome":"JK","osm_id":3911040306,"osm_tipo":"node","tipo_lugar":"suburb"},"geometry":{"type":"Point","coordinates":[-42.8891038,-20.7541313]}},{"type":"Feature","properties":{"nome":"São Sebastião","osm_id":3911040307,"osm_tipo":"node","tipo_lugar":"suburb"},"geometry":{"type":"Point","coordinates":[-42.887412,-20.7483099]}},{"type":"Feature","properties":{"nome":"União","osm_id":3911040308,"osm_tipo":"node","tipo_lugar":"suburb"},"geometry":{"type":"Point","coordinates":[-42.8835986,-20.7469412]}},{"type":"Feature","properties":{"nome":"Vale do Sol","osm_id":3911040309,"osm_tipo":"node","tipo_lugar":"suburb"},"geometry":{"type":"Point","coordinates":[-42.883623,-20.7443103]}},{"type":"Feature","properties":{"nome":"Clélia Bernardes","osm_id":5304509978,"osm_tipo":"node","tipo_lugar":"suburb"},"geometry":{"type":"Point","coordinates":[-42.8823482,-20.7616402]}},{"type":"Feature","properties":{"nome":"Engenho","osm_id":5752090032,"osm_tipo":"node","tipo_lugar":"neighbourhood"},"geometry":{"type":"Point","coordinates":[-42.8844881,-20.8194257]}},{"type":"Feature","properties":{"nome":"Posses","osm_id":5756133628,"osm_tipo":"node","tipo_lugar":"neighbourhood"},"geometry":{"type":"Point","coordinates":[-42.9056883,-20.778585]}},{"type":"Feature","properties":{"nome":"São João","osm_id":5756133648,"osm_tipo":"node","tipo_lugar":"neighbourhood"},"geometry":{"type":"Point","coordinates":[-42.9026413,-20.7138109]}},{"type":"Feature","properties":{"nome":"Cristais","osm_id":5756133656,"osm_tipo":"node","tipo_lugar":"neighbourhood"},"geometry":{"type":"Point","coordinates":[-42.840178,-20.7672094]}},{"type":"Feature","properties":{"nome":"Cascalho","osm_id":5756133658,"osm_tipo":"node","tipo_lugar":"neighbourhood"},"geometry":{"type":"Point","coordinates":[-42.8051162,-20.7380543]}},{"type":"Feature","properties":{"nome":"Buieié","osm_id":5756133659,"osm_tipo":"node","tipo_lugar":"neighbourhood"},"geometry":{"type":"Point","coordinates":[-42.8324425,-20.7123558]}},{"type":"Feature","properties":{"nome":"Barrinha","osm_id":5768224833,"osm_tipo":"node","tipo_lugar":"suburb"},"geometry":{"type":"Point","coordinates":[-42.893672,-20.7363084]}},{"type":"Feature","properties":{"nome":"Júlia Mollá","osm_id":6778278641,"osm_tipo":"node","tipo_lugar":"suburb"},"geometry":{"type":"Point","coordinates":[-42.8772123,-20.742264]}},{"type":"Feature","properties":{"nome":"Cidade Nova","osm_id":6778292206,"osm_tipo":"node","tipo_lugar":"suburb"},"geometry":{"type":"Point","coordinates":[-42.8880205,-20.7323548]}},{"type":"Feature","properties":{"nome":"Nova Era","osm_id":6778301483,"osm_tipo":"node","tipo_lugar":"suburb"},"geometry":{"type":"Point","coordinates":[-42.8807584,-20.7426124]}},{"type":"Feature","properties":{"nome":"São José","osm_id":6778317331,"osm_tipo":"node","tipo_lugar":"suburb"},"geometry":{"type":"Point","coordinates":[-42.883634,-20.7319923]}},{"type":"Feature","properties":{"nome":"João Braz da Costa Val","osm_id":6778321048,"osm_tipo":"node","tipo_lugar":"suburb"},"geometry":{"type":"Point","coordinates":[-42.8638217,-20.7355325]}},{"type":"Feature","properties":{"nome":"Violeira","osm_id":6778321049,"osm_tipo":"node","tipo_lugar":"suburb"},"geometry":{"type":"Point","coordinates":[-42.8590307,-20.7377533]}},{"type":"Feature","properties":{"nome":"Fuad Chequer","osm_id":6778343204,"osm_tipo":"node","tipo_lugar":"suburb"},"geometry":{"type":"Point","coordinates":[-42.8812094,-20.7470862]}},{"type":"Feature","properties":{"nome":"Santa Clara","osm_id":6778343205,"osm_tipo":"node","tipo_lugar":"suburb"},"geometry":{"type":"Point","coordinates":[-42.8918363,-20.7524338]}},{"type":"Feature","properties":{"nome":"Maria Eugênia","osm_id":6778343206,"osm_tipo":"node","tipo_lugar":"suburb"},"geometry":{"type":"Point","coordinates":[-42.8882958,-20.7525642]}},{"type":"Feature","properties":{"nome":"Campus Universitário","osm_id":12201798054,"osm_tipo":"node","tipo_lugar":"suburb"},"geometry":{"type":"Point","coordinates":[-42.8638707,-20.7633547]}},{"type":"Feature","properties":{"nome":"Vereda do Bosque","osm_id":12437440863,"osm_tipo":"node","tipo_lugar":"suburb"},"geometry":{"type":"Point","coordinates":[-42.8805892,-20.7518053]}},{"type":"Feature","properties":{"nome":"Sagrados Corações","osm_id":12437461093,"osm_tipo":"node","tipo_lugar":"suburb"},"geometry":{"type":"Point","coordinates":[-42.8804663,-20.7488081]}},{"type":"Feature","properties":{"nome":"Belvedere","osm_id":12437468495,"osm_tipo":"node","tipo_lugar":"suburb"},"geometry":{"type":"Point","coordinates":[-42.8734273,-20.7522189]}},{"type":"Feature","properties":{"nome":"Quintas Guimarães Ferreira","osm_id":12437498927,"osm_tipo":"node","tipo_lugar":"suburb"},"geometry":{"type":"Point","coordinates":[-42.8790722,-20.7790015]}},{"type":"Feature","properties":{"nome":"Vila Alves","osm_id":12437498928,"osm_tipo":"node","tipo_lugar":"suburb"},"geometry":{"type":"Point","coordinates":[-42.8783717,-20.7779099]}},{"type":"Feature","properties":{"nome":"Rua Nova","osm_id":12437498929,"osm_tipo":"node","tipo_lugar":"suburb"},"geometry":{"type":"Point","coordinates":[-42.8800587,-20.7771702]}},{"type":"Feature","properties":{"nome":"Romão dos Reis","osm_id":12437498930,"osm_tipo":"node","tipo_lugar":"suburb"},"geometry":{"type":"Point","coordinates":[-42.8847258,-20.7804103]}},{"type":"Feature","properties":{"nome":"Prefeito Moacir Andrade","osm_id":12437498931,"osm_tipo":"node","tipo_lugar":"suburb"},"geometry":{"type":"Point","coordinates":[-42.8774781,-20.7295171]}},{"type":"Feature","properties":{"nome":"Inácio Martins","osm_id":12437498932,"osm_tipo":"node","tipo_lugar":"suburb"},"geometry":{"type":"Point","coordinates":[-42.875591,-20.7355973]}},{"type":"Feature","properties":{"nome":"Residencial Silvestre","osm_id":12437498933,"osm_tipo":"node","tipo_lugar":"suburb"},"geometry":{"type":"Point","coordinates":[-42.8746183,-20.7248822]}},{"type":"Feature","properties":{"nome":"Cidade Jardim","osm_id":12437498935,"osm_tipo":"node","tipo_lugar":"suburb"},"geometry":{"type":"Point","coordinates":[-42.8519679,-20.7790604]}},{"type":"Feature","properties":{"nome":"Bom Sucesso","osm_id":12437498936,"osm_tipo":"node","tipo_lugar":"suburb"},"geometry":{"type":"Point","coordinates":[-42.8424784,-20.7826145]}},{"type":"Feature","properties":{"nome":"Morada do Sol II","osm_id":12438025432,"osm_tipo":"node","tipo_lugar":"suburb"},"geometry":{"type":"Point","coordinates":[-42.8916743,-20.7474662]}},{"type":"Feature","properties":{"nome":"Paula","osm_id":12438025433,"osm_tipo":"node","tipo_lugar":"suburb"},"geometry":{"type":"Point","coordinates":[-42.8483571,-20.7289637]}},{"type":"Feature","properties":{"nome":"Liberdade II","osm_id":12438032786,"osm_tipo":"node","tipo_lugar":"suburb"},"geometry":{"type":"Point","coordinates":[-42.8629705,-20.7258153]}},{"type":"Feature","properties":{"nome":"Bela Vista","osm_id":12579198599,"osm_tipo":"node","tipo_lugar":"suburb"},"geometry":{"type":"Point","coordinates":[-42.8767294,-20.7617039]}},{"type":"Feature","properties":{"nome":"Paraíso","osm_id":12579198841,"osm_tipo":"node","tipo_lugar":"neighbourhood"},"geometry":{"type":"Point","coordinates":[-42.8789038,-20.7909047]}},{"type":"Feature","properties":{"nome":"Condomínio Recanto da Serra","osm_id":1214938076,"osm_tipo":"way","tipo_lugar":"neighbourhood"},"geometry":{"type":"Polygon","coordinates":[[[-42.8608364,-20.733667],[-42.8599754,-20.7358694],[-42.8573602,-20.7325306],[-42.8580523,-20.7316577],[-42.8608364,-20.733667]]]}}]}