{"type":"FeatureCollection","features":[{"type":"Feature","properties":{"nome":"Guapiaçu","osm_id":2958605424,"osm_tipo":"node","tipo_lugar":"suburb"},"geometry":{"type":"Point","coordinates":[-42.75126,-22.4356209]}},{"type":"Feature","properties":{"nome":"Morro Frio","osm_id":2958611034,"osm_tipo":"node","tipo_lugar":"suburb"},"geometry":{"type":"Point","coordinates":[-42.7821496,-22.4579492]}},{"type":"Feature","properties":{"nome":"Boca do Mato","osm_id":2959281523,"osm_tipo":"node","tipo_lugar":"suburb"},"geometry":{"type":"Point","coordinates":[-42.6223393,-22.4196553]}},{"type":"Feature","properties":{"nome":"Piedade","osm_id":2959281532,"osm_tipo":"node","tipo_lugar":"suburb"},"geometry":{"type":"Point","coordinates":[-42.6312398,-22.4602254]}},{"type":"Feature","properties":{"nome":"Baixada Santa Fé","osm_id":3060896788,"osm_tipo":"node","tipo_lugar":"suburb"},"geometry":{"type":"Point","coordinates":[-42.5990354,-22.479015]}},{"type":"Feature","properties":{"nome":"Faraó de Cima","osm_id":3060956491,"osm_tipo":"node","tipo_lugar":"suburb"},"geometry":{"type":"Point","coordinates":[-42.6096692,-22.5018815]}},{"type":"Feature","properties":{"nome":"Agrobrasil","osm_id":3061040455,"osm_tipo":"node","tipo_lugar":"suburb"},"geometry":{"type":"Point","coordinates":[-42.748141,-22.6527491]}},{"type":"Feature","properties":{"nome":"Derribada","osm_id":3061040461,"osm_tipo":"node","tipo_lugar":"suburb"},"geometry":{"type":"Point","coordinates":[-42.72651,-22.6498951]}},{"type":"Feature","properties":{"nome":"Gleba Colégio","osm_id":3061040462,"osm_tipo":"node","tipo_lugar":"suburb"},"geometry":{"type":"Point","coordinates":[-42.7434315,-22.6152848]}},{"type":"Feature","properties":{"nome":"Granada","osm_id":3061040463,"osm_tipo":"node","tipo_lugar":"suburb"},"geometry":{"type":"Point","coordinates":[-42.7128445,-22.6230933]}},{"type":"Feature","properties":{"nome":"Patis","osm_id":3061040466,"osm_tipo":"node","tipo_lugar":"suburb"},"geometry":{"type":"Point","coordinates":[-42.6203616,-22.6165704]}},{"type":"Feature","properties":{"nome":"Soarinho","osm_id":3061040473,"osm_tipo":"node","tipo_lugar":"suburb"},"geometry":{"type":"Point","coordinates":[-42.6900977,-22.6340434]}},{"type":"Feature","properties":{"nome":"Faraó de Baixo","osm_id":3068107382,"osm_tipo":"node","tipo_lugar":"suburb"},"geometry":{"type":"Point","coordinates":[-42.6023296,-22.5242379]}},{"type":"Feature","properties":{"nome":"Areia Branca","osm_id":3068183979,"osm_tipo":"node","tipo_lugar":"suburb"},"geometry":{"type":"Point","coordinates":[-42.7200442,-22.5435372]}},{"type":"Feature","properties":{"nome":"Bengala","osm_id":3068183980,"osm_tipo":"node","tipo_lugar":"suburb"},"geometry":{"type":"Point","coordinates":[-42.6635608,-22.5514261]}},{"type":"Feature","properties":{"nome":"Bom Jardim","osm_id":3068183981,"osm_tipo":"node","tipo_lugar":"suburb"},"geometry":{"type":"Point","coordinates":[-42.6272741,-22.5144281]}},{"type":"Feature","properties":{"nome":"Braço do Reis","osm_id":3068183982,"osm_tipo":"node","tipo_lugar":"suburb"},"geometry":{"type":"Point","coordinates":[-42.6015686,-22.5754277]}},{"type":"Feature","properties":{"nome":"Duas Barras","osm_id":3068183983,"osm_tipo":"node","tipo_lugar":"suburb"},"geometry":{"type":"Point","coordinates":[-42.7476348,-22.4787056]}},{"type":"Feature","properties":{"nome":"Funchal","osm_id":3068183984,"osm_tipo":"node","tipo_lugar":"suburb"},"geometry":{"type":"Point","coordinates":[-42.7251221,-22.5249338]}},{"type":"Feature","properties":{"nome":"Gleba Nova Ribeira","osm_id":3068183985,"osm_tipo":"node","tipo_lugar":"suburb"},"geometry":{"type":"Point","coordinates":[-42.7907966,-22.5908647]}},{"type":"Feature","properties":{"nome":"Gleba Ribeira","osm_id":3068183986,"osm_tipo":"node","tipo_lugar":"suburb"},"geometry":{"type":"Point","coordinates":[-42.7606833,-22.5889156]}},{"type":"Feature","properties":{"nome":"Maraporã","osm_id":3068183987,"osm_tipo":"node","tipo_lugar":"suburb"},"geometry":{"type":"Point","coordinates":[-42.7956331,-22.5673428]}},{"type":"Feature","properties":{"nome":"Papucainha","osm_id":3068183988,"osm_tipo":"node","tipo_lugar":"suburb"},"geometry":{"type":"Point","coordinates":[-42.656624,-22.593264]}},{"type":"Feature","properties":{"nome":"Pavuna","osm_id":3068183989,"osm_tipo":"node","tipo_lugar":"suburb"},"geometry":{"type":"Point","coordinates":[-42.7056161,-22.5451152]}},{"type":"Feature","properties":{"nome":"Pedra Branca","osm_id":3068183990,"osm_tipo":"node","tipo_lugar":"suburb"},"geometry":{"type":"Point","coordinates":[-42.7458439,-22.6368893]}},{"type":"Feature","properties":{"nome":"Porto Taboado","osm_id":3068183991,"osm_tipo":"node","tipo_lugar":"suburb"},"geometry":{"type":"Point","coordinates":[-42.6781369,-22.5328544]}},{"type":"Feature","properties":{"nome":"Quadro","osm_id":3068183992,"osm_tipo":"node","tipo_lugar":"suburb"},"geometry":{"type":"Point","coordinates":[-42.6620787,-22.516708]}},{"type":"Feature","properties":{"nome":"Rabêlo","osm_id":3068183993,"osm_tipo":"node","tipo_lugar":"suburb"},"geometry":{"type":"Point","coordinates":[-42.746116,-22.5486803]}},{"type":"Feature","properties":{"nome":"Raiz da Serra","osm_id":3068183994,"osm_tipo":"node","tipo_lugar":"suburb"},"geometry":{"type":"Point","coordinates":[-42.6630279,-22.5624138]}},{"type":"Feature","properties":{"nome":"Santana de Japuiba","osm_id":3068183995,"osm_tipo":"node","tipo_lugar":"suburb"},"geometry":{"type":"Point","coordinates":[-42.6834677,-22.5566284]}},{"type":"Feature","properties":{"nome":"Serra Soarinho","osm_id":3068183996,"osm_tipo":"node","tipo_lugar":"suburb"},"geometry":{"type":"Point","coordinates":[-42.6782247,-22.5957771]}},{"type":"Feature","properties":{"nome":"Setenta","osm_id":3068183997,"osm_tipo":"node","tipo_lugar":"suburb"},"geometry":{"type":"Point","coordinates":[-42.6979145,-22.5176141]}},{"type":"Feature","properties":{"nome":"Estreito","osm_id":4017106859,"osm_tipo":"node","tipo_lugar":"suburb"},"geometry":{"type":"Point","coordinates":[-42.7951337,-22.436192]}},{"type":"Feature","properties":{"nome":"Areal","osm_id":4035185638,"osm_tipo":"node","tipo_lugar":"suburb"},"geometry":{"type":"Point","coordinates":[-42.801486,-22.4677542]}},{"type":"Feature","properties":{"nome":"Valério","osm_id":13233724176,"osm_tipo":"node","tipo_lugar":"suburb"},"geometry":{"type":"Point","coordinates":[-42.6353749,-22.4411015]}},{"type":"Feature","properties":{"nome":"Valério","osm_id":1442689568,"osm_tipo":"way","tipo_lugar":"suburb"},"geometry":{"type":"Polygon","coordinates":[[[-42.6535953,-22.4522536],[-42.650856,-22.4525953],[-42.6504653,-22.4558799],[-42.6451291,-22.4606546],[-42.6383203,-22.459742],[-42.6350122,-22.4623004],[-42.6258179,-22.4597947],[-42.6095356,-22.4693043],[-42.5888553,-22.4670926],[-42.582404,-22.4695806],[-42.5666892,-22.4591053],[-42.5714948,-22.4491329],[-42.5818194,-22.4461231],[-42.6160136,-22.4276135],[-42.6221128,-22.4275071],[-42.62728,-22.4304954],[-42.6330196,-22.4291174],[-42.6332434,-22.4240128],[-42.6350089,-22.4215916],[-42.6333947,-22.4163059],[-42.6421292,-22.4142809],[-42.6443709,-22.4123607],[-42.648672,-22.4001595],[-42.6485162,-22.395625],[-42.6587688,-22.3842658],[-42.6779328,-22.3879678],[-42.6912349,-22.3872134],[-42.7034817,-22.3926948],[-42.7026007,-22.4093897],[-42.6956707,-22.4258383],[-42.6825821,-22.4345519],[-42.6678982,-22.4396303],[-42.6680588,-22.4429188],[-42.666193,-22.4435614],[-42.6636143,-22.4494102],[-42.6535953,-22.4522536]]]}}]}