{"type":"FeatureCollection","features":[{"type":"Feature","properties":{"nome":"Morro do Serafim - Boa Vista","osm_id":2873541054,"osm_tipo":"node","tipo_lugar":"suburb"},"geometry":{"type":"Point","coordinates":[-44.1586734,-23.0294416]}},{"type":"Feature","properties":{"nome":"Vila Pau Rolou","osm_id":2873541058,"osm_tipo":"node","tipo_lugar":"suburb"},"geometry":{"type":"Point","coordinates":[-44.1612196,-23.0220933]}},{"type":"Feature","properties":{"nome":"Vila Benedita - Rua Aritana","osm_id":6995600749,"osm_tipo":"node","tipo_lugar":"suburb"},"geometry":{"type":"Point","coordinates":[-43.8988352,-22.9157884]}},{"type":"Feature","properties":{"nome":"Cachoeira II","osm_id":9603296993,"osm_tipo":"node","tipo_lugar":"neighbourhood"},"geometry":{"type":"Point","coordinates":[-43.9484326,-22.9167888]}},{"type":"Feature","properties":{"nome":"Cachoeira I","osm_id":9603296994,"osm_tipo":"node","tipo_lugar":"neighbourhood"},"geometry":{"type":"Point","coordinates":[-43.9524233,-22.9167707]}}]}