{"type":"FeatureCollection","features":[{"type":"Feature","properties":{"nome":"Laranjeiras","osm_id":2616788226,"osm_tipo":"node","tipo_lugar":"suburb"},"geometry":{"type":"Point","coordinates":[-44.6677033,-23.3374279]}},{"type":"Feature","properties":{"nome":"Prainha de Mambucaba","osm_id":4391842659,"osm_tipo":"node","tipo_lugar":"suburb"},"geometry":{"type":"Point","coordinates":[-44.5724053,-23.0434471]}},{"type":"Feature","properties":{"nome":"São Gonçalo","osm_id":4393880914,"osm_tipo":"node","tipo_lugar":"suburb"},"geometry":{"type":"Point","coordinates":[-44.6175976,-23.0326222]}},{"type":"Feature","properties":{"nome":"Taquari","osm_id":4394029950,"osm_tipo":"node","tipo_lugar":"suburb"},"geometry":{"type":"Point","coordinates":[-44.6747582,-23.0489138]}},{"type":"Feature","properties":{"nome":"Vila Dom Pedro I","osm_id":6562877842,"osm_tipo":"node","tipo_lugar":"suburb"},"geometry":{"type":"Point","coordinates":[-44.7257267,-23.2268546]}},{"type":"Feature","properties":{"nome":"Vila Operária","osm_id":9946361687,"osm_tipo":"node","tipo_lugar":"neighbourhood"},"geometry":{"type":"Point","coordinates":[-44.5487012,-23.0305463]}},{"type":"Feature","properties":{"nome":"Vila Residencial","osm_id":9946361688,"osm_tipo":"node","tipo_lugar":"neighbourhood"},"geometry":{"type":"Point","coordinates":[-44.5410945,-23.0298551]}},{"type":"Feature","properties":{"nome":"Jabaquara","osm_id":12546214939,"osm_tipo":"node","tipo_lugar":"suburb"},"geometry":{"type":"Point","coordinates":[-44.720877,-23.2064056]}},{"type":"Feature","properties":{"nome":"Centro Histórico","osm_id":12546214940,"osm_tipo":"node","tipo_lugar":"suburb"},"geometry":{"type":"Point","coordinates":[-44.7133518,-23.219069]}},{"type":"Feature","properties":{"nome":"Centro","osm_id":12546214941,"osm_tipo":"node","tipo_lugar":"suburb"},"geometry":{"type":"Point","coordinates":[-44.7166322,-23.2196547]}},{"type":"Feature","properties":{"nome":"Pontal","osm_id":12547100019,"osm_tipo":"node","tipo_lugar":"suburb"},"geometry":{"type":"Point","coordinates":[-44.7130136,-23.2153767]}},{"type":"Feature","properties":{"nome":"Portal das Artes","osm_id":12547112901,"osm_tipo":"node","tipo_lugar":"suburb"},"geometry":{"type":"Point","coordinates":[-44.7319624,-23.2162028]}},{"type":"Feature","properties":{"nome":"Caborê","osm_id":12547112902,"osm_tipo":"node","tipo_lugar":"suburb"},"geometry":{"type":"Point","coordinates":[-44.7235478,-23.2173505]}},{"type":"Feature","properties":{"nome":"Pantanal","osm_id":12547220568,"osm_tipo":"node","tipo_lugar":"suburb"},"geometry":{"type":"Point","coordinates":[-44.7543579,-23.2303026]}},{"type":"Feature","properties":{"nome":"Portal de Paraty","osm_id":12547474021,"osm_tipo":"node","tipo_lugar":"suburb"},"geometry":{"type":"Point","coordinates":[-44.7320043,-23.2212483]}},{"type":"Feature","properties":{"nome":"Parque Ypê","osm_id":12547474022,"osm_tipo":"node","tipo_lugar":"suburb"},"geometry":{"type":"Point","coordinates":[-44.7287289,-23.2210781]}},{"type":"Feature","properties":{"nome":"Portão de Ferro","osm_id":12549671319,"osm_tipo":"node","tipo_lugar":"suburb"},"geometry":{"type":"Point","coordinates":[-44.7230944,-23.22217]}}]}