{"type":"FeatureCollection","features":[{"type":"Feature","properties":{"nome":"Vila São José","osm_id":7216777114,"osm_tipo":"node","tipo_lugar":"neighbourhood"},"geometry":{"type":"Point","coordinates":[-43.7097287,-22.6231717]}},{"type":"Feature","properties":{"nome":"Bairro Lages","osm_id":7216777115,"osm_tipo":"node","tipo_lugar":"neighbourhood"},"geometry":{"type":"Point","coordinates":[-43.7023902,-22.6272716]}},{"type":"Feature","properties":{"nome":"Bairro Mutirão","osm_id":7216777116,"osm_tipo":"node","tipo_lugar":"neighbourhood"},"geometry":{"type":"Point","coordinates":[-43.6974013,-22.622835]}},{"type":"Feature","properties":{"nome":"Vila Copê","osm_id":7216777117,"osm_tipo":"node","tipo_lugar":"neighbourhood"},"geometry":{"type":"Point","coordinates":[-43.7057269,-22.6208543]}},{"type":"Feature","properties":{"nome":"Vila Novo Guarajuba","osm_id":7216777431,"osm_tipo":"node","tipo_lugar":"neighbourhood"},"geometry":{"type":"Point","coordinates":[-43.7182152,-22.6367584]}},{"type":"Feature","properties":{"nome":"Vila Lanari Parte Alta","osm_id":7216777475,"osm_tipo":"node","tipo_lugar":"neighbourhood"},"geometry":{"type":"Point","coordinates":[-43.7120569,-22.6258555]}}]}