{"type":"FeatureCollection","features":[{"type":"Feature","properties":{"nome":"Pereira","osm_id":2601989430,"osm_tipo":"node","tipo_lugar":"suburb"},"geometry":{"type":"Point","coordinates":[-42.1755131,-21.53658]}},{"type":"Feature","properties":{"nome":"Aeroporto","osm_id":2661555812,"osm_tipo":"node","tipo_lugar":"suburb"},"geometry":{"type":"Point","coordinates":[-42.1948014,-21.5312369]}},{"type":"Feature","properties":{"nome":"Alexis","osm_id":2661555816,"osm_tipo":"node","tipo_lugar":"suburb"},"geometry":{"type":"Point","coordinates":[-42.1712396,-21.5490414]}},{"type":"Feature","properties":{"nome":"Cehab","osm_id":2661555842,"osm_tipo":"node","tipo_lugar":"suburb"},"geometry":{"type":"Point","coordinates":[-42.1980357,-21.5307582]}},{"type":"Feature","properties":{"nome":"Cidade Nova","osm_id":2661555848,"osm_tipo":"node","tipo_lugar":"suburb"},"geometry":{"type":"Point","coordinates":[-42.2068198,-21.5275987]}},{"type":"Feature","properties":{"nome":"Dezessete","osm_id":2661555860,"osm_tipo":"node","tipo_lugar":"suburb"},"geometry":{"type":"Point","coordinates":[-42.2008689,-21.5292685]}},{"type":"Feature","properties":{"nome":"Divineia","osm_id":2661555867,"osm_tipo":"node","tipo_lugar":"suburb"},"geometry":{"type":"Point","coordinates":[-42.1610008,-21.5368553]}},{"type":"Feature","properties":{"nome":"Gabry","osm_id":2661555901,"osm_tipo":"node","tipo_lugar":"suburb"},"geometry":{"type":"Point","coordinates":[-42.1902873,-21.5475712]}},{"type":"Feature","properties":{"nome":"Gerador","osm_id":2661555907,"osm_tipo":"node","tipo_lugar":"suburb"},"geometry":{"type":"Point","coordinates":[-42.1884663,-21.5304762]}},{"type":"Feature","properties":{"nome":"Parque das Águas","osm_id":2661555946,"osm_tipo":"node","tipo_lugar":"suburb"},"geometry":{"type":"Point","coordinates":[-42.1865436,-21.544562]}},{"type":"Feature","properties":{"nome":"São Félix","osm_id":2661555955,"osm_tipo":"node","tipo_lugar":"suburb"},"geometry":{"type":"Point","coordinates":[-42.1816858,-21.5436294]}},{"type":"Feature","properties":{"nome":"São José","osm_id":2661555956,"osm_tipo":"node","tipo_lugar":"suburb"},"geometry":{"type":"Point","coordinates":[-42.1899213,-21.5381574]}},{"type":"Feature","properties":{"nome":"Tavares","osm_id":2661555957,"osm_tipo":"node","tipo_lugar":"suburb"},"geometry":{"type":"Point","coordinates":[-42.1759833,-21.5457489]}}]}