{"type":"FeatureCollection","features":[{"type":"Feature","properties":{"nome":"Parque Tietê","osm_id":1770618861,"osm_tipo":"node","tipo_lugar":"suburb"},"geometry":{"type":"Point","coordinates":[-43.3332751,-22.7989528]}},{"type":"Feature","properties":{"nome":"Parque Araruama","osm_id":1770618872,"osm_tipo":"node","tipo_lugar":"suburb"},"geometry":{"type":"Point","coordinates":[-43.3340132,-22.7902012]}},{"type":"Feature","properties":{"nome":"Centro","osm_id":3190857948,"osm_tipo":"node","tipo_lugar":"suburb"},"geometry":{"type":"Point","coordinates":[-43.3686147,-22.802082]}},{"type":"Feature","properties":{"nome":"Jardim José Bonifácio","osm_id":3190857949,"osm_tipo":"node","tipo_lugar":"suburb"},"geometry":{"type":"Point","coordinates":[-43.3603331,-22.7910993]}},{"type":"Feature","properties":{"nome":"Vila Norma","osm_id":3190904321,"osm_tipo":"node","tipo_lugar":"suburb"},"geometry":{"type":"Point","coordinates":[-43.4046925,-22.7926846]}},{"type":"Feature","properties":{"nome":"Grande Rio","osm_id":3190934784,"osm_tipo":"node","tipo_lugar":"suburb"},"geometry":{"type":"Point","coordinates":[-43.3973327,-22.7826548]}},{"type":"Feature","properties":{"nome":"Éden","osm_id":3190934785,"osm_tipo":"node","tipo_lugar":"suburb"},"geometry":{"type":"Point","coordinates":[-43.3973329,-22.7956923]}},{"type":"Feature","properties":{"nome":"Coelho da Rocha","osm_id":3190934786,"osm_tipo":"node","tipo_lugar":"suburb"},"geometry":{"type":"Point","coordinates":[-43.3851393,-22.775509]}},{"type":"Feature","properties":{"nome":"Jardim Meriti","osm_id":3190934787,"osm_tipo":"node","tipo_lugar":"suburb"},"geometry":{"type":"Point","coordinates":[-43.3748096,-22.7827243]}},{"type":"Feature","properties":{"nome":"Agostinho Porto","osm_id":3190934788,"osm_tipo":"node","tipo_lugar":"suburb"},"geometry":{"type":"Point","coordinates":[-43.3843798,-22.790319]}},{"type":"Feature","properties":{"nome":"Vila Rosali","osm_id":3190934789,"osm_tipo":"node","tipo_lugar":"suburb"},"geometry":{"type":"Point","coordinates":[-43.3776077,-22.7959727]}},{"type":"Feature","properties":{"nome":"São Mateus","osm_id":3190934790,"osm_tipo":"node","tipo_lugar":"suburb"},"geometry":{"type":"Point","coordinates":[-43.3929623,-22.8003228]}},{"type":"Feature","properties":{"nome":"Tomazinho","osm_id":3190934791,"osm_tipo":"node","tipo_lugar":"suburb"},"geometry":{"type":"Point","coordinates":[-43.3884005,-22.810622]}},{"type":"Feature","properties":{"nome":"Engenheiro Belford","osm_id":3190934792,"osm_tipo":"node","tipo_lugar":"suburb"},"geometry":{"type":"Point","coordinates":[-43.3787772,-22.8078397]}},{"type":"Feature","properties":{"nome":"Jardim Paraíso","osm_id":3190944245,"osm_tipo":"node","tipo_lugar":"suburb"},"geometry":{"type":"Point","coordinates":[-43.3491189,-22.7625234]}},{"type":"Feature","properties":{"nome":"Jardim Íris","osm_id":3190944246,"osm_tipo":"node","tipo_lugar":"suburb"},"geometry":{"type":"Point","coordinates":[-43.346765,-22.7752882]}},{"type":"Feature","properties":{"nome":"Vilar dos Teles","osm_id":3190944247,"osm_tipo":"node","tipo_lugar":"suburb"},"geometry":{"type":"Point","coordinates":[-43.359573,-22.7732267]}},{"type":"Feature","properties":{"nome":"Vila São João","osm_id":3190944248,"osm_tipo":"node","tipo_lugar":"suburb"},"geometry":{"type":"Point","coordinates":[-43.3669072,-22.7792531]}},{"type":"Feature","properties":{"nome":"Parque Novo Rio","osm_id":3190965760,"osm_tipo":"node","tipo_lugar":"suburb"},"geometry":{"type":"Point","coordinates":[-43.3390172,-22.7954851]}},{"type":"Feature","properties":{"nome":"Jardim Metropole","osm_id":3327775828,"osm_tipo":"node","tipo_lugar":"suburb"},"geometry":{"type":"Point","coordinates":[-43.3344524,-22.7622097]}},{"type":"Feature","properties":{"nome":"Parque Olavo Bilac","osm_id":3327787173,"osm_tipo":"node","tipo_lugar":"suburb"},"geometry":{"type":"Point","coordinates":[-43.3328812,-22.7826451]}},{"type":"Feature","properties":{"nome":"Jardim Sumaré","osm_id":3328587461,"osm_tipo":"node","tipo_lugar":"suburb"},"geometry":{"type":"Point","coordinates":[-43.3393104,-22.7762884]}},{"type":"Feature","properties":{"nome":"Jardim Alegria","osm_id":7775887646,"osm_tipo":"node","tipo_lugar":"suburb"},"geometry":{"type":"Point","coordinates":[-43.3448038,-22.764512]}},{"type":"Feature","properties":{"nome":"Vila São João","osm_id":7775909028,"osm_tipo":"node","tipo_lugar":"suburb"},"geometry":{"type":"Point","coordinates":[-43.3562712,-22.7673839]}}]}