{"type":"FeatureCollection","features":[{"type":"Feature","properties":{"nome":"Vila Americana","osm_id":854485955,"osm_tipo":"node","tipo_lugar":"suburb"},"geometry":{"type":"Point","coordinates":[-44.07463,-22.4992349]}},{"type":"Feature","properties":{"nome":"Aero Clube","osm_id":2786884123,"osm_tipo":"node","tipo_lugar":"suburb"},"geometry":{"type":"Point","coordinates":[-44.0828062,-22.5026329]}},{"type":"Feature","properties":{"nome":"Santa Rita do Zarur","osm_id":3070290124,"osm_tipo":"node","tipo_lugar":"suburb"},"geometry":{"type":"Point","coordinates":[-44.111639,-22.4674187]}},{"type":"Feature","properties":{"nome":"Água Limpa","osm_id":3761736712,"osm_tipo":"node","tipo_lugar":"suburb"},"geometry":{"type":"Point","coordinates":[-44.0663372,-22.5088317]}},{"type":"Feature","properties":{"nome":"Nova São Luis","osm_id":3826642103,"osm_tipo":"node","tipo_lugar":"neighbourhood"},"geometry":{"type":"Point","coordinates":[-44.0633084,-22.471235]}},{"type":"Feature","properties":{"nome":"Candelária","osm_id":3826642104,"osm_tipo":"node","tipo_lugar":"suburb"},"geometry":{"type":"Point","coordinates":[-44.0766765,-22.470541]}},{"type":"Feature","properties":{"nome":"São Sebastião","osm_id":3826642105,"osm_tipo":"node","tipo_lugar":"neighbourhood"},"geometry":{"type":"Point","coordinates":[-44.0628363,-22.4641958]}},{"type":"Feature","properties":{"nome":"Parque do Contorno","osm_id":3826781132,"osm_tipo":"node","tipo_lugar":"neighbourhood"},"geometry":{"type":"Point","coordinates":[-44.0566713,-22.4875122]}},{"type":"Feature","properties":{"nome":"São João","osm_id":4043169875,"osm_tipo":"node","tipo_lugar":"suburb"},"geometry":{"type":"Point","coordinates":[-44.091339,-22.5164434]}},{"type":"Feature","properties":{"nome":"Mirante da Colina","osm_id":4089240177,"osm_tipo":"node","tipo_lugar":"neighbourhood"},"geometry":{"type":"Point","coordinates":[-44.0702633,-22.5197107]}},{"type":"Feature","properties":{"nome":"Morada da Colina","osm_id":4089240178,"osm_tipo":"node","tipo_lugar":"neighbourhood"},"geometry":{"type":"Point","coordinates":[-44.0731081,-22.512253]}},{"type":"Feature","properties":{"nome":"Vale da Colina","osm_id":4089240181,"osm_tipo":"node","tipo_lugar":"neighbourhood"},"geometry":{"type":"Point","coordinates":[-44.07473,-22.5151375]}},{"type":"Feature","properties":{"nome":"Jardim Amália","osm_id":4089240182,"osm_tipo":"node","tipo_lugar":"suburb"},"geometry":{"type":"Point","coordinates":[-44.0796095,-22.5103794]}},{"type":"Feature","properties":{"nome":"Jardim Amália II","osm_id":4089240183,"osm_tipo":"node","tipo_lugar":"neighbourhood"},"geometry":{"type":"Point","coordinates":[-44.0759214,-22.5076472]}},{"type":"Feature","properties":{"nome":"Jardim Normândia","osm_id":4089240184,"osm_tipo":"node","tipo_lugar":"neighbourhood"},"geometry":{"type":"Point","coordinates":[-44.0843224,-22.5123661]}},{"type":"Feature","properties":{"nome":"Colina","osm_id":4089241892,"osm_tipo":"node","tipo_lugar":"neighbourhood"},"geometry":{"type":"Point","coordinates":[-44.0869585,-22.5153636]}},{"type":"Feature","properties":{"nome":"Vilage Santa Helena","osm_id":4089284355,"osm_tipo":"node","tipo_lugar":"neighbourhood"},"geometry":{"type":"Point","coordinates":[-44.0821984,-22.5162511]}},{"type":"Feature","properties":{"nome":"Niterói","osm_id":4089284359,"osm_tipo":"node","tipo_lugar":"suburb"},"geometry":{"type":"Point","coordinates":[-44.0900354,-22.4992145]}},{"type":"Feature","properties":{"nome":"São João Batista","osm_id":4089297206,"osm_tipo":"node","tipo_lugar":"suburb"},"geometry":{"type":"Point","coordinates":[-44.0963666,-22.4871703]}},{"type":"Feature","properties":{"nome":"Voldac","osm_id":4089297207,"osm_tipo":"node","tipo_lugar":"suburb"},"geometry":{"type":"Point","coordinates":[-44.0931997,-22.4914219]}},{"type":"Feature","properties":{"nome":"Barreira Cravo","osm_id":4089297212,"osm_tipo":"node","tipo_lugar":"suburb"},"geometry":{"type":"Point","coordinates":[-44.0852986,-22.4945808]}},{"type":"Feature","properties":{"nome":"Aterrado","osm_id":4089297213,"osm_tipo":"node","tipo_lugar":"suburb"},"geometry":{"type":"Point","coordinates":[-44.0899189,-22.5063554]}},{"type":"Feature","properties":{"nome":"Jardim Paraíba","osm_id":4089297214,"osm_tipo":"node","tipo_lugar":"suburb"},"geometry":{"type":"Point","coordinates":[-44.0966612,-22.5096968]}},{"type":"Feature","properties":{"nome":"Limoeiro","osm_id":4089297215,"osm_tipo":"node","tipo_lugar":"suburb"},"geometry":{"type":"Point","coordinates":[-44.0991322,-22.49609]}},{"type":"Feature","properties":{"nome":"Vila Mury","osm_id":4089297216,"osm_tipo":"node","tipo_lugar":"suburb"},"geometry":{"type":"Point","coordinates":[-44.1041534,-22.5004283]}},{"type":"Feature","properties":{"nome":"São Lucas","osm_id":4332353921,"osm_tipo":"node","tipo_lugar":"suburb"},"geometry":{"type":"Point","coordinates":[-44.1153713,-22.5282145]}},{"type":"Feature","properties":{"nome":"Laranjal","osm_id":4368847908,"osm_tipo":"node","tipo_lugar":"suburb"},"geometry":{"type":"Point","coordinates":[-44.0986488,-22.5179691]}},{"type":"Feature","properties":{"nome":"Roma I","osm_id":7512912856,"osm_tipo":"node","tipo_lugar":"neighbourhood"},"geometry":{"type":"Point","coordinates":[-44.0774136,-22.5942638]}},{"type":"Feature","properties":{"nome":"Santo Agostinho","osm_id":9335563443,"osm_tipo":"node","tipo_lugar":"suburb"},"geometry":{"type":"Point","coordinates":[-44.0759956,-22.4884631]}},{"type":"Feature","properties":{"nome":"Sessenta","osm_id":9355772939,"osm_tipo":"node","tipo_lugar":"suburb"},"geometry":{"type":"Point","coordinates":[-44.0947689,-22.5255467]}},{"type":"Feature","properties":{"nome":"Vila Santa Cecília","osm_id":9355772940,"osm_tipo":"node","tipo_lugar":"suburb"},"geometry":{"type":"Point","coordinates":[-44.1047698,-22.5233787]}},{"type":"Feature","properties":{"nome":"Rustico","osm_id":9355772941,"osm_tipo":"node","tipo_lugar":"suburb"},"geometry":{"type":"Point","coordinates":[-44.1125931,-22.5217981]}},{"type":"Feature","properties":{"nome":"Conforto","osm_id":9355772942,"osm_tipo":"node","tipo_lugar":"suburb"},"geometry":{"type":"Point","coordinates":[-44.1214325,-22.5234434]}},{"type":"Feature","properties":{"nome":"Eucaliptal","osm_id":9355772943,"osm_tipo":"node","tipo_lugar":"suburb"},"geometry":{"type":"Point","coordinates":[-44.121017,-22.5255965]}},{"type":"Feature","properties":{"nome":"Volta Grande 3","osm_id":9389622011,"osm_tipo":"node","tipo_lugar":"neighbourhood"},"geometry":{"type":"Point","coordinates":[-44.0782392,-22.484573]}},{"type":"Feature","properties":{"nome":"Centro","osm_id":9416704704,"osm_tipo":"node","tipo_lugar":"suburb"},"geometry":{"type":"Point","coordinates":[-44.0905846,-22.512419]}},{"type":"Feature","properties":{"nome":"Nossa Senhora das Graças","osm_id":9416704705,"osm_tipo":"node","tipo_lugar":"suburb"},"geometry":{"type":"Point","coordinates":[-44.0940163,-22.504087]}},{"type":"Feature","properties":{"nome":"Bom Jesus","osm_id":9416704706,"osm_tipo":"node","tipo_lugar":"neighbourhood"},"geometry":{"type":"Point","coordinates":[-44.10649,-22.4950354]}},{"type":"Feature","properties":{"nome":"Eldorado","osm_id":9416704707,"osm_tipo":"node","tipo_lugar":"neighbourhood"},"geometry":{"type":"Point","coordinates":[-44.1040416,-22.4926871]}},{"type":"Feature","properties":{"nome":"Coqueiros","osm_id":9416704708,"osm_tipo":"node","tipo_lugar":"neighbourhood"},"geometry":{"type":"Point","coordinates":[-44.108876,-22.492827]}},{"type":"Feature","properties":{"nome":"Mariana Torres","osm_id":9416704709,"osm_tipo":"node","tipo_lugar":"suburb"},"geometry":{"type":"Point","coordinates":[-44.1079969,-22.4893126]}},{"type":"Feature","properties":{"nome":"Fazendinha","osm_id":9416704710,"osm_tipo":"node","tipo_lugar":"neighbourhood"},"geometry":{"type":"Point","coordinates":[-44.1041533,-22.4878462]}},{"type":"Feature","properties":{"nome":"Vila Brasília","osm_id":9416704711,"osm_tipo":"node","tipo_lugar":"suburb"},"geometry":{"type":"Point","coordinates":[-44.111068,-22.4872006]}},{"type":"Feature","properties":{"nome":"Mariana Torres","osm_id":9416704712,"osm_tipo":"node","tipo_lugar":"neighbourhood"},"geometry":{"type":"Point","coordinates":[-44.114773,-22.4876696]}},{"type":"Feature","properties":{"nome":"Verde Vale","osm_id":9416704713,"osm_tipo":"node","tipo_lugar":"neighbourhood"},"geometry":{"type":"Point","coordinates":[-44.1141942,-22.4921519]}},{"type":"Feature","properties":{"nome":"Parque das Ilhas","osm_id":9416746637,"osm_tipo":"node","tipo_lugar":"neighbourhood"},"geometry":{"type":"Point","coordinates":[-44.0846643,-22.490404]}},{"type":"Feature","properties":{"nome":"Volta Grande","osm_id":9416746638,"osm_tipo":"node","tipo_lugar":"suburb"},"geometry":{"type":"Point","coordinates":[-44.0771998,-22.4861663]}},{"type":"Feature","properties":{"nome":"Volta Grande III","osm_id":9416746639,"osm_tipo":"node","tipo_lugar":"neighbourhood"},"geometry":{"type":"Point","coordinates":[-44.0779045,-22.4838551]}},{"type":"Feature","properties":{"nome":"Volta Grande IV","osm_id":9416746640,"osm_tipo":"node","tipo_lugar":"neighbourhood"},"geometry":{"type":"Point","coordinates":[-44.0734409,-22.4835062]}},{"type":"Feature","properties":{"nome":"Volta Grande II","osm_id":9416746641,"osm_tipo":"node","tipo_lugar":"neighbourhood"},"geometry":{"type":"Point","coordinates":[-44.070834,-22.4873947]}},{"type":"Feature","properties":{"nome":"Jardim Veneza","osm_id":9416755533,"osm_tipo":"node","tipo_lugar":"neighbourhood"},"geometry":{"type":"Point","coordinates":[-44.0815557,-22.4958122]}},{"type":"Feature","properties":{"nome":"Nova Esperança","osm_id":9416782546,"osm_tipo":"node","tipo_lugar":"suburb"},"geometry":{"type":"Point","coordinates":[-44.1207824,-22.4872958]}},{"type":"Feature","properties":{"nome":"Retiro","osm_id":9416782547,"osm_tipo":"node","tipo_lugar":"suburb"},"geometry":{"type":"Point","coordinates":[-44.1262997,-22.5001758]}},{"type":"Feature","properties":{"nome":"Rio das Flores","osm_id":9504640149,"osm_tipo":"node","tipo_lugar":"suburb"},"geometry":{"type":"Point","coordinates":[-44.0740908,-22.5862869]}},{"type":"Feature","properties":{"nome":"Siderlândia","osm_id":9562810553,"osm_tipo":"node","tipo_lugar":"suburb"},"geometry":{"type":"Point","coordinates":[-44.1376926,-22.5190521]}},{"type":"Feature","properties":{"nome":"Santa Cruz","osm_id":9562810555,"osm_tipo":"node","tipo_lugar":"suburb"},"geometry":{"type":"Point","coordinates":[-44.0951244,-22.4640979]}},{"type":"Feature","properties":{"nome":"Santa Cruz II","osm_id":9562810556,"osm_tipo":"node","tipo_lugar":"suburb"},"geometry":{"type":"Point","coordinates":[-44.1008538,-22.4642019]}},{"type":"Feature","properties":{"nome":"Jardim Provence","osm_id":9888053143,"osm_tipo":"node","tipo_lugar":"neighbourhood"},"geometry":{"type":"Point","coordinates":[-44.0790798,-22.5141494]}},{"type":"Feature","properties":{"nome":"Vivendas do Lago","osm_id":9888145866,"osm_tipo":"node","tipo_lugar":"neighbourhood"},"geometry":{"type":"Point","coordinates":[-44.0776541,-22.5303396]}},{"type":"Feature","properties":{"nome":"Loteamento Bougainville","osm_id":9888145867,"osm_tipo":"node","tipo_lugar":"neighbourhood"},"geometry":{"type":"Point","coordinates":[-44.0796174,-22.5274955]}},{"type":"Feature","properties":{"nome":"Tangerinal","osm_id":9898311439,"osm_tipo":"node","tipo_lugar":"neighbourhood"},"geometry":{"type":"Point","coordinates":[-44.108946,-22.5221732]}},{"type":"Feature","properties":{"nome":"Jardim Europa","osm_id":9900884352,"osm_tipo":"node","tipo_lugar":"suburb"},"geometry":{"type":"Point","coordinates":[-44.1300676,-22.5285752]}},{"type":"Feature","properties":{"nome":"Siderville","osm_id":9900884353,"osm_tipo":"node","tipo_lugar":"suburb"},"geometry":{"type":"Point","coordinates":[-44.1347776,-22.5268706]}},{"type":"Feature","properties":{"nome":"Ponte Alta","osm_id":9900884354,"osm_tipo":"node","tipo_lugar":"suburb"},"geometry":{"type":"Point","coordinates":[-44.132707,-22.5320833]}},{"type":"Feature","properties":{"nome":"Jardim Suiça","osm_id":9900884355,"osm_tipo":"node","tipo_lugar":"suburb"},"geometry":{"type":"Point","coordinates":[-44.1363976,-22.5343428]}},{"type":"Feature","properties":{"nome":"Bela Vista","osm_id":9903429942,"osm_tipo":"node","tipo_lugar":"suburb"},"geometry":{"type":"Point","coordinates":[-44.1099562,-22.5234937]}},{"type":"Feature","properties":{"nome":"Santa Teresa","osm_id":9903429943,"osm_tipo":"node","tipo_lugar":"neighbourhood"},"geometry":{"type":"Point","coordinates":[-44.113926,-22.5228892]}},{"type":"Feature","properties":{"nome":"Duzentos e Sete","osm_id":9903429944,"osm_tipo":"node","tipo_lugar":"neighbourhood"},"geometry":{"type":"Point","coordinates":[-44.1157713,-22.5248019]}},{"type":"Feature","properties":{"nome":"Duzentos e Quarenta e Nove","osm_id":9903429945,"osm_tipo":"node","tipo_lugar":"suburb"},"geometry":{"type":"Point","coordinates":[-44.1286888,-22.5312633]}},{"type":"Feature","properties":{"nome":"São Carlos","osm_id":9903429946,"osm_tipo":"node","tipo_lugar":"neighbourhood"},"geometry":{"type":"Point","coordinates":[-44.1259637,-22.5273389]}},{"type":"Feature","properties":{"nome":"Jardim Ponte Alta","osm_id":9903429947,"osm_tipo":"node","tipo_lugar":"neighbourhood"},"geometry":{"type":"Point","coordinates":[-44.1286889,-22.5347615]}},{"type":"Feature","properties":{"nome":"Minerlândia","osm_id":9903429948,"osm_tipo":"node","tipo_lugar":"suburb"},"geometry":{"type":"Point","coordinates":[-44.12429,-22.5330669]}},{"type":"Feature","properties":{"nome":"Santa Inez","osm_id":9903429949,"osm_tipo":"node","tipo_lugar":"suburb"},"geometry":{"type":"Point","coordinates":[-44.115149,-22.5322345]}},{"type":"Feature","properties":{"nome":"Mata Atlântica","osm_id":9903429950,"osm_tipo":"node","tipo_lugar":"neighbourhood"},"geometry":{"type":"Point","coordinates":[-44.0624275,-22.5306489]}},{"type":"Feature","properties":{"nome":"Recanto da Lagoa","osm_id":9903429951,"osm_tipo":"node","tipo_lugar":"neighbourhood"},"geometry":{"type":"Point","coordinates":[-44.0674379,-22.5314715]}},{"type":"Feature","properties":{"nome":"Loteamento Alvorada","osm_id":9903429952,"osm_tipo":"node","tipo_lugar":"neighbourhood"},"geometry":{"type":"Point","coordinates":[-44.0616229,-22.5376352]}},{"type":"Feature","properties":{"nome":"Ipê Amarelo","osm_id":9903429953,"osm_tipo":"node","tipo_lugar":"neighbourhood"},"geometry":{"type":"Point","coordinates":[-44.0636721,-22.532948]}},{"type":"Feature","properties":{"nome":"Village Sul II","osm_id":9903429954,"osm_tipo":"node","tipo_lugar":"neighbourhood"},"geometry":{"type":"Point","coordinates":[-44.06688,-22.5335327]}},{"type":"Feature","properties":{"nome":"Jardim Mariana","osm_id":9903429955,"osm_tipo":"node","tipo_lugar":"suburb"},"geometry":{"type":"Point","coordinates":[-44.0513983,-22.5166553]}},{"type":"Feature","properties":{"nome":"Condado do Ipê","osm_id":9903429958,"osm_tipo":"node","tipo_lugar":"neighbourhood"},"geometry":{"type":"Point","coordinates":[-44.0837565,-22.6001398]}},{"type":"Feature","properties":{"nome":"Parque das Garças","osm_id":9903429959,"osm_tipo":"node","tipo_lugar":"neighbourhood"},"geometry":{"type":"Point","coordinates":[-44.0781775,-22.6007341]}},{"type":"Feature","properties":{"nome":"Roma II","osm_id":9903429960,"osm_tipo":"node","tipo_lugar":"neighbourhood"},"geometry":{"type":"Point","coordinates":[-44.0813639,-22.6048941]}},{"type":"Feature","properties":{"nome":"São Francisco","osm_id":9903429961,"osm_tipo":"node","tipo_lugar":"neighbourhood"},"geometry":{"type":"Point","coordinates":[-44.0853872,-22.6080041]}},{"type":"Feature","properties":{"nome":"Santa Bárbara","osm_id":9903429962,"osm_tipo":"node","tipo_lugar":"neighbourhood"},"geometry":{"type":"Point","coordinates":[-44.0866317,-22.6332383]}},{"type":"Feature","properties":{"nome":"Jardim Primavera","osm_id":9903476524,"osm_tipo":"node","tipo_lugar":"suburb"},"geometry":{"type":"Point","coordinates":[-44.097452,-22.4982278]}},{"type":"Feature","properties":{"nome":"Jardim Belmonte","osm_id":9903476525,"osm_tipo":"node","tipo_lugar":"suburb"},"geometry":{"type":"Point","coordinates":[-44.1432963,-22.5245721]}},{"type":"Feature","properties":{"nome":"Jardim Padre Josimo Tavares","osm_id":9903476526,"osm_tipo":"node","tipo_lugar":"suburb"},"geometry":{"type":"Point","coordinates":[-44.1435538,-22.5130557]}},{"type":"Feature","properties":{"nome":"Belmonte","osm_id":9903476527,"osm_tipo":"node","tipo_lugar":"suburb"},"geometry":{"type":"Point","coordinates":[-44.134606,-22.511232]}},{"type":"Feature","properties":{"nome":"Jardim Cidade do Aço","osm_id":9903476528,"osm_tipo":"node","tipo_lugar":"neighbourhood"},"geometry":{"type":"Point","coordinates":[-44.1175471,-22.5043732]}},{"type":"Feature","properties":{"nome":"Açude I","osm_id":9903476529,"osm_tipo":"node","tipo_lugar":"neighbourhood"},"geometry":{"type":"Point","coordinates":[-44.1383396,-22.4994766]}},{"type":"Feature","properties":{"nome":"Açude II","osm_id":9903476530,"osm_tipo":"node","tipo_lugar":"neighbourhood"},"geometry":{"type":"Point","coordinates":[-44.1366659,-22.4931129]}},{"type":"Feature","properties":{"nome":"Açude III","osm_id":9903476531,"osm_tipo":"node","tipo_lugar":"neighbourhood"},"geometry":{"type":"Point","coordinates":[-44.1378461,-22.5037785]}},{"type":"Feature","properties":{"nome":"Açude IV","osm_id":9903476532,"osm_tipo":"node","tipo_lugar":"neighbourhood"},"geometry":{"type":"Point","coordinates":[-44.1431247,-22.4974149]}},{"type":"Feature","properties":{"nome":"Núcleo Água Santa","osm_id":9903476533,"osm_tipo":"node","tipo_lugar":"neighbourhood"},"geometry":{"type":"Point","coordinates":[-44.1472016,-22.4989414]}},{"type":"Feature","properties":{"nome":"Vale da Alegria","osm_id":9903476534,"osm_tipo":"node","tipo_lugar":"neighbourhood"},"geometry":{"type":"Point","coordinates":[-44.1354214,-22.4984458]}},{"type":"Feature","properties":{"nome":"Núcleo Estrada do Norte","osm_id":9903476535,"osm_tipo":"node","tipo_lugar":"neighbourhood"},"geometry":{"type":"Point","coordinates":[-44.130808,-22.4969589]}},{"type":"Feature","properties":{"nome":"Morada do Campo","osm_id":9903476537,"osm_tipo":"node","tipo_lugar":"neighbourhood"},"geometry":{"type":"Point","coordinates":[-44.1289841,-22.4845084]}},{"type":"Feature","properties":{"nome":"Grota do Germano","osm_id":9903476538,"osm_tipo":"node","tipo_lugar":"neighbourhood"},"geometry":{"type":"Point","coordinates":[-44.1266237,-22.4917053]}},{"type":"Feature","properties":{"nome":"Campinho","osm_id":9903476539,"osm_tipo":"node","tipo_lugar":"neighbourhood"},"geometry":{"type":"Point","coordinates":[-44.1370951,-22.5065141]}},{"type":"Feature","properties":{"nome":"Mirante do Vale","osm_id":9903476540,"osm_tipo":"node","tipo_lugar":"neighbourhood"},"geometry":{"type":"Point","coordinates":[-44.0979348,-22.4910313]}},{"type":"Feature","properties":{"nome":"Jardim Caroline","osm_id":9903476541,"osm_tipo":"node","tipo_lugar":"neighbourhood"},"geometry":{"type":"Point","coordinates":[-44.0987984,-22.4853511]}},{"type":"Feature","properties":{"nome":"Pinto da Serra","osm_id":9903476542,"osm_tipo":"node","tipo_lugar":"suburb"},"geometry":{"type":"Point","coordinates":[-44.0793311,-22.4797698]}},{"type":"Feature","properties":{"nome":"Ouro Verde","osm_id":9903476543,"osm_tipo":"node","tipo_lugar":"neighbourhood"},"geometry":{"type":"Point","coordinates":[-44.0587531,-22.4701334]}},{"type":"Feature","properties":{"nome":"Raiozinho de Sol","osm_id":9903476552,"osm_tipo":"node","tipo_lugar":"neighbourhood"},"geometry":{"type":"Point","coordinates":[-44.0475737,-22.4956505]}},{"type":"Feature","properties":{"nome":"Pedreira","osm_id":9903476553,"osm_tipo":"node","tipo_lugar":"neighbourhood"},"geometry":{"type":"Point","coordinates":[-44.0554164,-22.5011121]}},{"type":"Feature","properties":{"nome":"Vila da Cidadania","osm_id":9903476554,"osm_tipo":"node","tipo_lugar":"neighbourhood"},"geometry":{"type":"Point","coordinates":[-44.0384112,-22.5014591]}},{"type":"Feature","properties":{"nome":"Parque Vitória","osm_id":9903476555,"osm_tipo":"node","tipo_lugar":"neighbourhood"},"geometry":{"type":"Point","coordinates":[-44.0413938,-22.4981881]}},{"type":"Feature","properties":{"nome":"Colorado","osm_id":9903476556,"osm_tipo":"node","tipo_lugar":"neighbourhood"},"geometry":{"type":"Point","coordinates":[-44.0415226,-22.4945106]}},{"type":"Feature","properties":{"nome":"Núcleo Cajueiro","osm_id":9903476558,"osm_tipo":"node","tipo_lugar":"neighbourhood"},"geometry":{"type":"Point","coordinates":[-44.0672718,-22.4929345]}},{"type":"Feature","properties":{"nome":"Morro da Conquista","osm_id":9903476559,"osm_tipo":"node","tipo_lugar":"neighbourhood"},"geometry":{"type":"Point","coordinates":[-44.0713273,-22.4936085]}},{"type":"Feature","properties":{"nome":"Morro da Caviana","osm_id":9903476560,"osm_tipo":"node","tipo_lugar":"neighbourhood"},"geometry":{"type":"Point","coordinates":[-44.0744601,-22.4918837]}},{"type":"Feature","properties":{"nome":"Ilha Parque","osm_id":9903476561,"osm_tipo":"node","tipo_lugar":"neighbourhood"},"geometry":{"type":"Point","coordinates":[-44.086852,-22.4872544]}},{"type":"Feature","properties":{"nome":"Núcleo Asa Negra","osm_id":9903476562,"osm_tipo":"node","tipo_lugar":"neighbourhood"},"geometry":{"type":"Point","coordinates":[-44.0837298,-22.4850438]}},{"type":"Feature","properties":{"nome":"Jardim das Américas","osm_id":9903476563,"osm_tipo":"node","tipo_lugar":"neighbourhood"},"geometry":{"type":"Point","coordinates":[-44.0832792,-22.4872048]}},{"type":"Feature","properties":{"nome":"San Remo","osm_id":9903476564,"osm_tipo":"node","tipo_lugar":"neighbourhood"},"geometry":{"type":"Point","coordinates":[-44.0837727,-22.4951152]}},{"type":"Feature","properties":{"nome":"Vale das Laranjeiras","osm_id":9904731406,"osm_tipo":"node","tipo_lugar":"neighbourhood"},"geometry":{"type":"Point","coordinates":[-44.0669219,-22.5132213]}},{"type":"Feature","properties":{"nome":"Jardim Guarda Mor","osm_id":9904731407,"osm_tipo":"node","tipo_lugar":"neighbourhood"},"geometry":{"type":"Point","coordinates":[-44.06395,-22.5099604]}},{"type":"Feature","properties":{"nome":"Jardim Tancredo Neves","osm_id":9906598672,"osm_tipo":"node","tipo_lugar":"neighbourhood"},"geometry":{"type":"Point","coordinates":[-44.0865731,-22.5223703]}},{"type":"Feature","properties":{"nome":"Vila Rica","osm_id":9906598673,"osm_tipo":"node","tipo_lugar":"suburb"},"geometry":{"type":"Point","coordinates":[-44.0481961,-22.5007042]}},{"type":"Feature","properties":{"nome":"Três Poços","osm_id":9906636681,"osm_tipo":"node","tipo_lugar":"suburb"},"geometry":{"type":"Point","coordinates":[-44.0517795,-22.494281]}},{"type":"Feature","properties":{"nome":"Três Cruzes","osm_id":9906636682,"osm_tipo":"node","tipo_lugar":"neighbourhood"},"geometry":{"type":"Point","coordinates":[-44.1169357,-22.4362704]}},{"type":"Feature","properties":{"nome":"Vale Verde","osm_id":9906674772,"osm_tipo":"node","tipo_lugar":"neighbourhood"},"geometry":{"type":"Point","coordinates":[-44.1178709,-22.4896263]}},{"type":"Feature","properties":{"nome":"Belo Horizonte","osm_id":9906674773,"osm_tipo":"node","tipo_lugar":"suburb"},"geometry":{"type":"Point","coordinates":[-44.1206818,-22.4916089]}},{"type":"Feature","properties":{"nome":"Açude","osm_id":9906674774,"osm_tipo":"node","tipo_lugar":"suburb"},"geometry":{"type":"Point","coordinates":[-44.1391569,-22.4971004]}},{"type":"Feature","properties":{"nome":"Condomínio Vista Bela","osm_id":9906684094,"osm_tipo":"node","tipo_lugar":"neighbourhood"},"geometry":{"type":"Point","coordinates":[-44.0608257,-22.506943]}},{"type":"Feature","properties":{"nome":"Núcleo Vila Coroados","osm_id":9906684095,"osm_tipo":"node","tipo_lugar":"neighbourhood"},"geometry":{"type":"Point","coordinates":[-44.0639478,-22.5050796]}},{"type":"Feature","properties":{"nome":"Núcleo Túnel 20","osm_id":9906684096,"osm_tipo":"node","tipo_lugar":"neighbourhood"},"geometry":{"type":"Point","coordinates":[-44.0716081,-22.5037812]}},{"type":"Feature","properties":{"nome":"Jardim Monte Verde","osm_id":9906684097,"osm_tipo":"node","tipo_lugar":"neighbourhood"},"geometry":{"type":"Point","coordinates":[-44.071812,-22.5072007]}},{"type":"Feature","properties":{"nome":"Santa Amélia","osm_id":9906684098,"osm_tipo":"node","tipo_lugar":"neighbourhood"},"geometry":{"type":"Point","coordinates":[-44.06663,-22.5066754]}},{"type":"Feature","properties":{"nome":"Jardim Alvorada","osm_id":9906684099,"osm_tipo":"node","tipo_lugar":"neighbourhood"},"geometry":{"type":"Point","coordinates":[-44.0698808,-22.5049012]}},{"type":"Feature","properties":{"nome":"Jardim Brasília","osm_id":9906684100,"osm_tipo":"node","tipo_lugar":"neighbourhood"},"geometry":{"type":"Point","coordinates":[-44.0688186,-22.5067547]}},{"type":"Feature","properties":{"nome":"Santa Rosa","osm_id":9906690876,"osm_tipo":"node","tipo_lugar":"neighbourhood"},"geometry":{"type":"Point","coordinates":[-44.1388565,-22.5255063]}},{"type":"Feature","properties":{"nome":"Vila Elmira","osm_id":9906968150,"osm_tipo":"node","tipo_lugar":"neighbourhood"},"geometry":{"type":"Point","coordinates":[-44.1341631,-22.5362711]}},{"type":"Feature","properties":{"nome":"Roma","osm_id":9908647911,"osm_tipo":"node","tipo_lugar":"suburb"},"geometry":{"type":"Point","coordinates":[-44.0801874,-22.5999347]}},{"type":"Feature","properties":{"nome":"Jardim Provence II","osm_id":9913630035,"osm_tipo":"node","tipo_lugar":"neighbourhood"},"geometry":{"type":"Point","coordinates":[-44.0790636,-22.5193553]}},{"type":"Feature","properties":{"nome":"Tiradentes","osm_id":13731225700,"osm_tipo":"node","tipo_lugar":"suburb"},"geometry":{"type":"Point","coordinates":[-44.0731089,-22.5394725]}},{"type":"Feature","properties":{"nome":"Casa de Pedra","osm_id":13731262401,"osm_tipo":"node","tipo_lugar":"suburb"},"geometry":{"type":"Point","coordinates":[-44.0779583,-22.5392347]}},{"type":"Feature","properties":{"nome":"Jardim Belvedere","osm_id":13731262402,"osm_tipo":"node","tipo_lugar":"suburb"},"geometry":{"type":"Point","coordinates":[-44.0683882,-22.5323773]}},{"type":"Feature","properties":{"nome":"Cidade Nova","osm_id":13731262403,"osm_tipo":"node","tipo_lugar":"suburb"},"geometry":{"type":"Point","coordinates":[-44.0632598,-22.5355682]}},{"type":"Feature","properties":{"nome":"Siderópolis","osm_id":13731262404,"osm_tipo":"node","tipo_lugar":"suburb"},"geometry":{"type":"Point","coordinates":[-44.0866309,-22.5372306]}},{"type":"Feature","properties":{"nome":"Monte Castelo","osm_id":13731262405,"osm_tipo":"node","tipo_lugar":"suburb"},"geometry":{"type":"Point","coordinates":[-44.0903608,-22.521389]}},{"type":"Feature","properties":{"nome":"Jardim Vila Rica","osm_id":13731262408,"osm_tipo":"node","tipo_lugar":"suburb"},"geometry":{"type":"Point","coordinates":[-44.0663644,-22.5445682]}},{"type":"Feature","properties":{"nome":"Volta Grande 3","osm_id":1017989040,"osm_tipo":"way","tipo_lugar":"suburb"},"geometry":{"type":"Polygon","coordinates":[[[-44.0813952,-22.4835027],[-44.079292,-22.4876425],[-44.0746117,-22.4857169],[-44.0766074,-22.4816045],[-44.0813952,-22.4835027]]]}},{"type":"Feature","properties":{"nome":"Jardim Vila Rica","osm_id":1495616255,"osm_tipo":"way","tipo_lugar":"suburb"},"geometry":{"type":"Polygon","coordinates":[[[-44.070324,-22.5401024],[-44.0686289,-22.5370305],[-44.0670732,-22.5388835],[-44.0638653,-22.5383286],[-44.0650455,-22.5403501],[-44.0616766,-22.5458496],[-44.0712253,-22.5479504],[-44.0737358,-22.5445516],[-44.0683607,-22.5432833],[-44.070324,-22.5401024]]]}},{"type":"Feature","properties":{"nome":"Vista Verde","osm_id":1495616862,"osm_tipo":"way","tipo_lugar":"suburb"},"geometry":{"type":"Polygon","coordinates":[[[-44.0703026,-22.5403303],[-44.0730063,-22.5441454],[-44.0691868,-22.5437292],[-44.0703026,-22.5403303]]]}},{"type":"Feature","properties":{"nome":"Tiradentes","osm_id":1495617420,"osm_tipo":"way","tipo_lugar":"suburb"},"geometry":{"type":"Polygon","coordinates":[[[-44.0758843,-22.537819],[-44.0725905,-22.5369073],[-44.0714228,-22.5390596],[-44.0702302,-22.538582],[-44.070552,-22.540326],[-44.0742844,-22.5421652],[-44.0758843,-22.537819]]]}},{"type":"Feature","properties":{"nome":"Cidade Nova","osm_id":1495619913,"osm_tipo":"way","tipo_lugar":"suburb"},"geometry":{"type":"Polygon","coordinates":[[[-44.0638818,-22.5374127],[-44.0655126,-22.5360947],[-44.0628626,-22.5335083],[-44.0610602,-22.5348065],[-44.0638818,-22.5374127]]]}},{"type":"Feature","properties":{"nome":"Samoa","osm_id":1495621763,"osm_tipo":"way","tipo_lugar":"suburb"},"geometry":{"type":"Polygon","coordinates":[[[-44.0670865,-22.5383805],[-44.0658726,-22.53683],[-44.0710562,-22.532415],[-44.0720647,-22.5330294],[-44.0701121,-22.5365968],[-44.0670865,-22.5383805]]]}},{"type":"Feature","properties":{"nome":"Vilage Sul","osm_id":1495622345,"osm_tipo":"way","tipo_lugar":"suburb"},"geometry":{"type":"Polygon","coordinates":[[[-44.0746933,-22.5356257],[-44.0718088,-22.5335341],[-44.0706807,-22.5362401],[-44.0746933,-22.5356257]]]}},{"type":"Feature","properties":{"nome":"Casa de Pedra","osm_id":1495717630,"osm_tipo":"way","tipo_lugar":"suburb"},"geometry":{"type":"Polygon","coordinates":[[[-44.0747169,-22.5424738],[-44.0828083,-22.5387567],[-44.0779588,-22.5374784],[-44.075061,-22.5390874],[-44.0747169,-22.5424738]]]}},{"type":"Feature","properties":{"nome":"Jardim Belvedere","osm_id":1495718076,"osm_tipo":"way","tipo_lugar":"suburb"},"geometry":{"type":"Polygon","coordinates":[[[-44.0759843,-22.5322361],[-44.0742462,-22.5299172],[-44.0672939,-22.5284703],[-44.0596764,-22.5307893],[-44.0671395,-22.538241],[-44.074847,-22.535764],[-44.0759843,-22.5322361]]]}},{"type":"Feature","properties":{"nome":"Sâo Geraldo","osm_id":1495889727,"osm_tipo":"way","tipo_lugar":"suburb"},"geometry":{"type":"Polygon","coordinates":[[[-44.0886174,-22.5125745],[-44.0887676,-22.5205627],[-44.0825663,-22.5213357],[-44.0767084,-22.5256567],[-44.0770088,-22.5214943],[-44.0838753,-22.5173912],[-44.0862785,-22.5117023],[-44.0886174,-22.5125745]]]}},{"type":"Feature","properties":{"nome":"Vila Santa Cecília","osm_id":1495892461,"osm_tipo":"way","tipo_lugar":"suburb"},"geometry":{"type":"Polygon","coordinates":[[[-44.100708,-22.5217329],[-44.0942278,-22.5231997],[-44.1000857,-22.5230411],[-44.1040983,-22.5256575],[-44.1036477,-22.5289675],[-44.0997209,-22.53089],[-44.1141834,-22.5308107],[-44.1144624,-22.5236357],[-44.1107931,-22.5255584],[-44.1070166,-22.5251223],[-44.1089907,-22.5234772],[-44.1099133,-22.5173524],[-44.1004076,-22.5147359],[-44.100708,-22.5217329]]]}},{"type":"Feature","properties":{"nome":"Siderópolis","osm_id":1496656021,"osm_tipo":"way","tipo_lugar":"suburb"},"geometry":{"type":"Polygon","coordinates":[[[-44.090498,-22.5315201],[-44.081915,-22.5335417],[-44.0858203,-22.5436493],[-44.0890604,-22.5403793],[-44.090498,-22.5315201]]]}},{"type":"Feature","properties":{"nome":"Jardim Esperança","osm_id":1496656022,"osm_tipo":"way","tipo_lugar":"neighbourhood"},"geometry":{"type":"Polygon","coordinates":[[[-44.0898758,-22.5343939],[-44.0837818,-22.5353651],[-44.0842324,-22.5331255],[-44.088009,-22.5316787],[-44.0901547,-22.5321345],[-44.0898758,-22.5343939]]]}},{"type":"Feature","properties":{"nome":"Roma","osm_id":1497220643,"osm_tipo":"way","tipo_lugar":"suburb"},"geometry":{"type":"Polygon","coordinates":[[[-44.0883283,-22.600009],[-44.0832643,-22.6117954],[-44.0721063,-22.5995534],[-44.0727715,-22.5932537],[-44.0781359,-22.5918867],[-44.0883283,-22.600009]]]}},{"type":"Feature","properties":{"nome":"Dom Bosco","osm_id":1497224048,"osm_tipo":"way","tipo_lugar":"suburb"},"geometry":{"type":"Polygon","coordinates":[[[-44.0627738,-22.4780475],[-44.0630313,-22.4759259],[-44.0607139,-22.4736061],[-44.054856,-22.4740423],[-44.0569159,-22.4783647],[-44.0627738,-22.4780475]]]}},{"type":"Feature","properties":{"nome":"Califórnia","osm_id":1497224524,"osm_tipo":"way","tipo_lugar":"suburb"},"geometry":{"type":"Polygon","coordinates":[[[-44.0493413,-22.4839758],[-44.0455433,-22.4787613],[-44.0518304,-22.4747363],[-44.0551349,-22.474419],[-44.0567013,-22.4783647],[-44.0516159,-22.4788604],[-44.0493413,-22.4839758]]]}},{"type":"Feature","properties":{"nome":"Brasilândia","osm_id":1497224588,"osm_tipo":"way","tipo_lugar":"suburb"},"geometry":{"type":"Polygon","coordinates":[[[-44.0634501,-22.485997],[-44.0628809,-22.4787095],[-44.0590268,-22.478439],[-44.0527985,-22.4821354],[-44.0567664,-22.4815644],[-44.0634501,-22.485997]]]}},{"type":"Feature","properties":{"nome":"Caiera","osm_id":1497225031,"osm_tipo":"way","tipo_lugar":"suburb"},"geometry":{"type":"Polygon","coordinates":[[[-44.0629947,-22.481339],[-44.0598887,-22.480197],[-44.0535141,-22.4823307],[-44.0594009,-22.4783037],[-44.0627833,-22.478424],[-44.0629947,-22.481339]]]}},{"type":"Feature","properties":{"nome":"Nova Primavera","osm_id":1497225032,"osm_tipo":"way","tipo_lugar":"suburb"},"geometry":{"type":"Polygon","coordinates":[[[-44.0546762,-22.4823049],[-44.060341,-22.4850806],[-44.0570365,-22.4912069],[-44.0435396,-22.493011],[-44.0420591,-22.4916232],[-44.0546762,-22.4823049]]]}},{"type":"Feature","properties":{"nome":"São Luis","osm_id":1497225695,"osm_tipo":"way","tipo_lugar":"suburb"},"geometry":{"type":"Polygon","coordinates":[[[-44.0731589,-22.4767237],[-44.072365,-22.4790633],[-44.0631167,-22.4782306],[-44.0627949,-22.475078],[-44.0609924,-22.4735909],[-44.0547234,-22.4737297],[-44.0569979,-22.4667897],[-44.0632421,-22.4618768],[-44.0624911,-22.4645142],[-44.0643365,-22.4666557],[-44.0644867,-22.4702249],[-44.071439,-22.473338],[-44.0731589,-22.4767237]]]}},{"type":"Feature","properties":{"nome":"Candelária","osm_id":1497226279,"osm_tipo":"way","tipo_lugar":"suburb"},"geometry":{"type":"Polygon","coordinates":[[[-44.0730946,-22.4777154],[-44.0846388,-22.4743447],[-44.0797894,-22.4624464],[-44.0688675,-22.462843],[-44.0704339,-22.4649647],[-44.0668719,-22.4728962],[-44.0730946,-22.4777154]]]}},{"type":"Feature","properties":{"nome":"Santo Agostinho","osm_id":1497228041,"osm_tipo":"way","tipo_lugar":"suburb"},"geometry":{"type":"Polygon","coordinates":[[[-44.0708317,-22.4961124],[-44.0725912,-22.4927619],[-44.0844787,-22.4930593],[-44.0891351,-22.4860211],[-44.0724195,-22.4797162],[-44.063064,-22.4796171],[-44.0637935,-22.4881822],[-44.0660037,-22.4939316],[-44.0708317,-22.4961124]]]}},{"type":"Feature","properties":{"nome":"Sessenta","osm_id":1498180364,"osm_tipo":"way","tipo_lugar":"suburb"},"geometry":{"type":"Polygon","coordinates":[[[-44.0916287,-22.5293802],[-44.0892255,-22.5280721],[-44.0911352,-22.525099],[-44.088689,-22.524663],[-44.0909421,-22.5229584],[-44.0989673,-22.5235134],[-44.1039562,-22.525872],[-44.1033607,-22.5285379],[-44.100877,-22.5296181],[-44.0933239,-22.527537],[-44.0916287,-22.5293802]]]}},{"type":"Feature","properties":{"nome":"Monte Castelo","osm_id":1498182106,"osm_tipo":"way","tipo_lugar":"suburb"},"geometry":{"type":"Polygon","coordinates":[[[-44.0944826,-22.5186373],[-44.0887395,-22.5193011],[-44.0850595,-22.5217985],[-44.0852633,-22.5236617],[-44.0872589,-22.5249303],[-44.094179,-22.5226707],[-44.0944826,-22.5186373]]]}}]}