{"type":"FeatureCollection","features":[{"type":"Feature","properties":{"nome":"Nossa Senhora de Fatima","osm_id":6089152022,"osm_tipo":"node","tipo_lugar":"suburb"},"geometry":{"type":"Point","coordinates":[-35.4453443,-8.3764194]}},{"type":"Feature","properties":{"nome":"Centro","osm_id":6089152023,"osm_tipo":"node","tipo_lugar":"suburb"},"geometry":{"type":"Point","coordinates":[-35.4529306,-8.3790062]}},{"type":"Feature","properties":{"nome":"Campo de Avião","osm_id":6089152024,"osm_tipo":"node","tipo_lugar":"suburb"},"geometry":{"type":"Point","coordinates":[-35.4585974,-8.3809948]}},{"type":"Feature","properties":{"nome":"Do Campo","osm_id":6089152025,"osm_tipo":"node","tipo_lugar":"suburb"},"geometry":{"type":"Point","coordinates":[-35.4510128,-8.3835311]}},{"type":"Feature","properties":{"nome":"Santo Amaro","osm_id":6089152026,"osm_tipo":"node","tipo_lugar":"suburb"},"geometry":{"type":"Point","coordinates":[-35.4491498,-8.3818821]}},{"type":"Feature","properties":{"nome":"Cruzeiro","osm_id":6089152027,"osm_tipo":"node","tipo_lugar":"suburb"},"geometry":{"type":"Point","coordinates":[-35.4469696,-8.3797023]}},{"type":"Feature","properties":{"nome":"Tancredo Neves","osm_id":6089152028,"osm_tipo":"node","tipo_lugar":"suburb"},"geometry":{"type":"Point","coordinates":[-35.4494353,-8.3774826]}},{"type":"Feature","properties":{"nome":"João Paulo II","osm_id":6089152029,"osm_tipo":"node","tipo_lugar":"suburb"},"geometry":{"type":"Point","coordinates":[-35.456991,-8.376193]}},{"type":"Feature","properties":{"nome":"Nossa Senhora da Conceição","osm_id":6089152030,"osm_tipo":"node","tipo_lugar":"suburb"},"geometry":{"type":"Point","coordinates":[-35.4508715,-8.375126]}},{"type":"Feature","properties":{"nome":"Miquilina","osm_id":6089152031,"osm_tipo":"node","tipo_lugar":"suburb"},"geometry":{"type":"Point","coordinates":[-35.4503928,-8.3714797]}},{"type":"Feature","properties":{"nome":"Bela Vista","osm_id":6089152032,"osm_tipo":"node","tipo_lugar":"suburb"},"geometry":{"type":"Point","coordinates":[-35.456893,-8.3677877]}}]}