{"type":"FeatureCollection","features":[{"type":"Feature","properties":{"nome":"Vila Santa Maria","osm_id":7341456017,"osm_tipo":"node","tipo_lugar":"suburb"},"geometry":{"type":"Point","coordinates":[-40.4986827,-7.6018813]}},{"type":"Feature","properties":{"nome":"Vila Batista","osm_id":7341456228,"osm_tipo":"node","tipo_lugar":"suburb"},"geometry":{"type":"Point","coordinates":[-40.4957972,-7.5977234]}},{"type":"Feature","properties":{"nome":"Bairro Planalto","osm_id":7341456339,"osm_tipo":"node","tipo_lugar":"suburb"},"geometry":{"type":"Point","coordinates":[-40.4985885,-7.5851151]}},{"type":"Feature","properties":{"nome":"Vila Bringel","osm_id":7341456340,"osm_tipo":"node","tipo_lugar":"suburb"},"geometry":{"type":"Point","coordinates":[-40.5018554,-7.58704]}},{"type":"Feature","properties":{"nome":"Cavalete II","osm_id":7341456341,"osm_tipo":"node","tipo_lugar":"suburb"},"geometry":{"type":"Point","coordinates":[-40.4997163,-7.5891769]}},{"type":"Feature","properties":{"nome":"Cavalete I","osm_id":7341456342,"osm_tipo":"node","tipo_lugar":"suburb"},"geometry":{"type":"Point","coordinates":[-40.5048947,-7.5862742]}},{"type":"Feature","properties":{"nome":"Bairro da Bomba","osm_id":7341456343,"osm_tipo":"node","tipo_lugar":"suburb"},"geometry":{"type":"Point","coordinates":[-40.5050688,-7.5822797]}},{"type":"Feature","properties":{"nome":"Vila Mendes","osm_id":7341456348,"osm_tipo":"node","tipo_lugar":"suburb"},"geometry":{"type":"Point","coordinates":[-40.5071621,-7.5809268]}},{"type":"Feature","properties":{"nome":"Bairro Universitário","osm_id":7341456349,"osm_tipo":"node","tipo_lugar":"suburb"},"geometry":{"type":"Point","coordinates":[-40.5125422,-7.5746971]}},{"type":"Feature","properties":{"nome":"Bairro Aplausos","osm_id":7341456350,"osm_tipo":"node","tipo_lugar":"suburb"},"geometry":{"type":"Point","coordinates":[-40.508814,-7.5743794]}},{"type":"Feature","properties":{"nome":"Vila Conceição","osm_id":7341456351,"osm_tipo":"node","tipo_lugar":"suburb"},"geometry":{"type":"Point","coordinates":[-40.5273213,-7.5689129]}},{"type":"Feature","properties":{"nome":"Alto da Boa Vista","osm_id":7341456352,"osm_tipo":"node","tipo_lugar":"suburb"},"geometry":{"type":"Point","coordinates":[-40.4950723,-7.5654133]}},{"type":"Feature","properties":{"nome":"Centro","osm_id":7341456517,"osm_tipo":"node","tipo_lugar":"suburb"},"geometry":{"type":"Point","coordinates":[-40.4985139,-7.5774591]}},{"type":"Feature","properties":{"nome":"Loteamento Santo Inácio","osm_id":7400493493,"osm_tipo":"node","tipo_lugar":"suburb"},"geometry":{"type":"Point","coordinates":[-40.4872064,-7.6052214]}},{"type":"Feature","properties":{"nome":"Nova Roma","osm_id":7965147346,"osm_tipo":"node","tipo_lugar":"suburb"},"geometry":{"type":"Point","coordinates":[-40.5013193,-7.5682629]}},{"type":"Feature","properties":{"nome":"José Martins","osm_id":7965147347,"osm_tipo":"node","tipo_lugar":"suburb"},"geometry":{"type":"Point","coordinates":[-40.4909623,-7.5723102]}},{"type":"Feature","properties":{"nome":"Alto do Adelino","osm_id":7965147348,"osm_tipo":"node","tipo_lugar":"suburb"},"geometry":{"type":"Point","coordinates":[-40.4852681,-7.5697973]}},{"type":"Feature","properties":{"nome":"Loteamento Nova Araripina","osm_id":7965147361,"osm_tipo":"node","tipo_lugar":"suburb"},"geometry":{"type":"Point","coordinates":[-40.482577,-7.5735858]}},{"type":"Feature","properties":{"nome":"Loteamento Raimundo Félix IV","osm_id":7965147362,"osm_tipo":"node","tipo_lugar":"suburb"},"geometry":{"type":"Point","coordinates":[-40.484484,-7.5775782]}},{"type":"Feature","properties":{"nome":"Vila Santa Isabel","osm_id":7965147364,"osm_tipo":"node","tipo_lugar":"suburb"},"geometry":{"type":"Point","coordinates":[-40.5002545,-7.5838765]}},{"type":"Feature","properties":{"nome":"Loteamento Raimundo Félix III","osm_id":7965147365,"osm_tipo":"node","tipo_lugar":"suburb"},"geometry":{"type":"Point","coordinates":[-40.4885855,-7.5784453]}},{"type":"Feature","properties":{"nome":"Alto Alegre","osm_id":7965147366,"osm_tipo":"node","tipo_lugar":"suburb"},"geometry":{"type":"Point","coordinates":[-40.4922077,-7.5753247]}},{"type":"Feature","properties":{"nome":"Cohab","osm_id":8006757633,"osm_tipo":"node","tipo_lugar":"suburb"},"geometry":{"type":"Point","coordinates":[-40.5123713,-7.5725636]}},{"type":"Feature","properties":{"nome":"Vila Batista","osm_id":8006757634,"osm_tipo":"node","tipo_lugar":"suburb"},"geometry":{"type":"Point","coordinates":[-40.516315,-7.5699675]}},{"type":"Feature","properties":{"nome":"Saúna","osm_id":8863690440,"osm_tipo":"node","tipo_lugar":"suburb"},"geometry":{"type":"Point","coordinates":[-40.5230459,-7.5761453]}},{"type":"Feature","properties":{"nome":"Iracema","osm_id":10914422514,"osm_tipo":"node","tipo_lugar":"suburb"},"geometry":{"type":"Point","coordinates":[-40.4890176,-7.5566681]}},{"type":"Feature","properties":{"nome":"BNB","osm_id":11035636267,"osm_tipo":"node","tipo_lugar":"suburb"},"geometry":{"type":"Point","coordinates":[-40.511985,-7.5766666]}},{"type":"Feature","properties":{"nome":"Vila Sampaio","osm_id":1329404136,"osm_tipo":"way","tipo_lugar":"suburb"},"geometry":{"type":"Polygon","coordinates":[[[-40.4124099,-7.6512232],[-40.4098971,-7.6507391],[-40.4073701,-7.6523947],[-40.409962,-7.6550482],[-40.4124099,-7.6512232]]]}}]}