{"type":"FeatureCollection","features":[{"type":"Feature","properties":{"nome":"Barra de São Domingos","osm_id":3071563280,"osm_tipo":"node","tipo_lugar":"suburb"},"geometry":{"type":"Point","coordinates":[-42.3746043,-22.2578223]}},{"type":"Feature","properties":{"nome":"Córrego Novo","osm_id":3071563282,"osm_tipo":"node","tipo_lugar":"suburb"},"geometry":{"type":"Point","coordinates":[-42.3263652,-22.2543574]}},{"type":"Feature","properties":{"nome":"Pedra Aguda","osm_id":3071563284,"osm_tipo":"node","tipo_lugar":"suburb"},"geometry":{"type":"Point","coordinates":[-42.3156385,-22.2743596]}},{"type":"Feature","properties":{"nome":"Ribeirão do Capitão","osm_id":3071563285,"osm_tipo":"node","tipo_lugar":"suburb"},"geometry":{"type":"Point","coordinates":[-42.4161517,-22.2518501]}},{"type":"Feature","properties":{"nome":"Ribeirão do Capitão","osm_id":3071563286,"osm_tipo":"node","tipo_lugar":"suburb"},"geometry":{"type":"Point","coordinates":[-42.3984629,-22.2614369]}},{"type":"Feature","properties":{"nome":"Três Pedras","osm_id":4461804701,"osm_tipo":"node","tipo_lugar":"suburb"},"geometry":{"type":"Point","coordinates":[-42.2805686,-22.2157823]}},{"type":"Feature","properties":{"nome":"Silveira","osm_id":4461978910,"osm_tipo":"node","tipo_lugar":"suburb"},"geometry":{"type":"Point","coordinates":[-42.4288825,-22.1873339]}},{"type":"Feature","properties":{"nome":"Alto São José","osm_id":4461978943,"osm_tipo":"node","tipo_lugar":"suburb"},"geometry":{"type":"Point","coordinates":[-42.4051282,-22.1858864]}},{"type":"Feature","properties":{"nome":"São Januário","osm_id":4462008554,"osm_tipo":"node","tipo_lugar":"suburb"},"geometry":{"type":"Point","coordinates":[-42.4213832,-22.171562]}},{"type":"Feature","properties":{"nome":"Santa Teresa","osm_id":4462159707,"osm_tipo":"node","tipo_lugar":"suburb"},"geometry":{"type":"Point","coordinates":[-42.459065,-22.1562271]}},{"type":"Feature","properties":{"nome":"Centro","osm_id":10947819966,"osm_tipo":"node","tipo_lugar":"suburb"},"geometry":{"type":"Point","coordinates":[-35.5887754,-7.7964804]}},{"type":"Feature","properties":{"nome":"Nova Descoberta","osm_id":10947819967,"osm_tipo":"node","tipo_lugar":"suburb"},"geometry":{"type":"Point","coordinates":[-35.5926399,-7.7959694]}},{"type":"Feature","properties":{"nome":"Catolé","osm_id":10947819968,"osm_tipo":"node","tipo_lugar":"neighbourhood"},"geometry":{"type":"Point","coordinates":[-35.5926909,-7.7942275]}},{"type":"Feature","properties":{"nome":"Cícero Ribeiro","osm_id":10947819969,"osm_tipo":"node","tipo_lugar":"suburb"},"geometry":{"type":"Point","coordinates":[-35.590984,-7.7929485]}},{"type":"Feature","properties":{"nome":"Vila Noelândia","osm_id":10947819970,"osm_tipo":"node","tipo_lugar":"suburb"},"geometry":{"type":"Point","coordinates":[-35.5949417,-7.7928816]}},{"type":"Feature","properties":{"nome":"Vila Itagiba","osm_id":10947819971,"osm_tipo":"node","tipo_lugar":"suburb"},"geometry":{"type":"Point","coordinates":[-35.5947031,-7.7875106]}},{"type":"Feature","properties":{"nome":"Severino Cavalcanti","osm_id":10947819972,"osm_tipo":"node","tipo_lugar":"suburb"},"geometry":{"type":"Point","coordinates":[-35.5937691,-7.7847437]}},{"type":"Feature","properties":{"nome":"COHAB","osm_id":10947819973,"osm_tipo":"node","tipo_lugar":"suburb"},"geometry":{"type":"Point","coordinates":[-35.5976358,-7.7816714]}},{"type":"Feature","properties":{"nome":"Alto do Derby","osm_id":10947819974,"osm_tipo":"node","tipo_lugar":"suburb"},"geometry":{"type":"Point","coordinates":[-35.5880306,-7.7908787]}},{"type":"Feature","properties":{"nome":"Alto do Carmo","osm_id":10947819975,"osm_tipo":"node","tipo_lugar":"neighbourhood"},"geometry":{"type":"Point","coordinates":[-35.590161,-7.7984672]}},{"type":"Feature","properties":{"nome":"Alto São José","osm_id":10947819976,"osm_tipo":"node","tipo_lugar":"suburb"},"geometry":{"type":"Point","coordinates":[-35.5873639,-7.8005778]}},{"type":"Feature","properties":{"nome":"Alto do Paraíso","osm_id":10947819977,"osm_tipo":"node","tipo_lugar":"suburb"},"geometry":{"type":"Point","coordinates":[-35.584388,-7.7985478]}},{"type":"Feature","properties":{"nome":"Baraúna","osm_id":10947819978,"osm_tipo":"node","tipo_lugar":"suburb"},"geometry":{"type":"Point","coordinates":[-35.5832009,-7.8019634]}}]}