{"type":"FeatureCollection","features":[{"type":"Feature","properties":{"nome":"Gaibu","osm_id":1100099546,"osm_tipo":"node","tipo_lugar":"suburb"},"geometry":{"type":"Point","coordinates":[-34.9512658,-8.3406117]}},{"type":"Feature","properties":{"nome":"Suape","osm_id":1100099730,"osm_tipo":"node","tipo_lugar":"suburb"},"geometry":{"type":"Point","coordinates":[-34.9567358,-8.3539067]}},{"type":"Feature","properties":{"nome":"Vila Esperança","osm_id":4983909632,"osm_tipo":"node","tipo_lugar":"suburb"},"geometry":{"type":"Point","coordinates":[-35.0311394,-8.2858622]}},{"type":"Feature","properties":{"nome":"Destilaria","osm_id":4984800321,"osm_tipo":"node","tipo_lugar":"suburb"},"geometry":{"type":"Point","coordinates":[-35.0250017,-8.2752943]}},{"type":"Feature","properties":{"nome":"Vila Sapucaia","osm_id":5570066700,"osm_tipo":"node","tipo_lugar":"suburb"},"geometry":{"type":"Point","coordinates":[-35.0337594,-8.3015954]}},{"type":"Feature","properties":{"nome":"Pontezinha","osm_id":5950211029,"osm_tipo":"node","tipo_lugar":"suburb"},"geometry":{"type":"Point","coordinates":[-34.9643781,-8.2239936]}},{"type":"Feature","properties":{"nome":"Bom Conselho","osm_id":5950237275,"osm_tipo":"node","tipo_lugar":"suburb"},"geometry":{"type":"Point","coordinates":[-34.9757063,-8.236927]}},{"type":"Feature","properties":{"nome":"Engenho Ilha","osm_id":5950237276,"osm_tipo":"node","tipo_lugar":"suburb"},"geometry":{"type":"Point","coordinates":[-34.9972829,-8.2734305]}},{"type":"Feature","properties":{"nome":"Loteamento Aguas Compridas","osm_id":5950250900,"osm_tipo":"node","tipo_lugar":"suburb"},"geometry":{"type":"Point","coordinates":[-34.9594808,-8.3474713]}},{"type":"Feature","properties":{"nome":"Rosário","osm_id":5950250901,"osm_tipo":"node","tipo_lugar":"suburb"},"geometry":{"type":"Point","coordinates":[-35.0123977,-8.3316785]}},{"type":"Feature","properties":{"nome":"Paiva","osm_id":6542250694,"osm_tipo":"node","tipo_lugar":"suburb"},"geometry":{"type":"Point","coordinates":[-34.9488567,-8.2743861]}},{"type":"Feature","properties":{"nome":"Itapuama","osm_id":6543322425,"osm_tipo":"node","tipo_lugar":"suburb"},"geometry":{"type":"Point","coordinates":[-34.9584317,-8.2990223]}},{"type":"Feature","properties":{"nome":"Enseada dos Corais","osm_id":6543613232,"osm_tipo":"node","tipo_lugar":"suburb"},"geometry":{"type":"Point","coordinates":[-34.9539685,-8.3100846]}},{"type":"Feature","properties":{"nome":"Cohab","osm_id":6543816294,"osm_tipo":"node","tipo_lugar":"suburb"},"geometry":{"type":"Point","coordinates":[-35.0282818,-8.2929868]}},{"type":"Feature","properties":{"nome":"Distrito Industrial Santo Estevão","osm_id":6544954356,"osm_tipo":"node","tipo_lugar":"suburb"},"geometry":{"type":"Point","coordinates":[-35.000639,-8.246361]}},{"type":"Feature","properties":{"nome":"Centro","osm_id":6545058247,"osm_tipo":"node","tipo_lugar":"suburb"},"geometry":{"type":"Point","coordinates":[-35.0364626,-8.2889472]}},{"type":"Feature","properties":{"nome":"Pirapama","osm_id":6545869199,"osm_tipo":"node","tipo_lugar":"suburb"},"geometry":{"type":"Point","coordinates":[-35.0642425,-8.2788822]}},{"type":"Feature","properties":{"nome":"Charneca","osm_id":6548265566,"osm_tipo":"node","tipo_lugar":"suburb"},"geometry":{"type":"Point","coordinates":[-35.0463009,-8.2962408]}},{"type":"Feature","properties":{"nome":"Charnequinha","osm_id":6548273328,"osm_tipo":"node","tipo_lugar":"suburb"},"geometry":{"type":"Point","coordinates":[-35.0438976,-8.2949668]}},{"type":"Feature","properties":{"nome":"Malaquias","osm_id":6548292675,"osm_tipo":"node","tipo_lugar":"suburb"},"geometry":{"type":"Point","coordinates":[-35.0402606,-8.293523]}},{"type":"Feature","properties":{"nome":"São Francisco","osm_id":6548589157,"osm_tipo":"node","tipo_lugar":"suburb"},"geometry":{"type":"Point","coordinates":[-35.0373209,-8.2958799]}},{"type":"Feature","properties":{"nome":"Distrito Industrial Diper","osm_id":6548606875,"osm_tipo":"node","tipo_lugar":"suburb"},"geometry":{"type":"Point","coordinates":[-35.0323963,-8.2698471]}},{"type":"Feature","properties":{"nome":"Loteamento Rosa dos Ventos","osm_id":7392669730,"osm_tipo":"node","tipo_lugar":"suburb"},"geometry":{"type":"Point","coordinates":[-35.0573183,-8.2963467]}},{"type":"Feature","properties":{"nome":"Jardim Gaibú","osm_id":7393158123,"osm_tipo":"node","tipo_lugar":"suburb"},"geometry":{"type":"Point","coordinates":[-34.9518581,-8.3368159]}},{"type":"Feature","properties":{"nome":"Comunidade Esperança","osm_id":9489517082,"osm_tipo":"node","tipo_lugar":"neighbourhood"},"geometry":{"type":"Point","coordinates":[-35.0111812,-8.2747396]}},{"type":"Feature","properties":{"nome":"Vila Doutor Manoel Clementino","osm_id":11780766749,"osm_tipo":"node","tipo_lugar":"suburb"},"geometry":{"type":"Point","coordinates":[-35.0272695,-8.2800567]}},{"type":"Feature","properties":{"nome":"Garapu","osm_id":13706968484,"osm_tipo":"node","tipo_lugar":"neighbourhood"},"geometry":{"type":"Point","coordinates":[-35.018581,-8.2829663]}},{"type":"Feature","properties":{"nome":"Quadra 98 A","osm_id":850309902,"osm_tipo":"way","tipo_lugar":"neighbourhood"},"geometry":{"type":"Polygon","coordinates":[[[-35.0096402,-8.2916126],[-35.0071253,-8.2916909],[-35.0064143,-8.2909416],[-35.0096402,-8.2916126]]]}},{"type":"Feature","properties":{"nome":"Vila Claudete","osm_id":1496316559,"osm_tipo":"way","tipo_lugar":"neighbourhood"},"geometry":{"type":"Polygon","coordinates":[[[-35.0167987,-8.2973595],[-35.0110776,-8.2967291],[-35.0089824,-8.2922603],[-35.0055729,-8.2896342],[-35.0120425,-8.2896483],[-35.0139836,-8.2874801],[-35.0161954,-8.2892795],[-35.0199486,-8.2889712],[-35.0209932,-8.2912352],[-35.0187704,-8.2913326],[-35.0167987,-8.2973595]]]}},{"type":"Feature","properties":{"nome":"Santo Inácio","osm_id":1496322944,"osm_tipo":"way","tipo_lugar":"neighbourhood"},"geometry":{"type":"Polygon","coordinates":[[[-35.0221924,-8.2828589],[-35.0226574,-8.2805858],[-35.0204042,-8.2783568],[-35.0292403,-8.2826876],[-35.0254869,-8.2959582],[-35.0183781,-8.2941837],[-35.0218016,-8.2906658],[-35.0221924,-8.2828589]]]}},{"type":"Feature","properties":{"nome":"Garapu","osm_id":20411639,"osm_tipo":"relation","tipo_lugar":"neighbourhood"},"geometry":{"type":"MultiPolygon","coordinates":[[[[-35.0225785,-8.2834877],[-35.0226574,-8.2805858],[-35.0203401,-8.2787675],[-35.0104174,-8.2750163],[-35.0177925,-8.2892188],[-35.0207508,-8.2885955],[-35.0210786,-8.2912049],[-35.0187775,-8.2913411],[-35.0189982,-8.2924036],[-35.0212035,-8.2923339],[-35.0225785,-8.2834877]]],[[[-35.0183781,-8.2941837],[-35.0138788,-8.3043092],[-35.0150639,-8.3043199],[-35.0150317,-8.3069602],[-35.0215431,-8.3077743],[-35.0242565,-8.3042031],[-35.0225734,-8.3037971],[-35.0254869,-8.2959582],[-35.0183781,-8.2941837]]]]}}]}