{"type":"FeatureCollection","features":[{"type":"Feature","properties":{"nome":"Mutirão","osm_id":6420834450,"osm_tipo":"node","tipo_lugar":"suburb"},"geometry":{"type":"Point","coordinates":[-35.7576382,-8.3703571]}},{"type":"Feature","properties":{"nome":"Bairro Novo","osm_id":6420834451,"osm_tipo":"node","tipo_lugar":"suburb"},"geometry":{"type":"Point","coordinates":[-35.7597452,-8.3652602]}},{"type":"Feature","properties":{"nome":"Nova República","osm_id":6420834453,"osm_tipo":"node","tipo_lugar":"suburb"},"geometry":{"type":"Point","coordinates":[-35.7654765,-8.363709]}},{"type":"Feature","properties":{"nome":"Cohab","osm_id":6420834454,"osm_tipo":"node","tipo_lugar":"suburb"},"geometry":{"type":"Point","coordinates":[-35.7663882,-8.3619843]}},{"type":"Feature","properties":{"nome":"Cruzeiro","osm_id":6420834455,"osm_tipo":"node","tipo_lugar":"suburb"},"geometry":{"type":"Point","coordinates":[-35.7675675,-8.3569486]}},{"type":"Feature","properties":{"nome":"Loteamento Hermes Dias","osm_id":6420834456,"osm_tipo":"node","tipo_lugar":"suburb"},"geometry":{"type":"Point","coordinates":[-35.7734446,-8.3617171]}},{"type":"Feature","properties":{"nome":"Loteamento José Abilio","osm_id":6420834457,"osm_tipo":"node","tipo_lugar":"suburb"},"geometry":{"type":"Point","coordinates":[-35.761896,-8.3578058]}},{"type":"Feature","properties":{"nome":"Centro","osm_id":6420834458,"osm_tipo":"node","tipo_lugar":"suburb"},"geometry":{"type":"Point","coordinates":[-35.7631154,-8.361649]}},{"type":"Feature","properties":{"nome":"Campo","osm_id":6420837710,"osm_tipo":"node","tipo_lugar":"suburb"},"geometry":{"type":"Point","coordinates":[-35.7677071,-8.3596391]}},{"type":"Feature","properties":{"nome":"Nossa Senhora do Carmo","osm_id":12300595331,"osm_tipo":"node","tipo_lugar":"suburb"},"geometry":{"type":"Point","coordinates":[-35.7580846,-8.3729423]}}]}