{"type":"FeatureCollection","features":[{"type":"Feature","properties":{"nome":"Nova Gloria","osm_id":6089102729,"osm_tipo":"node","tipo_lugar":"suburb"},"geometry":{"type":"Point","coordinates":[-35.299613,-7.9989589]}},{"type":"Feature","properties":{"nome":"Centro","osm_id":6089102730,"osm_tipo":"node","tipo_lugar":"suburb"},"geometry":{"type":"Point","coordinates":[-35.2919151,-8.0021682]}},{"type":"Feature","properties":{"nome":"Cohab","osm_id":6089102731,"osm_tipo":"node","tipo_lugar":"suburb"},"geometry":{"type":"Point","coordinates":[-35.2861857,-7.9978623]}},{"type":"Feature","properties":{"nome":"Madre de Deus","osm_id":6089102732,"osm_tipo":"node","tipo_lugar":"suburb"},"geometry":{"type":"Point","coordinates":[-35.2901539,-7.9974967]}},{"type":"Feature","properties":{"nome":"Santa Rita","osm_id":6089102733,"osm_tipo":"node","tipo_lugar":"suburb"},"geometry":{"type":"Point","coordinates":[-35.2974905,-7.99343]}}]}