{"type":"FeatureCollection","features":[{"type":"Feature","properties":{"nome":"Condomínio Ravenna Residence","osm_id":10163910167,"osm_tipo":"node","tipo_lugar":"neighbourhood"},"geometry":{"type":"Point","coordinates":[-35.5807257,-8.2237292]}},{"type":"Feature","properties":{"nome":"Residencial Serra da Estrela","osm_id":10163910172,"osm_tipo":"node","tipo_lugar":"neighbourhood"},"geometry":{"type":"Point","coordinates":[-35.577942,-8.2202416]}},{"type":"Feature","properties":{"nome":"Polo Cultural do Cruzeiro","osm_id":10163982211,"osm_tipo":"node","tipo_lugar":"neighbourhood"},"geometry":{"type":"Point","coordinates":[-35.5727573,-8.2134338]}},{"type":"Feature","properties":{"nome":"Alto do Cruzeiro","osm_id":10164032510,"osm_tipo":"node","tipo_lugar":"neighbourhood"},"geometry":{"type":"Point","coordinates":[-35.5742949,-8.2112731]}},{"type":"Feature","properties":{"nome":"Privê Village Eldorado","osm_id":10164091370,"osm_tipo":"node","tipo_lugar":"neighbourhood"},"geometry":{"type":"Point","coordinates":[-35.5489134,-8.1979605]}},{"type":"Feature","properties":{"nome":"Solar Monalisa","osm_id":10164091372,"osm_tipo":"node","tipo_lugar":"neighbourhood"},"geometry":{"type":"Point","coordinates":[-35.5512848,-8.2022887]}},{"type":"Feature","properties":{"nome":"Loteamento Santana","osm_id":10166129667,"osm_tipo":"node","tipo_lugar":"neighbourhood"},"geometry":{"type":"Point","coordinates":[-35.5944712,-8.198776]}},{"type":"Feature","properties":{"nome":"Alto do Cruzeiro","osm_id":951970392,"osm_tipo":"way","tipo_lugar":"neighbourhood"},"geometry":{"type":"Polygon","coordinates":[[[-35.5741602,-8.2104059],[-35.5750814,-8.2109121],[-35.5745423,-8.2119825],[-35.5741602,-8.2104059]]]}}]}