{"type":"FeatureCollection","features":[{"type":"Feature","properties":{"nome":"Cidade Criança","osm_id":6095370547,"osm_tipo":"node","tipo_lugar":"suburb"},"geometry":{"type":"Point","coordinates":[-34.8975539,-7.7810078]}},{"type":"Feature","properties":{"nome":"Cidade Industrial","osm_id":6095370548,"osm_tipo":"node","tipo_lugar":"suburb"},"geometry":{"type":"Point","coordinates":[-34.9067952,-7.779955]}},{"type":"Feature","properties":{"nome":"Gremio","osm_id":6095370549,"osm_tipo":"node","tipo_lugar":"suburb"},"geometry":{"type":"Point","coordinates":[-34.9046316,-7.772171]}},{"type":"Feature","properties":{"nome":"Conceição","osm_id":6095370550,"osm_tipo":"node","tipo_lugar":"suburb"},"geometry":{"type":"Point","coordinates":[-34.9028581,-7.7747772]}},{"type":"Feature","properties":{"nome":"Cajueiro","osm_id":6095370551,"osm_tipo":"node","tipo_lugar":"suburb"},"geometry":{"type":"Point","coordinates":[-34.8990976,-7.7708503]}},{"type":"Feature","properties":{"nome":"Veloz","osm_id":6095370553,"osm_tipo":"node","tipo_lugar":"suburb"},"geometry":{"type":"Point","coordinates":[-34.8935607,-7.7765581]}},{"type":"Feature","properties":{"nome":"varzea","osm_id":6095370554,"osm_tipo":"node","tipo_lugar":"suburb"},"geometry":{"type":"Point","coordinates":[-34.8965879,-7.7752971]}},{"type":"Feature","properties":{"nome":"Mangabeira","osm_id":6095370556,"osm_tipo":"node","tipo_lugar":"suburb"},"geometry":{"type":"Point","coordinates":[-34.9092586,-7.798267]}},{"type":"Feature","properties":{"nome":"Espinheiro","osm_id":6952592484,"osm_tipo":"node","tipo_lugar":"suburb"},"geometry":{"type":"Point","coordinates":[-34.8943199,-7.77227]}},{"type":"Feature","properties":{"nome":"Cidade Criança Área Rural","osm_id":7282270389,"osm_tipo":"node","tipo_lugar":"suburb"},"geometry":{"type":"Point","coordinates":[-34.9164959,-7.7554355]}},{"type":"Feature","properties":{"nome":"Terranorte Itapissuma","osm_id":9455418077,"osm_tipo":"node","tipo_lugar":"suburb"},"geometry":{"type":"Point","coordinates":[-34.8957622,-7.7612913]}},{"type":"Feature","properties":{"nome":"Veloz","osm_id":779891947,"osm_tipo":"way","tipo_lugar":"suburb"},"geometry":{"type":"Polygon","coordinates":[[[-34.8874776,-7.7723433],[-34.8947973,-7.7734106],[-34.8953627,-7.7790865],[-34.8935152,-7.7799694],[-34.893995,-7.7810241],[-34.8883641,-7.7811703],[-34.8874776,-7.7723433]]]}}]}