{"type":"FeatureCollection","features":[{"type":"Feature","properties":{"nome":"Augusto Melo","osm_id":6089061600,"osm_tipo":"node","tipo_lugar":"suburb"},"geometry":{"type":"Point","coordinates":[-36.5011708,-7.9838086]}},{"type":"Feature","properties":{"nome":"Boa Vista","osm_id":6089061601,"osm_tipo":"node","tipo_lugar":"suburb"},"geometry":{"type":"Point","coordinates":[-36.4966085,-7.9839571]}},{"type":"Feature","properties":{"nome":"Branco","osm_id":6089061602,"osm_tipo":"node","tipo_lugar":"suburb"},"geometry":{"type":"Point","coordinates":[-36.4956987,-7.9948123]}},{"type":"Feature","properties":{"nome":"Bom Jesus","osm_id":6089061603,"osm_tipo":"node","tipo_lugar":"suburb"},"geometry":{"type":"Point","coordinates":[-36.4930931,-7.9893861]}},{"type":"Feature","properties":{"nome":"Centro","osm_id":6089061604,"osm_tipo":"node","tipo_lugar":"suburb"},"geometry":{"type":"Point","coordinates":[-36.4980591,-7.987704]}},{"type":"Feature","properties":{"nome":"Petrolino Malaco de Souza","osm_id":6089061605,"osm_tipo":"node","tipo_lugar":"suburb"},"geometry":{"type":"Point","coordinates":[-36.5010123,-7.9906245]}}]}