{"type":"FeatureCollection","features":[{"type":"Feature","properties":{"nome":"Pitanga","osm_id":6063667891,"osm_tipo":"node","tipo_lugar":"suburb"},"geometry":{"type":"Point","coordinates":[-36.7148031,-8.3610117]}},{"type":"Feature","properties":{"nome":"Serrinha","osm_id":6063667892,"osm_tipo":"node","tipo_lugar":"suburb"},"geometry":{"type":"Point","coordinates":[-36.7112302,-8.3519863]}},{"type":"Feature","properties":{"nome":"Xucuru","osm_id":6063667893,"osm_tipo":"node","tipo_lugar":"suburb"},"geometry":{"type":"Point","coordinates":[-36.6983451,-8.3508958]}},{"type":"Feature","properties":{"nome":"Centro","osm_id":6063667894,"osm_tipo":"node","tipo_lugar":"suburb"},"geometry":{"type":"Point","coordinates":[-36.6964231,-8.357965]}},{"type":"Feature","properties":{"nome":"Santo Antonio","osm_id":6063667896,"osm_tipo":"node","tipo_lugar":"suburb"},"geometry":{"type":"Point","coordinates":[-36.7051487,-8.3717667]}},{"type":"Feature","properties":{"nome":"Caixa d´ agua","osm_id":6063667899,"osm_tipo":"node","tipo_lugar":"suburb"},"geometry":{"type":"Point","coordinates":[-36.6950715,-8.3519469]}},{"type":"Feature","properties":{"nome":"Pedra Redonda","osm_id":6063667900,"osm_tipo":"node","tipo_lugar":"suburb"},"geometry":{"type":"Point","coordinates":[-36.6756536,-8.3552957]}},{"type":"Feature","properties":{"nome":"São Sebastião","osm_id":6088978986,"osm_tipo":"node","tipo_lugar":"suburb"},"geometry":{"type":"Point","coordinates":[-36.6994276,-8.360067]}},{"type":"Feature","properties":{"nome":"Salgado","osm_id":6088978987,"osm_tipo":"node","tipo_lugar":"suburb"},"geometry":{"type":"Point","coordinates":[-36.6947673,-8.3600898]}},{"type":"Feature","properties":{"nome":"Serrinha","osm_id":6088978988,"osm_tipo":"node","tipo_lugar":"suburb"},"geometry":{"type":"Point","coordinates":[-36.7113841,-8.3520008]}},{"type":"Feature","properties":{"nome":"Central","osm_id":6088978989,"osm_tipo":"node","tipo_lugar":"suburb"},"geometry":{"type":"Point","coordinates":[-36.7151,-8.3685794]}},{"type":"Feature","properties":{"nome":"Pitanga","osm_id":6088978991,"osm_tipo":"node","tipo_lugar":"suburb"},"geometry":{"type":"Point","coordinates":[-36.7145333,-8.3610998]}},{"type":"Feature","properties":{"nome":"Centenario","osm_id":6088978992,"osm_tipo":"node","tipo_lugar":"suburb"},"geometry":{"type":"Point","coordinates":[-36.7033439,-8.3642269]}},{"type":"Feature","properties":{"nome":"Vila Anapolis","osm_id":6088978994,"osm_tipo":"node","tipo_lugar":"suburb"},"geometry":{"type":"Point","coordinates":[-36.6867444,-8.370307]}},{"type":"Feature","properties":{"nome":"Prado","osm_id":6088978995,"osm_tipo":"node","tipo_lugar":"suburb"},"geometry":{"type":"Point","coordinates":[-36.6848814,-8.3615049]}},{"type":"Feature","properties":{"nome":"Baixa Grande","osm_id":6088978997,"osm_tipo":"node","tipo_lugar":"suburb"},"geometry":{"type":"Point","coordinates":[-36.6767144,-8.3491332]}}]}