{"type":"FeatureCollection","features":[{"type":"Feature","properties":{"nome":"Cruzeiro","osm_id":4696821448,"osm_tipo":"node","tipo_lugar":"suburb"},"geometry":{"type":"Point","coordinates":[-36.6999361,-8.187708]}},{"type":"Feature","properties":{"nome":"Corôcos","osm_id":4696821449,"osm_tipo":"node","tipo_lugar":"suburb"},"geometry":{"type":"Point","coordinates":[-36.7001376,-8.1895767]}},{"type":"Feature","properties":{"nome":"Posto","osm_id":4696821450,"osm_tipo":"node","tipo_lugar":"suburb"},"geometry":{"type":"Point","coordinates":[-36.7016953,-8.190317]}},{"type":"Feature","properties":{"nome":"Centro","osm_id":4696821451,"osm_tipo":"node","tipo_lugar":"suburb"},"geometry":{"type":"Point","coordinates":[-36.7033939,-8.1867994]}},{"type":"Feature","properties":{"nome":"Padre Roma","osm_id":4696821452,"osm_tipo":"node","tipo_lugar":"suburb"},"geometry":{"type":"Point","coordinates":[-36.7076055,-8.1884678]}},{"type":"Feature","properties":{"nome":"Palha","osm_id":4696821453,"osm_tipo":"node","tipo_lugar":"suburb"},"geometry":{"type":"Point","coordinates":[-36.7061451,-8.1888643]}},{"type":"Feature","properties":{"nome":"Prado","osm_id":4696821454,"osm_tipo":"node","tipo_lugar":"suburb"},"geometry":{"type":"Point","coordinates":[-36.7071433,-8.1935729]}},{"type":"Feature","properties":{"nome":"Alto da Bela Vista","osm_id":4696821455,"osm_tipo":"node","tipo_lugar":"suburb"},"geometry":{"type":"Point","coordinates":[-36.7071816,-8.1858692]}},{"type":"Feature","properties":{"nome":"Cohab","osm_id":4696821456,"osm_tipo":"node","tipo_lugar":"suburb"},"geometry":{"type":"Point","coordinates":[-36.7081293,-8.1827527]}},{"type":"Feature","properties":{"nome":"Milagres","osm_id":4696821457,"osm_tipo":"node","tipo_lugar":"suburb"},"geometry":{"type":"Point","coordinates":[-36.7051407,-8.1827649]}},{"type":"Feature","properties":{"nome":"Currais","osm_id":4696821458,"osm_tipo":"node","tipo_lugar":"suburb"},"geometry":{"type":"Point","coordinates":[-36.7012647,-8.1799897]}},{"type":"Feature","properties":{"nome":"Vilinha","osm_id":4696821459,"osm_tipo":"node","tipo_lugar":"suburb"},"geometry":{"type":"Point","coordinates":[-36.7020226,-8.1756103]}}]}