{"type":"FeatureCollection","features":[{"type":"Feature","properties":{"nome":"Xisto","osm_id":3328466926,"osm_tipo":"node","tipo_lugar":"neighbourhood"},"geometry":{"type":"Point","coordinates":[-8.5453634,41.3694722]}},{"type":"Feature","properties":{"nome":"Aldeia Nova","osm_id":3447653366,"osm_tipo":"node","tipo_lugar":"neighbourhood"},"geometry":{"type":"Point","coordinates":[-8.5719969,41.3654592]}},{"type":"Feature","properties":{"nome":"Beleco de Além","osm_id":3447653376,"osm_tipo":"node","tipo_lugar":"neighbourhood"},"geometry":{"type":"Point","coordinates":[-8.5606982,41.365747]}},{"type":"Feature","properties":{"nome":"Beleco d'Aquem","osm_id":3447653377,"osm_tipo":"node","tipo_lugar":"neighbourhood"},"geometry":{"type":"Point","coordinates":[-8.5570048,41.3626939]}},{"type":"Feature","properties":{"nome":"Boucinhas","osm_id":3447653381,"osm_tipo":"node","tipo_lugar":"neighbourhood"},"geometry":{"type":"Point","coordinates":[-8.5634005,41.3627242]}},{"type":"Feature","properties":{"nome":"Bragadela","osm_id":3447653382,"osm_tipo":"node","tipo_lugar":"neighbourhood"},"geometry":{"type":"Point","coordinates":[-8.5566376,41.3499374]}},{"type":"Feature","properties":{"nome":"Candeeira","osm_id":3447653383,"osm_tipo":"node","tipo_lugar":"neighbourhood"},"geometry":{"type":"Point","coordinates":[-8.5505396,41.3606915]}},{"type":"Feature","properties":{"nome":"Carvalha","osm_id":3447653384,"osm_tipo":"node","tipo_lugar":"neighbourhood"},"geometry":{"type":"Point","coordinates":[-8.5736148,41.3468822]}},{"type":"Feature","properties":{"nome":"Cerco","osm_id":3447653388,"osm_tipo":"node","tipo_lugar":"neighbourhood"},"geometry":{"type":"Point","coordinates":[-8.5544466,41.3622908]}},{"type":"Feature","properties":{"nome":"Ferreiros","osm_id":3447653599,"osm_tipo":"node","tipo_lugar":"neighbourhood"},"geometry":{"type":"Point","coordinates":[-8.5431623,41.3632098]}},{"type":"Feature","properties":{"nome":"Fervença","osm_id":3447653601,"osm_tipo":"node","tipo_lugar":"neighbourhood"},"geometry":{"type":"Point","coordinates":[-8.5819842,41.3534718]}},{"type":"Feature","properties":{"nome":"Igreja","osm_id":3447653605,"osm_tipo":"node","tipo_lugar":"neighbourhood"},"geometry":{"type":"Point","coordinates":[-8.5565304,41.3562241]}},{"type":"Feature","properties":{"nome":"Libório","osm_id":3447653608,"osm_tipo":"node","tipo_lugar":"neighbourhood"},"geometry":{"type":"Point","coordinates":[-8.5509073,41.3563337]}},{"type":"Feature","properties":{"nome":"Monte Alegre","osm_id":3447653614,"osm_tipo":"node","tipo_lugar":"neighbourhood"},"geometry":{"type":"Point","coordinates":[-8.5718266,41.3612226]}},{"type":"Feature","properties":{"nome":"Outeirinho","osm_id":3447653617,"osm_tipo":"node","tipo_lugar":"neighbourhood"},"geometry":{"type":"Point","coordinates":[-8.564005,41.3683218]}},{"type":"Feature","properties":{"nome":"Outeiro","osm_id":3447653619,"osm_tipo":"node","tipo_lugar":"neighbourhood"},"geometry":{"type":"Point","coordinates":[-8.561936,41.360021]}},{"type":"Feature","properties":{"nome":"Perrinho","osm_id":3447653622,"osm_tipo":"node","tipo_lugar":"neighbourhood"},"geometry":{"type":"Point","coordinates":[-8.5522724,41.3680662]}},{"type":"Feature","properties":{"nome":"Portela","osm_id":3447653625,"osm_tipo":"node","tipo_lugar":"neighbourhood"},"geometry":{"type":"Point","coordinates":[-8.5505074,41.3501483]}},{"type":"Feature","properties":{"nome":"Regadas","osm_id":3447653630,"osm_tipo":"node","tipo_lugar":"neighbourhood"},"geometry":{"type":"Point","coordinates":[-8.5655263,41.3508002]}},{"type":"Feature","properties":{"nome":"Salgueirinhos","osm_id":3447653631,"osm_tipo":"node","tipo_lugar":"neighbourhood"},"geometry":{"type":"Point","coordinates":[-8.5748321,41.3547424]}},{"type":"Feature","properties":{"nome":"Santana","osm_id":3447653632,"osm_tipo":"node","tipo_lugar":"neighbourhood"},"geometry":{"type":"Point","coordinates":[-8.5544805,41.3570531]}},{"type":"Feature","properties":{"nome":"Vilar do Monte","osm_id":3447653639,"osm_tipo":"node","tipo_lugar":"neighbourhood"},"geometry":{"type":"Point","coordinates":[-8.5740573,41.3596122]}},{"type":"Feature","properties":{"nome":"Várzea","osm_id":3447653640,"osm_tipo":"node","tipo_lugar":"neighbourhood"},"geometry":{"type":"Point","coordinates":[-8.562027,41.3474638]}},{"type":"Feature","properties":{"nome":"Cohab","osm_id":8566210569,"osm_tipo":"node","tipo_lugar":"suburb"},"geometry":{"type":"Point","coordinates":[-35.3778764,-8.5208043]}},{"type":"Feature","properties":{"nome":"Padre Cícero","osm_id":8566210574,"osm_tipo":"node","tipo_lugar":"suburb"},"geometry":{"type":"Point","coordinates":[-35.3785856,-8.5167506]}},{"type":"Feature","properties":{"nome":"Centro","osm_id":8566210575,"osm_tipo":"node","tipo_lugar":"suburb"},"geometry":{"type":"Point","coordinates":[-35.3752859,-8.5129774]}},{"type":"Feature","properties":{"nome":"Eldorado","osm_id":8566210576,"osm_tipo":"node","tipo_lugar":"suburb"},"geometry":{"type":"Point","coordinates":[-35.3777993,-8.5054055]}},{"type":"Feature","properties":{"nome":"Vila Rica","osm_id":8566235141,"osm_tipo":"node","tipo_lugar":"suburb"},"geometry":{"type":"Point","coordinates":[-35.3702681,-8.5157714]}}]}