{"type":"FeatureCollection","features":[{"type":"Feature","properties":{"nome":"José Rufino Alves","osm_id":3715596025,"osm_tipo":"node","tipo_lugar":"neighbourhood"},"geometry":{"type":"Point","coordinates":[-38.3041605,-7.9990715]}},{"type":"Feature","properties":{"nome":"Vila Bela","osm_id":3715617580,"osm_tipo":"node","tipo_lugar":"neighbourhood"},"geometry":{"type":"Point","coordinates":[-38.323478,-7.9949857]}},{"type":"Feature","properties":{"nome":"São Sebastião","osm_id":3715654526,"osm_tipo":"node","tipo_lugar":"neighbourhood"},"geometry":{"type":"Point","coordinates":[-38.3069172,-7.9791962]}},{"type":"Feature","properties":{"nome":"Alto Bom Jesus","osm_id":3717392260,"osm_tipo":"node","tipo_lugar":"neighbourhood"},"geometry":{"type":"Point","coordinates":[-38.3115664,-7.9871667]}},{"type":"Feature","properties":{"nome":"AABB","osm_id":3717398190,"osm_tipo":"node","tipo_lugar":"neighbourhood"},"geometry":{"type":"Point","coordinates":[-38.2871943,-7.9939521]}},{"type":"Feature","properties":{"nome":"Nossa Senhora da Conceição","osm_id":3717398191,"osm_tipo":"node","tipo_lugar":"neighbourhood"},"geometry":{"type":"Point","coordinates":[-38.2836143,-7.9904675]}},{"type":"Feature","properties":{"nome":"Mutirão","osm_id":3717442669,"osm_tipo":"node","tipo_lugar":"neighbourhood"},"geometry":{"type":"Point","coordinates":[-38.2866928,-7.9731352]}},{"type":"Feature","properties":{"nome":"Tancredo Neves","osm_id":3718576525,"osm_tipo":"node","tipo_lugar":"neighbourhood"},"geometry":{"type":"Point","coordinates":[-38.2811584,-7.9791197]}},{"type":"Feature","properties":{"nome":"José Tomé de Souza Ramos","osm_id":3723132629,"osm_tipo":"node","tipo_lugar":"neighbourhood"},"geometry":{"type":"Point","coordinates":[-38.2895194,-7.9795744]}},{"type":"Feature","properties":{"nome":"Nossa Senhora da Penha","osm_id":3723487495,"osm_tipo":"node","tipo_lugar":"neighbourhood"},"geometry":{"type":"Point","coordinates":[-38.297112,-7.9884399]}},{"type":"Feature","properties":{"nome":"São Cristovão","osm_id":3723489087,"osm_tipo":"node","tipo_lugar":"neighbourhood"},"geometry":{"type":"Point","coordinates":[-38.2928501,-7.9851549]}},{"type":"Feature","properties":{"nome":"José Alves Carvalho Nunes","osm_id":12559406823,"osm_tipo":"node","tipo_lugar":"suburb"},"geometry":{"type":"Point","coordinates":[-38.2738588,-7.9896851]}}]}