{"type":"FeatureCollection","features":[{"type":"Feature","properties":{"nome":"Coqueiro","osm_id":6089115668,"osm_tipo":"node","tipo_lugar":"suburb"},"geometry":{"type":"Point","coordinates":[-35.7675022,-7.862943]}},{"type":"Feature","properties":{"nome":"Diogo","osm_id":6089115669,"osm_tipo":"node","tipo_lugar":"suburb"},"geometry":{"type":"Point","coordinates":[-35.752532,-7.8269293]}},{"type":"Feature","properties":{"nome":"Bela Vista","osm_id":6089115670,"osm_tipo":"node","tipo_lugar":"suburb"},"geometry":{"type":"Point","coordinates":[-35.7611807,-7.8256779]}},{"type":"Feature","properties":{"nome":"Lagoa Nova","osm_id":6089115671,"osm_tipo":"node","tipo_lugar":"suburb"},"geometry":{"type":"Point","coordinates":[-35.7712281,-7.8323747]}},{"type":"Feature","properties":{"nome":"Chacara do Marinheiro","osm_id":6089115672,"osm_tipo":"node","tipo_lugar":"suburb"},"geometry":{"type":"Point","coordinates":[-35.7753924,-7.8447166]}},{"type":"Feature","properties":{"nome":"Centro","osm_id":6089115673,"osm_tipo":"node","tipo_lugar":"suburb"},"geometry":{"type":"Point","coordinates":[-35.7597157,-7.835483]}},{"type":"Feature","properties":{"nome":"São Jose","osm_id":6089115674,"osm_tipo":"node","tipo_lugar":"suburb"},"geometry":{"type":"Point","coordinates":[-35.7470498,-7.8372201]}},{"type":"Feature","properties":{"nome":"Santo Antonio","osm_id":6089115675,"osm_tipo":"node","tipo_lugar":"suburb"},"geometry":{"type":"Point","coordinates":[-35.7520216,-7.8524072]}},{"type":"Feature","properties":{"nome":"São Sebastião","osm_id":6089115676,"osm_tipo":"node","tipo_lugar":"suburb"},"geometry":{"type":"Point","coordinates":[-35.7616075,-7.8479619]}},{"type":"Feature","properties":{"nome":"Cabaceira","osm_id":6089115677,"osm_tipo":"node","tipo_lugar":"suburb"},"geometry":{"type":"Point","coordinates":[-35.7580315,-7.8415168]}}]}