{"type":"FeatureCollection","features":[{"type":"Feature","properties":{"nome":"Ribeirão São Paulo","osm_id":8612551308,"osm_tipo":"node","tipo_lugar":"neighbourhood"},"geometry":{"type":"Point","coordinates":[-49.4084936,-26.9578794]}},{"type":"Feature","properties":{"nome":"Centro","osm_id":9905955412,"osm_tipo":"node","tipo_lugar":"neighbourhood"},"geometry":{"type":"Point","coordinates":[-49.3764567,-26.9562164]}},{"type":"Feature","properties":{"nome":"Estação","osm_id":9905955413,"osm_tipo":"node","tipo_lugar":"neighbourhood"},"geometry":{"type":"Point","coordinates":[-49.3683531,-26.9613726]}},{"type":"Feature","properties":{"nome":"Nossa Senhora de Lurdes","osm_id":9945230280,"osm_tipo":"node","tipo_lugar":"neighbourhood"},"geometry":{"type":"Point","coordinates":[-49.380455,-26.9614848]}},{"type":"Feature","properties":{"nome":"Vila Nova","osm_id":9945475830,"osm_tipo":"node","tipo_lugar":"neighbourhood"},"geometry":{"type":"Point","coordinates":[-49.3871552,-26.9472259]}}]}