{"type":"FeatureCollection","features":[{"type":"Feature","properties":{"nome":"Areias Brancas","osm_id":2699415367,"osm_tipo":"node","tipo_lugar":"suburb"},"geometry":{"type":"Point","coordinates":[-49.399293,-28.9710977]}},{"type":"Feature","properties":{"nome":"Praia da Caçamba","osm_id":2793459954,"osm_tipo":"node","tipo_lugar":"suburb"},"geometry":{"type":"Point","coordinates":[-49.4658025,-29.0356051]}},{"type":"Feature","properties":{"nome":"Praia da Meta","osm_id":8607991399,"osm_tipo":"node","tipo_lugar":"suburb"},"geometry":{"type":"Point","coordinates":[-49.3876088,-28.9604595]}},{"type":"Feature","properties":{"nome":"Praia do Pescador","osm_id":8607991413,"osm_tipo":"node","tipo_lugar":"suburb"},"geometry":{"type":"Point","coordinates":[-49.4508172,-29.021547]}},{"type":"Feature","properties":{"nome":"Arpoador","osm_id":8607991414,"osm_tipo":"node","tipo_lugar":"suburb"},"geometry":{"type":"Point","coordinates":[-49.4768077,-29.0481802]}},{"type":"Feature","properties":{"nome":"Erechim","osm_id":9419863874,"osm_tipo":"node","tipo_lugar":"suburb"},"geometry":{"type":"Point","coordinates":[-49.4089275,-28.9789832]}},{"type":"Feature","properties":{"nome":"Centro","osm_id":9419863875,"osm_tipo":"node","tipo_lugar":"suburb"},"geometry":{"type":"Point","coordinates":[-49.416426,-28.9860314]}},{"type":"Feature","properties":{"nome":"Golden Park","osm_id":10755010516,"osm_tipo":"node","tipo_lugar":"suburb"},"geometry":{"type":"Point","coordinates":[-49.4312722,-28.9629799]}},{"type":"Feature","properties":{"nome":"Golfinhos","osm_id":10755010522,"osm_tipo":"node","tipo_lugar":"suburb"},"geometry":{"type":"Point","coordinates":[-49.4363254,-29.0041432]}},{"type":"Feature","properties":{"nome":"Jardim Atlântico","osm_id":10755010526,"osm_tipo":"node","tipo_lugar":"suburb"},"geometry":{"type":"Point","coordinates":[-49.4259646,-28.9955177]}},{"type":"Feature","properties":{"nome":"Praia da Lagoinha","osm_id":10755010543,"osm_tipo":"node","tipo_lugar":"suburb"},"geometry":{"type":"Point","coordinates":[-49.51316,-29.08808]}},{"type":"Feature","properties":{"nome":"Praia do Melão","osm_id":10755010557,"osm_tipo":"node","tipo_lugar":"suburb"},"geometry":{"type":"Point","coordinates":[-49.4604546,-29.0296813]}},{"type":"Feature","properties":{"nome":"Stellamaris","osm_id":10755010564,"osm_tipo":"node","tipo_lugar":"suburb"},"geometry":{"type":"Point","coordinates":[-49.4449601,-29.0112871]}}]}