{"type":"FeatureCollection","features":[{"type":"Feature","properties":{"nome":"Guaporanga","osm_id":416646674,"osm_tipo":"node","tipo_lugar":"suburb"},"geometry":{"type":"Point","coordinates":[-48.6340707,-27.4511672]}},{"type":"Feature","properties":{"nome":"Prado de Baixo","osm_id":4666471107,"osm_tipo":"node","tipo_lugar":"suburb"},"geometry":{"type":"Point","coordinates":[-48.6493246,-27.4901028]}},{"type":"Feature","properties":{"nome":"Prado","osm_id":4666473618,"osm_tipo":"node","tipo_lugar":"suburb"},"geometry":{"type":"Point","coordinates":[-48.6574328,-27.4832067]}},{"type":"Feature","properties":{"nome":"Saudade","osm_id":4666477589,"osm_tipo":"node","tipo_lugar":"suburb"},"geometry":{"type":"Point","coordinates":[-48.6641058,-27.4733887]}},{"type":"Feature","properties":{"nome":"Encruzilhada","osm_id":4666480491,"osm_tipo":"node","tipo_lugar":"suburb"},"geometry":{"type":"Point","coordinates":[-48.6756699,-27.464152]}},{"type":"Feature","properties":{"nome":"Centro","osm_id":4666488310,"osm_tipo":"node","tipo_lugar":"suburb"},"geometry":{"type":"Point","coordinates":[-48.654906,-27.4963318]}},{"type":"Feature","properties":{"nome":"Praia João Rosa","osm_id":4666491430,"osm_tipo":"node","tipo_lugar":"suburb"},"geometry":{"type":"Point","coordinates":[-48.641712,-27.5047506]}},{"type":"Feature","properties":{"nome":"Saveiro","osm_id":4666496272,"osm_tipo":"node","tipo_lugar":"suburb"},"geometry":{"type":"Point","coordinates":[-48.6384287,-27.5109592]}},{"type":"Feature","properties":{"nome":"Morro da Bina","osm_id":4666501739,"osm_tipo":"node","tipo_lugar":"suburb"},"geometry":{"type":"Point","coordinates":[-48.6358455,-27.516617]}},{"type":"Feature","properties":{"nome":"Mar das Pedras","osm_id":4666505944,"osm_tipo":"node","tipo_lugar":"suburb"},"geometry":{"type":"Point","coordinates":[-48.6336387,-27.5250551]}},{"type":"Feature","properties":{"nome":"Bom Viver","osm_id":4666511319,"osm_tipo":"node","tipo_lugar":"suburb"},"geometry":{"type":"Point","coordinates":[-48.6397191,-27.5319832]}},{"type":"Feature","properties":{"nome":"Jardim Janaína","osm_id":4666520377,"osm_tipo":"node","tipo_lugar":"suburb"},"geometry":{"type":"Point","coordinates":[-48.6437554,-27.5258282]}},{"type":"Feature","properties":{"nome":"Fundos","osm_id":4668084430,"osm_tipo":"node","tipo_lugar":"suburb"},"geometry":{"type":"Point","coordinates":[-48.6579928,-27.5160579]}},{"type":"Feature","properties":{"nome":"Rio Caveiras","osm_id":4668110181,"osm_tipo":"node","tipo_lugar":"suburb"},"geometry":{"type":"Point","coordinates":[-48.6483953,-27.510556]}},{"type":"Feature","properties":{"nome":"Universitário","osm_id":4668150388,"osm_tipo":"node","tipo_lugar":"suburb"},"geometry":{"type":"Point","coordinates":[-48.6581953,-27.4995181]}},{"type":"Feature","properties":{"nome":"Boa Vista","osm_id":4668171880,"osm_tipo":"node","tipo_lugar":"suburb"},"geometry":{"type":"Point","coordinates":[-48.664194,-27.5017751]}},{"type":"Feature","properties":{"nome":"Vendaval","osm_id":4668204479,"osm_tipo":"node","tipo_lugar":"suburb"},"geometry":{"type":"Point","coordinates":[-48.6653746,-27.4941064]}},{"type":"Feature","properties":{"nome":"Beira Rio","osm_id":4668218647,"osm_tipo":"node","tipo_lugar":"suburb"},"geometry":{"type":"Point","coordinates":[-48.6679167,-27.4833403]}},{"type":"Feature","properties":{"nome":"Tijuquinhas","osm_id":4668262332,"osm_tipo":"node","tipo_lugar":"suburb"},"geometry":{"type":"Point","coordinates":[-48.6271487,-27.4191687]}},{"type":"Feature","properties":{"nome":"São Miguel","osm_id":6901416352,"osm_tipo":"node","tipo_lugar":"suburb"},"geometry":{"type":"Point","coordinates":[-48.6406874,-27.4659053]}},{"type":"Feature","properties":{"nome":"Cachoeiras","osm_id":6901441304,"osm_tipo":"node","tipo_lugar":"suburb"},"geometry":{"type":"Point","coordinates":[-48.6340335,-27.3936383]}},{"type":"Feature","properties":{"nome":"Areias de Cima","osm_id":6901441317,"osm_tipo":"node","tipo_lugar":"suburb"},"geometry":{"type":"Point","coordinates":[-48.6349525,-27.3801738]}},{"type":"Feature","properties":{"nome":"Estiva","osm_id":6901441329,"osm_tipo":"node","tipo_lugar":"suburb"},"geometry":{"type":"Point","coordinates":[-48.6423658,-27.3604172]}},{"type":"Feature","properties":{"nome":"Loteamento Delta Ville","osm_id":9264656944,"osm_tipo":"node","tipo_lugar":"neighbourhood"},"geometry":{"type":"Point","coordinates":[-48.6696911,-27.4866038]}}]}