{"type":"FeatureCollection","features":[{"type":"Feature","properties":{"nome":"Avistoso","osm_id":416766595,"osm_tipo":"node","tipo_lugar":"suburb"},"geometry":{"type":"Point","coordinates":[-49.1201085,-28.2316041]}},{"type":"Feature","properties":{"nome":"Rio Bonito","osm_id":416766599,"osm_tipo":"node","tipo_lugar":"suburb"},"geometry":{"type":"Point","coordinates":[-49.1385906,-28.2763616]}},{"type":"Feature","properties":{"nome":"Travessão","osm_id":4726955573,"osm_tipo":"node","tipo_lugar":"suburb"},"geometry":{"type":"Point","coordinates":[-49.0880265,-28.3206503]}},{"type":"Feature","properties":{"nome":"Pinheiral","osm_id":8085969426,"osm_tipo":"node","tipo_lugar":"suburb"},"geometry":{"type":"Point","coordinates":[-49.0847898,-28.1991368]}},{"type":"Feature","properties":{"nome":"São Maurício","osm_id":8085969427,"osm_tipo":"node","tipo_lugar":"suburb"},"geometry":{"type":"Point","coordinates":[-49.1288638,-28.1657918]}},{"type":"Feature","properties":{"nome":"Baixo Pinheiral","osm_id":8085969431,"osm_tipo":"node","tipo_lugar":"suburb"},"geometry":{"type":"Point","coordinates":[-49.1004324,-28.2259775]}},{"type":"Feature","properties":{"nome":"Uruguaia","osm_id":8085969433,"osm_tipo":"node","tipo_lugar":"suburb"},"geometry":{"type":"Point","coordinates":[-49.1462875,-28.2549188]}},{"type":"Feature","properties":{"nome":"Alto Travessão","osm_id":8085969438,"osm_tipo":"node","tipo_lugar":"suburb"},"geometry":{"type":"Point","coordinates":[-49.1091442,-28.2965212]}},{"type":"Feature","properties":{"nome":"Açucena","osm_id":8085969439,"osm_tipo":"node","tipo_lugar":"suburb"},"geometry":{"type":"Point","coordinates":[-49.1217628,-28.3096635]}},{"type":"Feature","properties":{"nome":"União","osm_id":8085969440,"osm_tipo":"node","tipo_lugar":"suburb"},"geometry":{"type":"Point","coordinates":[-49.1760331,-28.2801392]}},{"type":"Feature","properties":{"nome":"São José","osm_id":8085969443,"osm_tipo":"node","tipo_lugar":"suburb"},"geometry":{"type":"Point","coordinates":[-49.1649127,-28.2118631]}},{"type":"Feature","properties":{"nome":"São Cristovão","osm_id":8118802378,"osm_tipo":"node","tipo_lugar":"suburb"},"geometry":{"type":"Point","coordinates":[-49.1825616,-28.2917221]}},{"type":"Feature","properties":{"nome":"Nossa Senhora de Fátima","osm_id":8118802390,"osm_tipo":"node","tipo_lugar":"suburb"},"geometry":{"type":"Point","coordinates":[-49.1675947,-28.2647921]}},{"type":"Feature","properties":{"nome":"Santa Augusta","osm_id":8118802391,"osm_tipo":"node","tipo_lugar":"suburb"},"geometry":{"type":"Point","coordinates":[-49.1626182,-28.271394]}},{"type":"Feature","properties":{"nome":"Vila Nova","osm_id":8118802392,"osm_tipo":"node","tipo_lugar":"suburb"},"geometry":{"type":"Point","coordinates":[-49.1774654,-28.2659375]}},{"type":"Feature","properties":{"nome":"Centro","osm_id":8118802393,"osm_tipo":"node","tipo_lugar":"suburb"},"geometry":{"type":"Point","coordinates":[-49.1650093,-28.2757079]}},{"type":"Feature","properties":{"nome":"São Francisco de Assis","osm_id":8118802394,"osm_tipo":"node","tipo_lugar":"suburb"},"geometry":{"type":"Point","coordinates":[-49.155834,-28.2729848]}},{"type":"Feature","properties":{"nome":"Coloninha","osm_id":8118802395,"osm_tipo":"node","tipo_lugar":"suburb"},"geometry":{"type":"Point","coordinates":[-49.1605997,-28.2779472]}},{"type":"Feature","properties":{"nome":"Trevo","osm_id":8118802396,"osm_tipo":"node","tipo_lugar":"suburb"},"geometry":{"type":"Point","coordinates":[-49.1565549,-28.2807533]}},{"type":"Feature","properties":{"nome":"Floresta","osm_id":8118802397,"osm_tipo":"node","tipo_lugar":"suburb"},"geometry":{"type":"Point","coordinates":[-49.1515768,-28.2764449]}},{"type":"Feature","properties":{"nome":"São Basílio","osm_id":8118802398,"osm_tipo":"node","tipo_lugar":"suburb"},"geometry":{"type":"Point","coordinates":[-49.1623163,-28.2835216]}},{"type":"Feature","properties":{"nome":"Nossa Senhora das Graças","osm_id":8118802399,"osm_tipo":"node","tipo_lugar":"suburb"},"geometry":{"type":"Point","coordinates":[-49.1460171,-28.2828716]}},{"type":"Feature","properties":{"nome":"São Januário","osm_id":8118802400,"osm_tipo":"node","tipo_lugar":"suburb"},"geometry":{"type":"Point","coordinates":[-49.1490432,-28.2930979]}},{"type":"Feature","properties":{"nome":"Bela Vista","osm_id":8118802401,"osm_tipo":"node","tipo_lugar":"suburb"},"geometry":{"type":"Point","coordinates":[-49.1552997,-28.2895719]}},{"type":"Feature","properties":{"nome":"Loteamento Santa Rosa de Lima","osm_id":9045653416,"osm_tipo":"node","tipo_lugar":"neighbourhood"},"geometry":{"type":"Point","coordinates":[-49.140687,-28.2705204]}},{"type":"Feature","properties":{"nome":"Loteamento Alínea Belvedere","osm_id":9955813182,"osm_tipo":"node","tipo_lugar":"neighbourhood"},"geometry":{"type":"Point","coordinates":[-49.1758132,-28.2949814]}},{"type":"Feature","properties":{"nome":"Loteamento Meurer","osm_id":9955813183,"osm_tipo":"node","tipo_lugar":"neighbourhood"},"geometry":{"type":"Point","coordinates":[-49.1723907,-28.2570262]}},{"type":"Feature","properties":{"nome":"Loteamento Morada Do Bosque","osm_id":9955813184,"osm_tipo":"node","tipo_lugar":"neighbourhood"},"geometry":{"type":"Point","coordinates":[-49.1596341,-28.2565065]}},{"type":"Feature","properties":{"nome":"Loteamento Laurita Michels","osm_id":9955813185,"osm_tipo":"node","tipo_lugar":"neighbourhood"},"geometry":{"type":"Point","coordinates":[-49.1507506,-28.282728]}},{"type":"Feature","properties":{"nome":"Loteamento Residencial Avistoso","osm_id":9955813186,"osm_tipo":"node","tipo_lugar":"neighbourhood"},"geometry":{"type":"Point","coordinates":[-49.1247869,-28.2288559]}},{"type":"Feature","properties":{"nome":"Santa Paulina","osm_id":12633802973,"osm_tipo":"node","tipo_lugar":"suburb"},"geometry":{"type":"Point","coordinates":[-49.1463885,-28.269433]}},{"type":"Feature","properties":{"nome":"Sertão do Rio Bonito","osm_id":12635927561,"osm_tipo":"node","tipo_lugar":"suburb"},"geometry":{"type":"Point","coordinates":[-49.1393119,-28.2842831]}},{"type":"Feature","properties":{"nome":"Santa Luzia","osm_id":12635940134,"osm_tipo":"node","tipo_lugar":"suburb"},"geometry":{"type":"Point","coordinates":[-49.1402541,-28.3074954]}},{"type":"Feature","properties":{"nome":"INSS","osm_id":12637740513,"osm_tipo":"node","tipo_lugar":"suburb"},"geometry":{"type":"Point","coordinates":[-49.1737431,-28.2697191]}},{"type":"Feature","properties":{"nome":"Represa","osm_id":12641195682,"osm_tipo":"node","tipo_lugar":"suburb"},"geometry":{"type":"Point","coordinates":[-49.1592055,-28.2385014]}},{"type":"Feature","properties":{"nome":"Rio Pequeno","osm_id":12641238117,"osm_tipo":"node","tipo_lugar":"suburb"},"geometry":{"type":"Point","coordinates":[-49.1712562,-28.2417075]}}]}