{"type":"FeatureCollection","features":[{"type":"Feature","properties":{"nome":"Linha Júlio de Castilho","osm_id":5115463283,"osm_tipo":"node","tipo_lugar":"neighbourhood"},"geometry":{"type":"Point","coordinates":[-52.682147,-26.8931049]}},{"type":"Feature","properties":{"nome":"Cinquentenário","osm_id":7856084878,"osm_tipo":"node","tipo_lugar":"neighbourhood"},"geometry":{"type":"Point","coordinates":[-52.6881224,-26.9064261]}},{"type":"Feature","properties":{"nome":"Irmã Colonata","osm_id":7858461890,"osm_tipo":"node","tipo_lugar":"neighbourhood"},"geometry":{"type":"Point","coordinates":[-52.6953397,-26.9115989]}},{"type":"Feature","properties":{"nome":"Loteamento Ângelo Pelizza","osm_id":7872042917,"osm_tipo":"node","tipo_lugar":"neighbourhood"},"geometry":{"type":"Point","coordinates":[-52.7062686,-26.8963087]}},{"type":"Feature","properties":{"nome":"Loteamento Maffessoni","osm_id":7872042918,"osm_tipo":"node","tipo_lugar":"neighbourhood"},"geometry":{"type":"Point","coordinates":[-52.7027066,-26.8952658]}},{"type":"Feature","properties":{"nome":"Loteamento Bortese","osm_id":7872042921,"osm_tipo":"node","tipo_lugar":"neighbourhood"},"geometry":{"type":"Point","coordinates":[-52.6982542,-26.9014085]}},{"type":"Feature","properties":{"nome":"São Sebastião","osm_id":7872042922,"osm_tipo":"node","tipo_lugar":"neighbourhood"},"geometry":{"type":"Point","coordinates":[-52.6982756,-26.9171369]}},{"type":"Feature","properties":{"nome":"Loteamento Jardim Itália","osm_id":7872042924,"osm_tipo":"node","tipo_lugar":"neighbourhood"},"geometry":{"type":"Point","coordinates":[-52.691082,-26.9060345]}},{"type":"Feature","properties":{"nome":"Loteamento Floresta II","osm_id":7872042925,"osm_tipo":"node","tipo_lugar":"neighbourhood"},"geometry":{"type":"Point","coordinates":[-52.6901861,-26.8924909]}},{"type":"Feature","properties":{"nome":"Loteamento Di Bernardi","osm_id":7872042927,"osm_tipo":"node","tipo_lugar":"neighbourhood"},"geometry":{"type":"Point","coordinates":[-52.7092834,-26.9194903]}},{"type":"Feature","properties":{"nome":"Loteamento Realiza I","osm_id":7872042928,"osm_tipo":"node","tipo_lugar":"neighbourhood"},"geometry":{"type":"Point","coordinates":[-52.6869245,-26.9072495]}},{"type":"Feature","properties":{"nome":"Loteamento Três Palmeiras","osm_id":7872042929,"osm_tipo":"node","tipo_lugar":"neighbourhood"},"geometry":{"type":"Point","coordinates":[-52.7097769,-26.9080867]}},{"type":"Feature","properties":{"nome":"Loteamento Francisco Milani","osm_id":7872042933,"osm_tipo":"node","tipo_lugar":"neighbourhood"},"geometry":{"type":"Point","coordinates":[-52.6898213,-26.908034]}}]}