{"type":"FeatureCollection","features":[{"type":"Feature","properties":{"nome":"Santa Cruz do Pery","osm_id":416646475,"osm_tipo":"node","tipo_lugar":"suburb"},"geometry":{"type":"Point","coordinates":[-50.6440512,-27.4343799]}},{"type":"Feature","properties":{"nome":"Marombas Bossardi","osm_id":416646541,"osm_tipo":"node","tipo_lugar":"suburb"},"geometry":{"type":"Point","coordinates":[-50.6325874,-27.1981204]}},{"type":"Feature","properties":{"nome":"Getúlio Vargas","osm_id":3646723966,"osm_tipo":"node","tipo_lugar":"suburb"},"geometry":{"type":"Point","coordinates":[-50.5724529,-27.3210311]}},{"type":"Feature","properties":{"nome":"Universitário","osm_id":3646723967,"osm_tipo":"node","tipo_lugar":"suburb"},"geometry":{"type":"Point","coordinates":[-50.5647173,-27.3066296]}},{"type":"Feature","properties":{"nome":"Água Santa","osm_id":3646726412,"osm_tipo":"node","tipo_lugar":"suburb"},"geometry":{"type":"Point","coordinates":[-50.5740534,-27.3087864]}},{"type":"Feature","properties":{"nome":"Bom Jesus","osm_id":3646759451,"osm_tipo":"node","tipo_lugar":"suburb"},"geometry":{"type":"Point","coordinates":[-50.565904,-27.2921869]}}]}