{"type":"FeatureCollection","features":[{"type":"Feature","properties":{"nome":"Sanga do Café","osm_id":4343436323,"osm_tipo":"node","tipo_lugar":"suburb"},"geometry":{"type":"Point","coordinates":[-49.5344306,-28.7817417]}},{"type":"Feature","properties":{"nome":"Santa Líbera","osm_id":4387233849,"osm_tipo":"node","tipo_lugar":"suburb"},"geometry":{"type":"Point","coordinates":[-49.4341682,-28.7308655]}},{"type":"Feature","properties":{"nome":"Santa Cruz","osm_id":4387235410,"osm_tipo":"node","tipo_lugar":"suburb"},"geometry":{"type":"Point","coordinates":[-49.4549317,-28.7255559]}},{"type":"Feature","properties":{"nome":"Santa Clara","osm_id":4387235586,"osm_tipo":"node","tipo_lugar":"suburb"},"geometry":{"type":"Point","coordinates":[-49.4834845,-28.7375628]}},{"type":"Feature","properties":{"nome":"Clarissas","osm_id":4387235597,"osm_tipo":"node","tipo_lugar":"suburb"},"geometry":{"type":"Point","coordinates":[-49.4705617,-28.740638]}},{"type":"Feature","properties":{"nome":"Vila Lourdes","osm_id":4387236481,"osm_tipo":"node","tipo_lugar":"suburb"},"geometry":{"type":"Point","coordinates":[-49.47535,-28.7283114]}},{"type":"Feature","properties":{"nome":"Loteamento Califórnia","osm_id":4387236992,"osm_tipo":"node","tipo_lugar":"neighbourhood"},"geometry":{"type":"Point","coordinates":[-49.4592377,-28.7188236]}},{"type":"Feature","properties":{"nome":"Loteamento Atlanta","osm_id":4387237272,"osm_tipo":"node","tipo_lugar":"neighbourhood"},"geometry":{"type":"Point","coordinates":[-49.4570436,-28.7146507]}},{"type":"Feature","properties":{"nome":"Loteamento Los Angeles","osm_id":4387237273,"osm_tipo":"node","tipo_lugar":"neighbourhood"},"geometry":{"type":"Point","coordinates":[-49.4491863,-28.7158532]}},{"type":"Feature","properties":{"nome":"Vila Feltrin","osm_id":4387240910,"osm_tipo":"node","tipo_lugar":"suburb"},"geometry":{"type":"Point","coordinates":[-49.42491,-28.7158058]}},{"type":"Feature","properties":{"nome":"Loteamento Luiz Tiscoski","osm_id":4387240911,"osm_tipo":"node","tipo_lugar":"neighbourhood"},"geometry":{"type":"Point","coordinates":[-49.4509543,-28.734607]}},{"type":"Feature","properties":{"nome":"Ouro Negro","osm_id":4387241813,"osm_tipo":"node","tipo_lugar":"suburb"},"geometry":{"type":"Point","coordinates":[-49.4383798,-28.7509509]}},{"type":"Feature","properties":{"nome":"Nova York","osm_id":4387241814,"osm_tipo":"node","tipo_lugar":"suburb"},"geometry":{"type":"Point","coordinates":[-49.4404032,-28.7570704]}},{"type":"Feature","properties":{"nome":"Vila Franca","osm_id":4387243316,"osm_tipo":"node","tipo_lugar":"suburb"},"geometry":{"type":"Point","coordinates":[-49.4472166,-28.7473003]}},{"type":"Feature","properties":{"nome":"Saturno","osm_id":4387243318,"osm_tipo":"node","tipo_lugar":"suburb"},"geometry":{"type":"Point","coordinates":[-49.4563189,-28.7467604]}},{"type":"Feature","properties":{"nome":"Passo de São Roque","osm_id":4387244275,"osm_tipo":"node","tipo_lugar":"suburb"},"geometry":{"type":"Point","coordinates":[-49.4285131,-28.7509469]}},{"type":"Feature","properties":{"nome":"Cidade Alta","osm_id":4387248356,"osm_tipo":"node","tipo_lugar":"suburb"},"geometry":{"type":"Point","coordinates":[-49.4158235,-28.7429587]}},{"type":"Feature","properties":{"nome":"Santa Isabel","osm_id":4387252731,"osm_tipo":"node","tipo_lugar":"suburb"},"geometry":{"type":"Point","coordinates":[-49.4897751,-28.7500748]}},{"type":"Feature","properties":{"nome":"Santa Ana","osm_id":4387252732,"osm_tipo":"node","tipo_lugar":"suburb"},"geometry":{"type":"Point","coordinates":[-49.4849516,-28.7566566]}},{"type":"Feature","properties":{"nome":"Centro","osm_id":4973952767,"osm_tipo":"node","tipo_lugar":"suburb"},"geometry":{"type":"Point","coordinates":[-49.4727758,-28.7507968]}},{"type":"Feature","properties":{"nome":"Loteamento Jardim Eldorado","osm_id":5159088912,"osm_tipo":"node","tipo_lugar":"neighbourhood"},"geometry":{"type":"Point","coordinates":[-49.4390512,-28.7337947]}}]}