{"type":"FeatureCollection","features":[{"type":"Feature","properties":{"nome":"Centro","osm_id":2888539489,"osm_tipo":"node","tipo_lugar":"suburb"},"geometry":{"type":"Point","coordinates":[-48.8531626,-26.0353223]}},{"type":"Feature","properties":{"nome":"Garuva Acima","osm_id":2888539490,"osm_tipo":"node","tipo_lugar":"suburb"},"geometry":{"type":"Point","coordinates":[-48.8612537,-26.0097578]}},{"type":"Feature","properties":{"nome":"Palmital","osm_id":2888539491,"osm_tipo":"node","tipo_lugar":"suburb"},"geometry":{"type":"Point","coordinates":[-48.8231317,-26.0406485]}},{"type":"Feature","properties":{"nome":"São João Abaixo","osm_id":2888539493,"osm_tipo":"node","tipo_lugar":"suburb"},"geometry":{"type":"Point","coordinates":[-48.8298508,-26.0117071]}},{"type":"Feature","properties":{"nome":"Urubuquara","osm_id":2888539496,"osm_tipo":"node","tipo_lugar":"suburb"},"geometry":{"type":"Point","coordinates":[-48.8582483,-26.0603963]}},{"type":"Feature","properties":{"nome":"Vila Trevo","osm_id":2888539497,"osm_tipo":"node","tipo_lugar":"suburb"},"geometry":{"type":"Point","coordinates":[-48.8641734,-26.0301242]}},{"type":"Feature","properties":{"nome":"Distrito Industrial Leste","osm_id":2892739285,"osm_tipo":"node","tipo_lugar":"suburb"},"geometry":{"type":"Point","coordinates":[-48.8312137,-26.0301709]}},{"type":"Feature","properties":{"nome":"Rio da Onça","osm_id":2894342603,"osm_tipo":"node","tipo_lugar":"suburb"},"geometry":{"type":"Point","coordinates":[-48.8420021,-26.0507398]}},{"type":"Feature","properties":{"nome":"Distrito Industrial Sul","osm_id":2894659707,"osm_tipo":"node","tipo_lugar":"suburb"},"geometry":{"type":"Point","coordinates":[-48.8586988,-26.0796395]}},{"type":"Feature","properties":{"nome":"Vila das Pedras","osm_id":9115704829,"osm_tipo":"node","tipo_lugar":"neighbourhood"},"geometry":{"type":"Point","coordinates":[-48.8623582,-26.0336525]}}]}