{"type":"FeatureCollection","features":[{"type":"Feature","properties":{"nome":"Belchior Alto","osm_id":273210533,"osm_tipo":"node","tipo_lugar":"suburb"},"geometry":{"type":"Point","coordinates":[-49.0215377,-26.8083858]}},{"type":"Feature","properties":{"nome":"Belchior Central","osm_id":273210744,"osm_tipo":"node","tipo_lugar":"suburb"},"geometry":{"type":"Point","coordinates":[-49.0355606,-26.8557527]}},{"type":"Feature","properties":{"nome":"Crucero de Gaspar (El Centro)","osm_id":1406889490,"osm_tipo":"node","tipo_lugar":"neighbourhood"},"geometry":{"type":"Point","coordinates":[-78.5311767,21.7499488]}},{"type":"Feature","properties":{"nome":"Belchior Baixo","osm_id":1724420686,"osm_tipo":"node","tipo_lugar":"suburb"},"geometry":{"type":"Point","coordinates":[-49.009626,-26.876414]}},{"type":"Feature","properties":{"nome":"Bela Vista","osm_id":3096532364,"osm_tipo":"node","tipo_lugar":"suburb"},"geometry":{"type":"Point","coordinates":[-49.0047589,-26.8966439]}},{"type":"Feature","properties":{"nome":"Centro","osm_id":3096532365,"osm_tipo":"node","tipo_lugar":"suburb"},"geometry":{"type":"Point","coordinates":[-48.9558841,-26.9330971]}},{"type":"Feature","properties":{"nome":"Coloninha","osm_id":3096532366,"osm_tipo":"node","tipo_lugar":"suburb"},"geometry":{"type":"Point","coordinates":[-48.9706922,-26.9279638]}},{"type":"Feature","properties":{"nome":"Figueira","osm_id":3096532367,"osm_tipo":"node","tipo_lugar":"suburb"},"geometry":{"type":"Point","coordinates":[-48.9949321,-26.916212]}},{"type":"Feature","properties":{"nome":"Sete de Setembro","osm_id":3096532368,"osm_tipo":"node","tipo_lugar":"suburb"},"geometry":{"type":"Point","coordinates":[-48.9424593,-26.9274739]}},{"type":"Feature","properties":{"nome":"Poço Grande","osm_id":3096619604,"osm_tipo":"node","tipo_lugar":"suburb"},"geometry":{"type":"Point","coordinates":[-48.9060319,-26.9215406]}},{"type":"Feature","properties":{"nome":"Santa Terezinha","osm_id":3096619605,"osm_tipo":"node","tipo_lugar":"suburb"},"geometry":{"type":"Point","coordinates":[-48.9250962,-26.9461585]}},{"type":"Feature","properties":{"nome":"Margem Esquerda","osm_id":3098111033,"osm_tipo":"node","tipo_lugar":"suburb"},"geometry":{"type":"Point","coordinates":[-48.9607275,-26.9052967]}},{"type":"Feature","properties":{"nome":"Arraial do Ouro","osm_id":3098124938,"osm_tipo":"node","tipo_lugar":"suburb"},"geometry":{"type":"Point","coordinates":[-48.9761269,-26.8572812]}},{"type":"Feature","properties":{"nome":"Lagoa","osm_id":3098124940,"osm_tipo":"node","tipo_lugar":"suburb"},"geometry":{"type":"Point","coordinates":[-48.9004641,-26.9047593]}},{"type":"Feature","properties":{"nome":"Alto Gasparinho","osm_id":3110125773,"osm_tipo":"node","tipo_lugar":"suburb"},"geometry":{"type":"Point","coordinates":[-48.9617981,-27.0055923]}},{"type":"Feature","properties":{"nome":"Bateias","osm_id":3110125774,"osm_tipo":"node","tipo_lugar":"suburb"},"geometry":{"type":"Point","coordinates":[-48.913097,-26.9951862]}},{"type":"Feature","properties":{"nome":"Gaspar Alto","osm_id":3110125775,"osm_tipo":"node","tipo_lugar":"suburb"},"geometry":{"type":"Point","coordinates":[-49.0344333,-27.016005]}},{"type":"Feature","properties":{"nome":"Gaspar Grande","osm_id":3110125776,"osm_tipo":"node","tipo_lugar":"suburb"},"geometry":{"type":"Point","coordinates":[-49.0201521,-26.959606]}},{"type":"Feature","properties":{"nome":"Gaspar Mirim","osm_id":3110125777,"osm_tipo":"node","tipo_lugar":"suburb"},"geometry":{"type":"Point","coordinates":[-48.9471518,-26.9524308]}},{"type":"Feature","properties":{"nome":"Gasparinho","osm_id":3110125778,"osm_tipo":"node","tipo_lugar":"suburb"},"geometry":{"type":"Point","coordinates":[-48.9692283,-26.9462424]}},{"type":"Feature","properties":{"nome":"Barracão","osm_id":3110217522,"osm_tipo":"node","tipo_lugar":"suburb"},"geometry":{"type":"Point","coordinates":[-48.8766108,-26.9868581]}},{"type":"Feature","properties":{"nome":"Macucos","osm_id":3110217523,"osm_tipo":"node","tipo_lugar":"suburb"},"geometry":{"type":"Point","coordinates":[-48.8729403,-26.9575451]}},{"type":"Feature","properties":{"nome":"Loteamento Novo Horizonte","osm_id":9588647036,"osm_tipo":"node","tipo_lugar":"neighbourhood"},"geometry":{"type":"Point","coordinates":[-48.9527714,-26.9453131]}},{"type":"Feature","properties":{"nome":"Loteamento Bela Vista Center","osm_id":9806800290,"osm_tipo":"node","tipo_lugar":"neighbourhood"},"geometry":{"type":"Point","coordinates":[-48.9945557,-26.8960953]}},{"type":"Feature","properties":{"nome":"Sertão Verde","osm_id":9879110911,"osm_tipo":"node","tipo_lugar":"neighbourhood"},"geometry":{"type":"Point","coordinates":[-48.9724481,-26.9130153]}},{"type":"Feature","properties":{"nome":"Loteamento Pouso Seguro","osm_id":12272193294,"osm_tipo":"node","tipo_lugar":"neighbourhood"},"geometry":{"type":"Point","coordinates":[-48.9066979,-26.9420527]}},{"type":"Feature","properties":{"nome":"Vila Sertão Verde","osm_id":227882698,"osm_tipo":"way","tipo_lugar":"neighbourhood"},"geometry":{"type":"Polygon","coordinates":[[[-48.9668479,-26.907468],[-48.9755189,-26.912746],[-48.9764692,-26.9062676],[-48.9788055,-26.9062048],[-48.9847369,-26.8998818],[-48.9868609,-26.9013821],[-48.9774455,-26.9140024],[-48.9647064,-26.9237426],[-48.961948,-26.921504],[-48.9596789,-26.912069],[-48.9512459,-26.910451],[-48.933728,-26.9017345],[-48.953624,-26.910173],[-48.9677681,-26.912186],[-48.9646739,-26.909667],[-48.9649799,-26.907836],[-48.9668479,-26.907468]]]}}]}