{"type":"FeatureCollection","features":[{"type":"Feature","properties":{"nome":"Imigrantes","osm_id":7056652405,"osm_tipo":"node","tipo_lugar":"suburb"},"geometry":{"type":"Point","coordinates":[-48.9615222,-27.0932834]}},{"type":"Feature","properties":{"nome":"Centro","osm_id":7056895380,"osm_tipo":"node","tipo_lugar":"suburb"},"geometry":{"type":"Point","coordinates":[-48.975835,-27.0858786]}},{"type":"Feature","properties":{"nome":"São Pedro","osm_id":7056942114,"osm_tipo":"node","tipo_lugar":"suburb"},"geometry":{"type":"Point","coordinates":[-48.9642782,-27.0666828]}},{"type":"Feature","properties":{"nome":"Alsácia","osm_id":7057230737,"osm_tipo":"node","tipo_lugar":"suburb"},"geometry":{"type":"Point","coordinates":[-48.9760053,-27.0580543]}},{"type":"Feature","properties":{"nome":"Lorena","osm_id":7057234777,"osm_tipo":"node","tipo_lugar":"suburb"},"geometry":{"type":"Point","coordinates":[-48.9866597,-27.0640445]}},{"type":"Feature","properties":{"nome":"Pomerânia","osm_id":7057258669,"osm_tipo":"node","tipo_lugar":"suburb"},"geometry":{"type":"Point","coordinates":[-48.9989074,-27.0694311]}},{"type":"Feature","properties":{"nome":"Adventista","osm_id":7058830911,"osm_tipo":"node","tipo_lugar":"suburb"},"geometry":{"type":"Point","coordinates":[-49.0268554,-27.1299953]}},{"type":"Feature","properties":{"nome":"Aymoré","osm_id":7058854123,"osm_tipo":"node","tipo_lugar":"suburb"},"geometry":{"type":"Point","coordinates":[-49.015292,-27.0851508]}},{"type":"Feature","properties":{"nome":"Planície Alta","osm_id":7058854535,"osm_tipo":"node","tipo_lugar":"suburb"},"geometry":{"type":"Point","coordinates":[-49.0312063,-27.1087414]}},{"type":"Feature","properties":{"nome":"Sternthal","osm_id":7058854732,"osm_tipo":"node","tipo_lugar":"suburb"},"geometry":{"type":"Point","coordinates":[-49.0341175,-27.0728184]}},{"type":"Feature","properties":{"nome":"Gruenerwinkel","osm_id":7058869146,"osm_tipo":"node","tipo_lugar":"suburb"},"geometry":{"type":"Point","coordinates":[-49.0379564,-27.0893677]}},{"type":"Feature","properties":{"nome":"Lageado Baixo","osm_id":7058877725,"osm_tipo":"node","tipo_lugar":"suburb"},"geometry":{"type":"Point","coordinates":[-49.0124258,-27.1273581]}},{"type":"Feature","properties":{"nome":"Lageado Alto","osm_id":7058916615,"osm_tipo":"node","tipo_lugar":"suburb"},"geometry":{"type":"Point","coordinates":[-49.0506958,-27.1292571]}},{"type":"Feature","properties":{"nome":"Guabiruba Sul","osm_id":7058937221,"osm_tipo":"node","tipo_lugar":"suburb"},"geometry":{"type":"Point","coordinates":[-48.9877857,-27.100747]}}]}