{"type":"FeatureCollection","features":[{"type":"Feature","properties":{"nome":"Itapirubá","osm_id":416647232,"osm_tipo":"node","tipo_lugar":"suburb"},"geometry":{"type":"Point","coordinates":[-48.711511,-28.3320538]}},{"type":"Feature","properties":{"nome":"Vila Nova","osm_id":416647239,"osm_tipo":"node","tipo_lugar":"suburb"},"geometry":{"type":"Point","coordinates":[-48.6871849,-28.2621275]}},{"type":"Feature","properties":{"nome":"Mirim","osm_id":416647240,"osm_tipo":"node","tipo_lugar":"suburb"},"geometry":{"type":"Point","coordinates":[-48.706516,-28.2287837]}},{"type":"Feature","properties":{"nome":"Village","osm_id":1822379717,"osm_tipo":"node","tipo_lugar":"suburb"},"geometry":{"type":"Point","coordinates":[-48.6728662,-28.2295934]}},{"type":"Feature","properties":{"nome":"Vila Nova Alvorada","osm_id":1822379719,"osm_tipo":"node","tipo_lugar":"suburb"},"geometry":{"type":"Point","coordinates":[-48.6720734,-28.2161227]}},{"type":"Feature","properties":{"nome":"Centro","osm_id":1822379720,"osm_tipo":"node","tipo_lugar":"suburb"},"geometry":{"type":"Point","coordinates":[-48.666801,-28.2379783]}},{"type":"Feature","properties":{"nome":"Paes Leme","osm_id":1822379721,"osm_tipo":"node","tipo_lugar":"suburb"},"geometry":{"type":"Point","coordinates":[-48.6752124,-28.2442543]}},{"type":"Feature","properties":{"nome":"Vila Alvorada","osm_id":3885406111,"osm_tipo":"node","tipo_lugar":"suburb"},"geometry":{"type":"Point","coordinates":[-48.6685245,-28.2221906]}},{"type":"Feature","properties":{"nome":"Praia do Rosa","osm_id":4765684051,"osm_tipo":"node","tipo_lugar":"neighbourhood"},"geometry":{"type":"Point","coordinates":[-48.645562,-28.1287706]}},{"type":"Feature","properties":{"nome":"Ibiraquera","osm_id":4767488082,"osm_tipo":"node","tipo_lugar":"suburb"},"geometry":{"type":"Point","coordinates":[-48.6627629,-28.1325451]}},{"type":"Feature","properties":{"nome":"Araçatuba","osm_id":5377970185,"osm_tipo":"node","tipo_lugar":"suburb"},"geometry":{"type":"Point","coordinates":[-48.6909657,-28.1261461]}},{"type":"Feature","properties":{"nome":"Penha","osm_id":5443514024,"osm_tipo":"node","tipo_lugar":"suburb"},"geometry":{"type":"Point","coordinates":[-48.7057428,-28.1051556]}},{"type":"Feature","properties":{"nome":"Alto Arroio","osm_id":5443545482,"osm_tipo":"node","tipo_lugar":"suburb"},"geometry":{"type":"Point","coordinates":[-48.6917434,-28.1561567]}},{"type":"Feature","properties":{"nome":"Arroio do Rosa","osm_id":5443658255,"osm_tipo":"node","tipo_lugar":"suburb"},"geometry":{"type":"Point","coordinates":[-48.6887271,-28.1724835]}},{"type":"Feature","properties":{"nome":"Arroio","osm_id":5443931007,"osm_tipo":"node","tipo_lugar":"suburb"},"geometry":{"type":"Point","coordinates":[-48.674341,-28.171146]}},{"type":"Feature","properties":{"nome":"Barra do Ibiraquera","osm_id":5443939644,"osm_tipo":"node","tipo_lugar":"suburb"},"geometry":{"type":"Point","coordinates":[-48.657353,-28.1586428]}},{"type":"Feature","properties":{"nome":"Vila Esperança","osm_id":5443960684,"osm_tipo":"node","tipo_lugar":"suburb"},"geometry":{"type":"Point","coordinates":[-48.6671452,-28.1935512]}},{"type":"Feature","properties":{"nome":"Vila Santo Antônio","osm_id":5446041187,"osm_tipo":"node","tipo_lugar":"suburb"},"geometry":{"type":"Point","coordinates":[-48.6948136,-28.2597728]}},{"type":"Feature","properties":{"nome":"Sagrada Família","osm_id":5446065628,"osm_tipo":"node","tipo_lugar":"suburb"},"geometry":{"type":"Point","coordinates":[-48.6972179,-28.2699764]}},{"type":"Feature","properties":{"nome":"Campo d'Aviação","osm_id":5446117625,"osm_tipo":"node","tipo_lugar":"suburb"},"geometry":{"type":"Point","coordinates":[-48.6948254,-28.27748]}},{"type":"Feature","properties":{"nome":"Porto da Vila","osm_id":5446127782,"osm_tipo":"node","tipo_lugar":"suburb"},"geometry":{"type":"Point","coordinates":[-48.703751,-28.268339]}},{"type":"Feature","properties":{"nome":"Morro do Mirim","osm_id":5446173220,"osm_tipo":"node","tipo_lugar":"suburb"},"geometry":{"type":"Point","coordinates":[-48.6985144,-28.2468866]}},{"type":"Feature","properties":{"nome":"Campestre","osm_id":5446846704,"osm_tipo":"node","tipo_lugar":"suburb"},"geometry":{"type":"Point","coordinates":[-48.7125434,-28.2191212]}},{"type":"Feature","properties":{"nome":"Nova Brasília","osm_id":5446951603,"osm_tipo":"node","tipo_lugar":"suburb"},"geometry":{"type":"Point","coordinates":[-48.7074676,-28.2110729]}},{"type":"Feature","properties":{"nome":"Sambaqui","osm_id":5446974271,"osm_tipo":"node","tipo_lugar":"suburb"},"geometry":{"type":"Point","coordinates":[-48.7126424,-28.1683662]}},{"type":"Feature","properties":{"nome":"Ribanceira","osm_id":5446987643,"osm_tipo":"node","tipo_lugar":"suburb"},"geometry":{"type":"Point","coordinates":[-48.6849765,-28.2168701]}},{"type":"Feature","properties":{"nome":"São Tomás","osm_id":5447007383,"osm_tipo":"node","tipo_lugar":"suburb"},"geometry":{"type":"Point","coordinates":[-48.7016796,-28.2867993]}},{"type":"Feature","properties":{"nome":"Guaiúba","osm_id":5447031189,"osm_tipo":"node","tipo_lugar":"suburb"},"geometry":{"type":"Point","coordinates":[-48.7149646,-28.2945461]}},{"type":"Feature","properties":{"nome":"Roça Grande","osm_id":5447082539,"osm_tipo":"node","tipo_lugar":"suburb"},"geometry":{"type":"Point","coordinates":[-48.7289211,-28.3205002]}},{"type":"Feature","properties":{"nome":"Campo d'Una","osm_id":7935737774,"osm_tipo":"node","tipo_lugar":"suburb"},"geometry":{"type":"Point","coordinates":[-48.6829308,-28.1091133]}},{"type":"Feature","properties":{"nome":"Boa Vista","osm_id":8512473962,"osm_tipo":"node","tipo_lugar":"suburb"},"geometry":{"type":"Point","coordinates":[-48.7374976,-28.3237742]}},{"type":"Feature","properties":{"nome":"Condomínio View Praia Da Vila","osm_id":9874295532,"osm_tipo":"node","tipo_lugar":"neighbourhood"},"geometry":{"type":"Point","coordinates":[-48.683888,-28.2612339]}},{"type":"Feature","properties":{"nome":"Loteamento Mirante da Baleia","osm_id":9961388641,"osm_tipo":"node","tipo_lugar":"neighbourhood"},"geometry":{"type":"Point","coordinates":[-48.6647773,-28.1941821]}}]}