{"type":"FeatureCollection","features":[{"type":"Feature","properties":{"nome":"Araucária","osm_id":3613037629,"osm_tipo":"node","tipo_lugar":"suburb"},"geometry":{"type":"Point","coordinates":[-50.3417259,-27.8427819]}},{"type":"Feature","properties":{"nome":"Caça e Tiro","osm_id":3613037630,"osm_tipo":"node","tipo_lugar":"suburb"},"geometry":{"type":"Point","coordinates":[-50.3190969,-27.8403757]}},{"type":"Feature","properties":{"nome":"Centenário","osm_id":3613037631,"osm_tipo":"node","tipo_lugar":"suburb"},"geometry":{"type":"Point","coordinates":[-50.3355279,-27.8342489]}},{"type":"Feature","properties":{"nome":"Promorar","osm_id":3613037633,"osm_tipo":"node","tipo_lugar":"suburb"},"geometry":{"type":"Point","coordinates":[-50.3616267,-27.8283521]}},{"type":"Feature","properties":{"nome":"Santa Catarina","osm_id":3613037634,"osm_tipo":"node","tipo_lugar":"suburb"},"geometry":{"type":"Point","coordinates":[-50.3470754,-27.8389983]}},{"type":"Feature","properties":{"nome":"Santa Clara","osm_id":3613037635,"osm_tipo":"node","tipo_lugar":"suburb"},"geometry":{"type":"Point","coordinates":[-50.3548486,-27.8434747]}},{"type":"Feature","properties":{"nome":"Santo Antônio","osm_id":3613037636,"osm_tipo":"node","tipo_lugar":"suburb"},"geometry":{"type":"Point","coordinates":[-50.3397346,-27.8316887]}},{"type":"Feature","properties":{"nome":"São Luiz","osm_id":3613037637,"osm_tipo":"node","tipo_lugar":"suburb"},"geometry":{"type":"Point","coordinates":[-50.3401248,-27.8366973]}},{"type":"Feature","properties":{"nome":"Santa Mônica","osm_id":3620530053,"osm_tipo":"node","tipo_lugar":"suburb"},"geometry":{"type":"Point","coordinates":[-50.3694354,-27.8007893]}},{"type":"Feature","properties":{"nome":"Copacabana","osm_id":3620530054,"osm_tipo":"node","tipo_lugar":"suburb"},"geometry":{"type":"Point","coordinates":[-50.3397383,-27.8203876]}},{"type":"Feature","properties":{"nome":"Ipiranga","osm_id":3620530055,"osm_tipo":"node","tipo_lugar":"suburb"},"geometry":{"type":"Point","coordinates":[-50.3479574,-27.813763]}},{"type":"Feature","properties":{"nome":"Petrópolis","osm_id":3620530056,"osm_tipo":"node","tipo_lugar":"suburb"},"geometry":{"type":"Point","coordinates":[-50.3466998,-27.8080141]}},{"type":"Feature","properties":{"nome":"Bela Vista","osm_id":3620617119,"osm_tipo":"node","tipo_lugar":"suburb"},"geometry":{"type":"Point","coordinates":[-50.3598375,-27.8220475]}},{"type":"Feature","properties":{"nome":"Santa Helena","osm_id":3620617120,"osm_tipo":"node","tipo_lugar":"suburb"},"geometry":{"type":"Point","coordinates":[-50.3477973,-27.8238836]}},{"type":"Feature","properties":{"nome":"Conta Dinheiro","osm_id":3620629976,"osm_tipo":"node","tipo_lugar":"suburb"},"geometry":{"type":"Point","coordinates":[-50.308015,-27.7904044]}},{"type":"Feature","properties":{"nome":"Coral","osm_id":3620629977,"osm_tipo":"node","tipo_lugar":"suburb"},"geometry":{"type":"Point","coordinates":[-50.3039416,-27.8081777]}},{"type":"Feature","properties":{"nome":"Guarujá","osm_id":3620629978,"osm_tipo":"node","tipo_lugar":"suburb"},"geometry":{"type":"Point","coordinates":[-50.2909088,-27.7819549]}},{"type":"Feature","properties":{"nome":"Habitação","osm_id":3620629979,"osm_tipo":"node","tipo_lugar":"suburb"},"geometry":{"type":"Point","coordinates":[-50.3172312,-27.8362967]}},{"type":"Feature","properties":{"nome":"Penha","osm_id":3620629980,"osm_tipo":"node","tipo_lugar":"suburb"},"geometry":{"type":"Point","coordinates":[-50.2847761,-27.8106427]}},{"type":"Feature","properties":{"nome":"Popular","osm_id":3620629981,"osm_tipo":"node","tipo_lugar":"suburb"},"geometry":{"type":"Point","coordinates":[-50.306123,-27.8258324]}},{"type":"Feature","properties":{"nome":"São Miguel","osm_id":3620629982,"osm_tipo":"node","tipo_lugar":"suburb"},"geometry":{"type":"Point","coordinates":[-50.2864295,-27.8180914]}},{"type":"Feature","properties":{"nome":"Vila Mariza","osm_id":3620629983,"osm_tipo":"node","tipo_lugar":"suburb"},"geometry":{"type":"Point","coordinates":[-50.278905,-27.7937608]}},{"type":"Feature","properties":{"nome":"Frei Rogério","osm_id":3620633610,"osm_tipo":"node","tipo_lugar":"suburb"},"geometry":{"type":"Point","coordinates":[-50.3183421,-27.8019991]}},{"type":"Feature","properties":{"nome":"Sagrado Coração de Jesus","osm_id":3620633611,"osm_tipo":"node","tipo_lugar":"suburb"},"geometry":{"type":"Point","coordinates":[-50.3146687,-27.8068685]}},{"type":"Feature","properties":{"nome":"São Cristóvão","osm_id":3620633612,"osm_tipo":"node","tipo_lugar":"suburb"},"geometry":{"type":"Point","coordinates":[-50.3120214,-27.8174908]}},{"type":"Feature","properties":{"nome":"Centro","osm_id":3620643884,"osm_tipo":"node","tipo_lugar":"suburb"},"geometry":{"type":"Point","coordinates":[-50.3262642,-27.8149736]}},{"type":"Feature","properties":{"nome":"Caroba","osm_id":3627231999,"osm_tipo":"node","tipo_lugar":"suburb"},"geometry":{"type":"Point","coordinates":[-50.3765709,-27.805689]}},{"type":"Feature","properties":{"nome":"Cidade Alta","osm_id":3627232000,"osm_tipo":"node","tipo_lugar":"suburb"},"geometry":{"type":"Point","coordinates":[-50.3885803,-27.8156764]}},{"type":"Feature","properties":{"nome":"Santa Cândida","osm_id":3627457345,"osm_tipo":"node","tipo_lugar":"suburb"},"geometry":{"type":"Point","coordinates":[-50.3619814,-27.8127371]}},{"type":"Feature","properties":{"nome":"Triângulo","osm_id":3627869487,"osm_tipo":"node","tipo_lugar":"suburb"},"geometry":{"type":"Point","coordinates":[-50.3388872,-27.8266426]}},{"type":"Feature","properties":{"nome":"Beatriz","osm_id":3628036199,"osm_tipo":"node","tipo_lugar":"suburb"},"geometry":{"type":"Point","coordinates":[-50.3370487,-27.8121243]}},{"type":"Feature","properties":{"nome":"São Pedro","osm_id":3628036200,"osm_tipo":"node","tipo_lugar":"suburb"},"geometry":{"type":"Point","coordinates":[-50.33837,-27.8086504]}},{"type":"Feature","properties":{"nome":"São Francisco","osm_id":3633206604,"osm_tipo":"node","tipo_lugar":"suburb"},"geometry":{"type":"Point","coordinates":[-50.3394217,-27.7981722]}},{"type":"Feature","properties":{"nome":"São Paulo","osm_id":3633206605,"osm_tipo":"node","tipo_lugar":"suburb"},"geometry":{"type":"Point","coordinates":[-50.337385,-27.7913452]}},{"type":"Feature","properties":{"nome":"Passo Fundo","osm_id":3633543433,"osm_tipo":"node","tipo_lugar":"suburb"},"geometry":{"type":"Point","coordinates":[-50.3162254,-27.7934364]}},{"type":"Feature","properties":{"nome":"Maria Luíza","osm_id":3633593527,"osm_tipo":"node","tipo_lugar":"suburb"},"geometry":{"type":"Point","coordinates":[-50.3113773,-27.7847656]}},{"type":"Feature","properties":{"nome":"Jardim Celina","osm_id":3633733395,"osm_tipo":"node","tipo_lugar":"suburb"},"geometry":{"type":"Point","coordinates":[-50.3074142,-27.7767209]}},{"type":"Feature","properties":{"nome":"Jardim das Camélias","osm_id":3633733396,"osm_tipo":"node","tipo_lugar":"suburb"},"geometry":{"type":"Point","coordinates":[-50.3303549,-27.7701981]}},{"type":"Feature","properties":{"nome":"Nossa Senhora Aparecida","osm_id":3633733397,"osm_tipo":"node","tipo_lugar":"suburb"},"geometry":{"type":"Point","coordinates":[-50.338661,-27.7651237]}},{"type":"Feature","properties":{"nome":"Restinga Seca","osm_id":3633733398,"osm_tipo":"node","tipo_lugar":"suburb"},"geometry":{"type":"Point","coordinates":[-50.3154556,-27.7672376]}},{"type":"Feature","properties":{"nome":"Tributos","osm_id":3634471238,"osm_tipo":"node","tipo_lugar":"suburb"},"geometry":{"type":"Point","coordinates":[-50.2933461,-27.7659412]}},{"type":"Feature","properties":{"nome":"Dom Daniel","osm_id":3635845274,"osm_tipo":"node","tipo_lugar":"suburb"},"geometry":{"type":"Point","coordinates":[-50.2996603,-27.78876]}},{"type":"Feature","properties":{"nome":"Gethal","osm_id":3635869310,"osm_tipo":"node","tipo_lugar":"suburb"},"geometry":{"type":"Point","coordinates":[-50.3017565,-27.795758]}},{"type":"Feature","properties":{"nome":"São Sebastião","osm_id":3635893688,"osm_tipo":"node","tipo_lugar":"suburb"},"geometry":{"type":"Point","coordinates":[-50.2958981,-27.7935066]}},{"type":"Feature","properties":{"nome":"Bates","osm_id":3635998336,"osm_tipo":"node","tipo_lugar":"suburb"},"geometry":{"type":"Point","coordinates":[-50.2906627,-27.792515]}},{"type":"Feature","properties":{"nome":"Chapada","osm_id":3635998337,"osm_tipo":"node","tipo_lugar":"suburb"},"geometry":{"type":"Point","coordinates":[-50.2591614,-27.7878908]}},{"type":"Feature","properties":{"nome":"Ponte Grande","osm_id":3635998338,"osm_tipo":"node","tipo_lugar":"suburb"},"geometry":{"type":"Point","coordinates":[-50.295576,-27.8043043]}},{"type":"Feature","properties":{"nome":"Santa Maria","osm_id":3635998339,"osm_tipo":"node","tipo_lugar":"suburb"},"geometry":{"type":"Point","coordinates":[-50.2994435,-27.8013243]}},{"type":"Feature","properties":{"nome":"Jardim Panorâmico","osm_id":3636000741,"osm_tipo":"node","tipo_lugar":"suburb"},"geometry":{"type":"Point","coordinates":[-50.2887675,-27.8017293]}},{"type":"Feature","properties":{"nome":"Caravágio","osm_id":3636092821,"osm_tipo":"node","tipo_lugar":"suburb"},"geometry":{"type":"Point","coordinates":[-50.3023432,-27.8176766]}},{"type":"Feature","properties":{"nome":"Ferrovia","osm_id":3636092822,"osm_tipo":"node","tipo_lugar":"suburb"},"geometry":{"type":"Point","coordinates":[-50.2985557,-27.8206032]}},{"type":"Feature","properties":{"nome":"Cruz de Malta","osm_id":3636114237,"osm_tipo":"node","tipo_lugar":"suburb"},"geometry":{"type":"Point","coordinates":[-50.3485273,-27.8574308]}},{"type":"Feature","properties":{"nome":"Pisani","osm_id":3636114238,"osm_tipo":"node","tipo_lugar":"suburb"},"geometry":{"type":"Point","coordinates":[-50.3010234,-27.7759738]}},{"type":"Feature","properties":{"nome":"Universitário","osm_id":3636114239,"osm_tipo":"node","tipo_lugar":"suburb"},"geometry":{"type":"Point","coordinates":[-50.3156992,-27.8248157]}},{"type":"Feature","properties":{"nome":"Várzea","osm_id":3636114240,"osm_tipo":"node","tipo_lugar":"suburb"},"geometry":{"type":"Point","coordinates":[-50.3082263,-27.8341155]}},{"type":"Feature","properties":{"nome":"Bom Jesus","osm_id":3641375503,"osm_tipo":"node","tipo_lugar":"suburb"},"geometry":{"type":"Point","coordinates":[-50.3225132,-27.8348336]}},{"type":"Feature","properties":{"nome":"Brusque","osm_id":3641650057,"osm_tipo":"node","tipo_lugar":"suburb"},"geometry":{"type":"Point","coordinates":[-50.3284414,-27.8231132]}},{"type":"Feature","properties":{"nome":"Morro Grande","osm_id":3641671018,"osm_tipo":"node","tipo_lugar":"suburb"},"geometry":{"type":"Point","coordinates":[-50.331792,-27.8336374]}},{"type":"Feature","properties":{"nome":"Vila Nova","osm_id":3641671019,"osm_tipo":"node","tipo_lugar":"suburb"},"geometry":{"type":"Point","coordinates":[-50.3260963,-27.8287858]}},{"type":"Feature","properties":{"nome":"Morro do Posto","osm_id":3697991424,"osm_tipo":"node","tipo_lugar":"suburb"},"geometry":{"type":"Point","coordinates":[-50.3318203,-27.8076215]}},{"type":"Feature","properties":{"nome":"Loteamento Gralha Azul","osm_id":4253342432,"osm_tipo":"node","tipo_lugar":"neighbourhood"},"geometry":{"type":"Point","coordinates":[-50.3416737,-27.8087462]}},{"type":"Feature","properties":{"nome":"Novo Milênio","osm_id":4315199476,"osm_tipo":"node","tipo_lugar":"neighbourhood"},"geometry":{"type":"Point","coordinates":[-50.3480859,-27.8476747]}},{"type":"Feature","properties":{"nome":"Vila Esperança","osm_id":4315213953,"osm_tipo":"node","tipo_lugar":"neighbourhood"},"geometry":{"type":"Point","coordinates":[-50.2944837,-27.7781738]}},{"type":"Feature","properties":{"nome":"CDL","osm_id":5686527245,"osm_tipo":"node","tipo_lugar":"suburb"},"geometry":{"type":"Point","coordinates":[-50.3362722,-27.7477837]}},{"type":"Feature","properties":{"nome":"Vista Alegre","osm_id":5686549108,"osm_tipo":"node","tipo_lugar":"suburb"},"geometry":{"type":"Point","coordinates":[-50.3707379,-27.7815763]}},{"type":"Feature","properties":{"nome":"Boqueirão","osm_id":5689382339,"osm_tipo":"node","tipo_lugar":"suburb"},"geometry":{"type":"Point","coordinates":[-50.3552752,-27.8038593]}},{"type":"Feature","properties":{"nome":"Área Industrial","osm_id":5689435161,"osm_tipo":"node","tipo_lugar":"suburb"},"geometry":{"type":"Point","coordinates":[-50.3665904,-27.8167125]}},{"type":"Feature","properties":{"nome":"Guadalupe","osm_id":5697430857,"osm_tipo":"node","tipo_lugar":"suburb"},"geometry":{"type":"Point","coordinates":[-50.3254143,-27.8073632]}},{"type":"Feature","properties":{"nome":"Vila Comboni","osm_id":5698029432,"osm_tipo":"node","tipo_lugar":"suburb"},"geometry":{"type":"Point","coordinates":[-50.3295142,-27.8033727]}},{"type":"Feature","properties":{"nome":"Vila Maria","osm_id":5707111229,"osm_tipo":"node","tipo_lugar":"suburb"},"geometry":{"type":"Point","coordinates":[-50.319208,-27.7847611]}},{"type":"Feature","properties":{"nome":"Santa Rita","osm_id":5709623360,"osm_tipo":"node","tipo_lugar":"suburb"},"geometry":{"type":"Point","coordinates":[-50.3316076,-27.826509]}},{"type":"Feature","properties":{"nome":"Carasinho","osm_id":8262638173,"osm_tipo":"node","tipo_lugar":"suburb"},"geometry":{"type":"Point","coordinates":[-50.4798318,-28.332265]}},{"type":"Feature","properties":{"nome":"Condomínio Ponte Grande","osm_id":13709894812,"osm_tipo":"node","tipo_lugar":"neighbourhood"},"geometry":{"type":"Point","coordinates":[-50.3025731,-27.833899]}}]}