{"type":"FeatureCollection","features":[{"type":"Feature","properties":{"nome":"Barro Branco","osm_id":416647243,"osm_tipo":"node","tipo_lugar":"suburb"},"geometry":{"type":"Point","coordinates":[-49.4122351,-28.4148814]}},{"type":"Feature","properties":{"nome":"Guatá","osm_id":416647244,"osm_tipo":"node","tipo_lugar":"suburb"},"geometry":{"type":"Point","coordinates":[-49.4384669,-28.3810827]}},{"type":"Feature","properties":{"nome":"Km 1","osm_id":4685076431,"osm_tipo":"node","tipo_lugar":"suburb"},"geometry":{"type":"Point","coordinates":[-49.4000944,-28.4031777]}},{"type":"Feature","properties":{"nome":"Arizona","osm_id":4685076432,"osm_tipo":"node","tipo_lugar":"suburb"},"geometry":{"type":"Point","coordinates":[-49.3811285,-28.3905487]}},{"type":"Feature","properties":{"nome":"Sumaré","osm_id":4685076433,"osm_tipo":"node","tipo_lugar":"suburb"},"geometry":{"type":"Point","coordinates":[-49.3901919,-28.3888902]}},{"type":"Feature","properties":{"nome":"Içarense","osm_id":7449855896,"osm_tipo":"node","tipo_lugar":"suburb"},"geometry":{"type":"Point","coordinates":[-49.3896496,-28.3860581]}},{"type":"Feature","properties":{"nome":"Bela Vista","osm_id":7449855900,"osm_tipo":"node","tipo_lugar":"suburb"},"geometry":{"type":"Point","coordinates":[-49.3916989,-28.3969122]}},{"type":"Feature","properties":{"nome":"Centro","osm_id":7449855913,"osm_tipo":"node","tipo_lugar":"suburb"},"geometry":{"type":"Point","coordinates":[-49.3935442,-28.3912305]}},{"type":"Feature","properties":{"nome":"Cairú","osm_id":7449855915,"osm_tipo":"node","tipo_lugar":"suburb"},"geometry":{"type":"Point","coordinates":[-49.3993271,-28.3908529]}},{"type":"Feature","properties":{"nome":"Santa Bárbara","osm_id":7449855918,"osm_tipo":"node","tipo_lugar":"suburb"},"geometry":{"type":"Point","coordinates":[-49.406569,-28.3915703]}},{"type":"Feature","properties":{"nome":"Castelo","osm_id":7449855921,"osm_tipo":"node","tipo_lugar":"suburb"},"geometry":{"type":"Point","coordinates":[-49.4055176,-28.3965536]}},{"type":"Feature","properties":{"nome":"Coletora","osm_id":7449855926,"osm_tipo":"node","tipo_lugar":"suburb"},"geometry":{"type":"Point","coordinates":[-49.4043374,-28.4138613]}},{"type":"Feature","properties":{"nome":"Barreiros","osm_id":7450525402,"osm_tipo":"node","tipo_lugar":"suburb"},"geometry":{"type":"Point","coordinates":[-49.441545,-28.3772135]}},{"type":"Feature","properties":{"nome":"Rio Bonito","osm_id":7450527230,"osm_tipo":"node","tipo_lugar":"suburb"},"geometry":{"type":"Point","coordinates":[-49.4202161,-28.4135782]}}]}