{"type":"FeatureCollection","features":[{"type":"Feature","properties":{"nome":"São José","osm_id":9930009952,"osm_tipo":"node","tipo_lugar":"neighbourhood"},"geometry":{"type":"Point","coordinates":[-50.9836757,-27.2274914]}},{"type":"Feature","properties":{"nome":"São Carlos","osm_id":9930009990,"osm_tipo":"node","tipo_lugar":"neighbourhood"},"geometry":{"type":"Point","coordinates":[-50.9766591,-27.2308876]}},{"type":"Feature","properties":{"nome":"Centro","osm_id":9930041833,"osm_tipo":"node","tipo_lugar":"neighbourhood"},"geometry":{"type":"Point","coordinates":[-50.978204,-27.2227499]}},{"type":"Feature","properties":{"nome":"Pôr do Sol","osm_id":9930041875,"osm_tipo":"node","tipo_lugar":"neighbourhood"},"geometry":{"type":"Point","coordinates":[-50.9783971,-27.2165198]}},{"type":"Feature","properties":{"nome":"Santo Antônio","osm_id":9930041909,"osm_tipo":"node","tipo_lugar":"neighbourhood"},"geometry":{"type":"Point","coordinates":[-50.9759483,-27.21293]}}]}