{"type":"FeatureCollection","features":[{"type":"Feature","properties":{"nome":"Sul Brasil","osm_id":4715470526,"osm_tipo":"node","tipo_lugar":"neighbourhood"},"geometry":{"type":"Point","coordinates":[-50.1444698,-26.9437565]}},{"type":"Feature","properties":{"nome":"Guanabara","osm_id":4715471229,"osm_tipo":"node","tipo_lugar":"neighbourhood"},"geometry":{"type":"Point","coordinates":[-50.1378682,-26.9421184]}},{"type":"Feature","properties":{"nome":"Centro","osm_id":4715471237,"osm_tipo":"node","tipo_lugar":"neighbourhood"},"geometry":{"type":"Point","coordinates":[-50.1408829,-26.9476162]}},{"type":"Feature","properties":{"nome":"Cruzeiro","osm_id":6970135318,"osm_tipo":"node","tipo_lugar":"neighbourhood"},"geometry":{"type":"Point","coordinates":[-50.136559,-26.9445193]}},{"type":"Feature","properties":{"nome":"Floresta","osm_id":6970162201,"osm_tipo":"node","tipo_lugar":"neighbourhood"},"geometry":{"type":"Point","coordinates":[-50.1397026,-26.9515678]}}]}