{"type":"FeatureCollection","features":[{"type":"Feature","properties":{"nome":"Rodeio Doze","osm_id":8612414935,"osm_tipo":"node","tipo_lugar":"suburb"},"geometry":{"type":"Point","coordinates":[-49.3246367,-26.8459563]}},{"type":"Feature","properties":{"nome":"São Pedro Velho","osm_id":8612599457,"osm_tipo":"node","tipo_lugar":"suburb"},"geometry":{"type":"Point","coordinates":[-49.3913134,-26.9227063]}},{"type":"Feature","properties":{"nome":"Diamante","osm_id":9896498134,"osm_tipo":"node","tipo_lugar":"suburb"},"geometry":{"type":"Point","coordinates":[-49.3335915,-26.9616665]}},{"type":"Feature","properties":{"nome":"Bairro dos Lagos","osm_id":9896498145,"osm_tipo":"node","tipo_lugar":"suburb"},"geometry":{"type":"Point","coordinates":[-49.3306518,-26.8298535]}},{"type":"Feature","properties":{"nome":"Kaspereit","osm_id":9896498146,"osm_tipo":"node","tipo_lugar":"suburb"},"geometry":{"type":"Point","coordinates":[-49.3379474,-26.8263877]}},{"type":"Feature","properties":{"nome":"São Pedro Novo","osm_id":9896498147,"osm_tipo":"node","tipo_lugar":"suburb"},"geometry":{"type":"Point","coordinates":[-49.3781162,-26.9080643]}},{"type":"Feature","properties":{"nome":"Glória","osm_id":9896498148,"osm_tipo":"node","tipo_lugar":"suburb"},"geometry":{"type":"Point","coordinates":[-49.3675697,-26.9378911]}},{"type":"Feature","properties":{"nome":"Nova Brasília","osm_id":9896498149,"osm_tipo":"node","tipo_lugar":"suburb"},"geometry":{"type":"Point","coordinates":[-49.3736315,-26.9416404]}},{"type":"Feature","properties":{"nome":"Centro","osm_id":9896498193,"osm_tipo":"node","tipo_lugar":"suburb"},"geometry":{"type":"Point","coordinates":[-49.3693043,-26.9242627]}},{"type":"Feature","properties":{"nome":"Gávea","osm_id":9896498194,"osm_tipo":"node","tipo_lugar":"suburb"},"geometry":{"type":"Point","coordinates":[-49.3622214,-26.9071254]}},{"type":"Feature","properties":{"nome":"Loteamento Villa de Fiori","osm_id":10286844391,"osm_tipo":"node","tipo_lugar":"neighbourhood"},"geometry":{"type":"Point","coordinates":[-49.3291605,-26.8543744]}}]}