{"type":"FeatureCollection","features":[{"type":"Feature","properties":{"nome":"Barreiros","osm_id":416646677,"osm_tipo":"node","tipo_lugar":"suburb"},"geometry":{"type":"Point","coordinates":[-48.607138,-27.5735341]}},{"type":"Feature","properties":{"nome":"Campinas","osm_id":1709346516,"osm_tipo":"node","tipo_lugar":"suburb"},"geometry":{"type":"Point","coordinates":[-48.6073479,-27.5951118]}},{"type":"Feature","properties":{"nome":"Kobrasol","osm_id":1709346523,"osm_tipo":"node","tipo_lugar":"suburb"},"geometry":{"type":"Point","coordinates":[-48.6163479,-27.6008766]}},{"type":"Feature","properties":{"nome":"Forquilhinha","osm_id":1792278656,"osm_tipo":"node","tipo_lugar":"suburb"},"geometry":{"type":"Point","coordinates":[-48.6423669,-27.5984377]}},{"type":"Feature","properties":{"nome":"Picadas do Sul","osm_id":1820933823,"osm_tipo":"node","tipo_lugar":"suburb"},"geometry":{"type":"Point","coordinates":[-48.6446398,-27.6095067]}},{"type":"Feature","properties":{"nome":"Colônia Santana","osm_id":2835005207,"osm_tipo":"node","tipo_lugar":"suburb"},"geometry":{"type":"Point","coordinates":[-48.7162769,-27.5850596]}},{"type":"Feature","properties":{"nome":"Sertão do Maruim","osm_id":3711142028,"osm_tipo":"node","tipo_lugar":"suburb"},"geometry":{"type":"Point","coordinates":[-48.6817238,-27.5968743]}},{"type":"Feature","properties":{"nome":"Serraria","osm_id":4669191493,"osm_tipo":"node","tipo_lugar":"suburb"},"geometry":{"type":"Point","coordinates":[-48.632631,-27.5397505]}},{"type":"Feature","properties":{"nome":"Areias","osm_id":4669277286,"osm_tipo":"node","tipo_lugar":"suburb"},"geometry":{"type":"Point","coordinates":[-48.631203,-27.5550512]}},{"type":"Feature","properties":{"nome":"Jardim Santiago","osm_id":4669323084,"osm_tipo":"node","tipo_lugar":"suburb"},"geometry":{"type":"Point","coordinates":[-48.6177361,-27.5523722]}},{"type":"Feature","properties":{"nome":"Ipiranga","osm_id":4669463109,"osm_tipo":"node","tipo_lugar":"suburb"},"geometry":{"type":"Point","coordinates":[-48.627047,-27.5656757]}},{"type":"Feature","properties":{"nome":"Real Parque","osm_id":4669557498,"osm_tipo":"node","tipo_lugar":"suburb"},"geometry":{"type":"Point","coordinates":[-48.6403727,-27.5662476]}},{"type":"Feature","properties":{"nome":"Jardim Cidade de Florianópolis","osm_id":4669688864,"osm_tipo":"node","tipo_lugar":"suburb"},"geometry":{"type":"Point","coordinates":[-48.6259407,-27.5709405]}},{"type":"Feature","properties":{"nome":"Bela Vista","osm_id":4669783599,"osm_tipo":"node","tipo_lugar":"suburb"},"geometry":{"type":"Point","coordinates":[-48.620828,-27.5731203]}},{"type":"Feature","properties":{"nome":"Nossa Senhora do Rosário","osm_id":4669859179,"osm_tipo":"node","tipo_lugar":"suburb"},"geometry":{"type":"Point","coordinates":[-48.6182578,-27.579236]}},{"type":"Feature","properties":{"nome":"Roçado","osm_id":4670063863,"osm_tipo":"node","tipo_lugar":"suburb"},"geometry":{"type":"Point","coordinates":[-48.6204294,-27.5932465]}},{"type":"Feature","properties":{"nome":"São Luiz","osm_id":4670086184,"osm_tipo":"node","tipo_lugar":"suburb"},"geometry":{"type":"Point","coordinates":[-48.6316406,-27.5979635]}},{"type":"Feature","properties":{"nome":"Praia Comprida","osm_id":4670223564,"osm_tipo":"node","tipo_lugar":"suburb"},"geometry":{"type":"Point","coordinates":[-48.6251912,-27.6041963]}},{"type":"Feature","properties":{"nome":"Centro Histórico","osm_id":4670243629,"osm_tipo":"node","tipo_lugar":"suburb"},"geometry":{"type":"Point","coordinates":[-48.6275277,-27.616]}},{"type":"Feature","properties":{"nome":"Fazenda Santo Antônio","osm_id":4670251252,"osm_tipo":"node","tipo_lugar":"suburb"},"geometry":{"type":"Point","coordinates":[-48.6384065,-27.6199858]}},{"type":"Feature","properties":{"nome":"Ponta de Baixo","osm_id":4670254757,"osm_tipo":"node","tipo_lugar":"suburb"},"geometry":{"type":"Point","coordinates":[-48.6349003,-27.6348668]}},{"type":"Feature","properties":{"nome":"Distrito Industrial","osm_id":4670257963,"osm_tipo":"node","tipo_lugar":"suburb"},"geometry":{"type":"Point","coordinates":[-48.6494359,-27.6194919]}},{"type":"Feature","properties":{"nome":"Flor de Nápolis","osm_id":4670266283,"osm_tipo":"node","tipo_lugar":"suburb"},"geometry":{"type":"Point","coordinates":[-48.6447575,-27.6052391]}},{"type":"Feature","properties":{"nome":"Bosque das Mansões","osm_id":4670334308,"osm_tipo":"node","tipo_lugar":"suburb"},"geometry":{"type":"Point","coordinates":[-48.6276745,-27.5845762]}},{"type":"Feature","properties":{"nome":"Potecas","osm_id":4670336964,"osm_tipo":"node","tipo_lugar":"suburb"},"geometry":{"type":"Point","coordinates":[-48.6413192,-27.5796766]}},{"type":"Feature","properties":{"nome":"Forquilhas","osm_id":4670346589,"osm_tipo":"node","tipo_lugar":"suburb"},"geometry":{"type":"Point","coordinates":[-48.6703556,-27.5760522]}},{"type":"Feature","properties":{"nome":"Pedregal","osm_id":4670376761,"osm_tipo":"node","tipo_lugar":"suburb"},"geometry":{"type":"Point","coordinates":[-48.6432245,-27.5725284]}},{"type":"Feature","properties":{"nome":"Parque Residencial Lisboa","osm_id":5840495280,"osm_tipo":"node","tipo_lugar":"neighbourhood"},"geometry":{"type":"Point","coordinates":[-48.6683393,-27.5783145]}},{"type":"Feature","properties":{"nome":"Loteamento Jardim Los Angeles","osm_id":8612634520,"osm_tipo":"node","tipo_lugar":"neighbourhood"},"geometry":{"type":"Point","coordinates":[-48.6729457,-27.5759723]}},{"type":"Feature","properties":{"nome":"Loteamento Santos Dumont","osm_id":8612634523,"osm_tipo":"node","tipo_lugar":"neighbourhood"},"geometry":{"type":"Point","coordinates":[-48.6816339,-27.6025026]}},{"type":"Feature","properties":{"nome":"Loteamento Mello","osm_id":8612634524,"osm_tipo":"node","tipo_lugar":"neighbourhood"},"geometry":{"type":"Point","coordinates":[-48.67603,-27.5752897]}},{"type":"Feature","properties":{"nome":"Núcleo Residencial da Granja Macedo","osm_id":8612634525,"osm_tipo":"node","tipo_lugar":"neighbourhood"},"geometry":{"type":"Point","coordinates":[-48.6962633,-27.5852214]}},{"type":"Feature","properties":{"nome":"Loteamento Lisboa III","osm_id":9202960049,"osm_tipo":"node","tipo_lugar":"neighbourhood"},"geometry":{"type":"Point","coordinates":[-48.6808044,-27.5721213]}},{"type":"Feature","properties":{"nome":"Bosque da Pedra Residence Park","osm_id":9202960263,"osm_tipo":"node","tipo_lugar":"neighbourhood"},"geometry":{"type":"Point","coordinates":[-48.6888173,-27.5996687]}},{"type":"Feature","properties":{"nome":"Loteamento Seu Botinha","osm_id":9783968091,"osm_tipo":"node","tipo_lugar":"neighbourhood"},"geometry":{"type":"Point","coordinates":[-48.6881045,-27.6038192]}}]}