{"type":"FeatureCollection","features":[{"type":"Feature","properties":{"nome":"Praia do Ervino","osm_id":273202670,"osm_tipo":"node","tipo_lugar":"suburb"},"geometry":{"type":"Point","coordinates":[-48.5923505,-26.4002283]}},{"type":"Feature","properties":{"nome":"Ubatuba","osm_id":416657993,"osm_tipo":"node","tipo_lugar":"suburb"},"geometry":{"type":"Point","coordinates":[-48.5385654,-26.1984317]}},{"type":"Feature","properties":{"nome":"Vila da Glória","osm_id":2988429531,"osm_tipo":"node","tipo_lugar":"suburb"},"geometry":{"type":"Point","coordinates":[-48.6801343,-26.2216827]}},{"type":"Feature","properties":{"nome":"Centro","osm_id":2998373834,"osm_tipo":"node","tipo_lugar":"suburb"},"geometry":{"type":"Point","coordinates":[-48.6352955,-26.2436644]}},{"type":"Feature","properties":{"nome":"Enseada","osm_id":2998373835,"osm_tipo":"node","tipo_lugar":"suburb"},"geometry":{"type":"Point","coordinates":[-48.5061023,-26.2270218]}},{"type":"Feature","properties":{"nome":"Iperoba","osm_id":2998373836,"osm_tipo":"node","tipo_lugar":"suburb"},"geometry":{"type":"Point","coordinates":[-48.5632987,-26.2152508]}},{"type":"Feature","properties":{"nome":"Laranjeiras","osm_id":2998373837,"osm_tipo":"node","tipo_lugar":"suburb"},"geometry":{"type":"Point","coordinates":[-48.6651571,-26.278302]}},{"type":"Feature","properties":{"nome":"Morro Grande","osm_id":2998373838,"osm_tipo":"node","tipo_lugar":"suburb"},"geometry":{"type":"Point","coordinates":[-48.6331918,-26.2816788]}},{"type":"Feature","properties":{"nome":"Paulas","osm_id":2998373839,"osm_tipo":"node","tipo_lugar":"suburb"},"geometry":{"type":"Point","coordinates":[-48.6108204,-26.2340643]}},{"type":"Feature","properties":{"nome":"Praia Grande","osm_id":2998373840,"osm_tipo":"node","tipo_lugar":"suburb"},"geometry":{"type":"Point","coordinates":[-48.5058162,-26.2370149]}},{"type":"Feature","properties":{"nome":"Reta","osm_id":2998373841,"osm_tipo":"node","tipo_lugar":"suburb"},"geometry":{"type":"Point","coordinates":[-48.5968227,-26.242215]}},{"type":"Feature","properties":{"nome":"Rocio Grande","osm_id":2998373842,"osm_tipo":"node","tipo_lugar":"suburb"},"geometry":{"type":"Point","coordinates":[-48.6429954,-26.2756862]}},{"type":"Feature","properties":{"nome":"Rocio Pequeno","osm_id":2998373843,"osm_tipo":"node","tipo_lugar":"suburb"},"geometry":{"type":"Point","coordinates":[-48.6238464,-26.2428866]}},{"type":"Feature","properties":{"nome":"São José do Acaraí","osm_id":2998373844,"osm_tipo":"node","tipo_lugar":"suburb"},"geometry":{"type":"Point","coordinates":[-48.6243126,-26.2579211]}},{"type":"Feature","properties":{"nome":"Água Branca","osm_id":2998373845,"osm_tipo":"node","tipo_lugar":"suburb"},"geometry":{"type":"Point","coordinates":[-48.6294613,-26.264692]}},{"type":"Feature","properties":{"nome":"Balneário Recreio","osm_id":8612653263,"osm_tipo":"node","tipo_lugar":"neighbourhood"},"geometry":{"type":"Point","coordinates":[-48.5216576,-26.225077]}},{"type":"Feature","properties":{"nome":"Balneário Enseada","osm_id":8612653264,"osm_tipo":"node","tipo_lugar":"neighbourhood"},"geometry":{"type":"Point","coordinates":[-48.5081493,-26.2310072]}},{"type":"Feature","properties":{"nome":"Balneário Majorca","osm_id":8612653265,"osm_tipo":"node","tipo_lugar":"neighbourhood"},"geometry":{"type":"Point","coordinates":[-48.5219975,-26.232074]}},{"type":"Feature","properties":{"nome":"Loteamento Jardim Mar e Sol","osm_id":8612662601,"osm_tipo":"node","tipo_lugar":"neighbourhood"},"geometry":{"type":"Point","coordinates":[-48.6009287,-26.4291474]}},{"type":"Feature","properties":{"nome":"Loteamento Jardim Noêmia","osm_id":8612662602,"osm_tipo":"node","tipo_lugar":"neighbourhood"},"geometry":{"type":"Point","coordinates":[-48.5923915,-26.3937645]}},{"type":"Feature","properties":{"nome":"Loteamento Jardim Francismar","osm_id":8612662603,"osm_tipo":"node","tipo_lugar":"neighbourhood"},"geometry":{"type":"Point","coordinates":[-48.5867705,-26.3836535]}},{"type":"Feature","properties":{"nome":"Loteamento Jardim Tamboretes","osm_id":8612662604,"osm_tipo":"node","tipo_lugar":"neighbourhood"},"geometry":{"type":"Point","coordinates":[-48.5904652,-26.389003]}},{"type":"Feature","properties":{"nome":"Loteamento Jardim Curitiba","osm_id":8612662605,"osm_tipo":"node","tipo_lugar":"neighbourhood"},"geometry":{"type":"Point","coordinates":[-48.5964958,-26.4030402]}},{"type":"Feature","properties":{"nome":"Loteamento Jardim Giovana","osm_id":8989261224,"osm_tipo":"node","tipo_lugar":"neighbourhood"},"geometry":{"type":"Point","coordinates":[-48.5476273,-26.2106374]}},{"type":"Feature","properties":{"nome":"Loteamento Cidade do Capri","osm_id":903828039,"osm_tipo":"way","tipo_lugar":"neighbourhood"},"geometry":{"type":"Polygon","coordinates":[[[-48.5369373,-26.1784838],[-48.5386041,-26.1743337],[-48.5441963,-26.1760833],[-48.5426794,-26.1803379],[-48.5369373,-26.1784838]]]}}]}