{"type":"FeatureCollection","features":[{"type":"Feature","properties":{"nome":"Barra do Norte","osm_id":4201268391,"osm_tipo":"node","tipo_lugar":"suburb"},"geometry":{"type":"Point","coordinates":[-49.1418812,-28.4112708]}},{"type":"Feature","properties":{"nome":"KM2","osm_id":4906715646,"osm_tipo":"node","tipo_lugar":"suburb"},"geometry":{"type":"Point","coordinates":[-49.1544736,-28.3193139]}},{"type":"Feature","properties":{"nome":"Laranjeiras","osm_id":4906715647,"osm_tipo":"node","tipo_lugar":"suburb"},"geometry":{"type":"Point","coordinates":[-49.1873038,-28.3443775]}},{"type":"Feature","properties":{"nome":"Encosta do Sol","osm_id":4906715648,"osm_tipo":"node","tipo_lugar":"suburb"},"geometry":{"type":"Point","coordinates":[-49.1759795,-28.3374464]}},{"type":"Feature","properties":{"nome":"Nossa Senhora Aparecida","osm_id":4906715649,"osm_tipo":"node","tipo_lugar":"suburb"},"geometry":{"type":"Point","coordinates":[-49.1827655,-28.3270206]}},{"type":"Feature","properties":{"nome":"Dona Jordina","osm_id":4906715650,"osm_tipo":"node","tipo_lugar":"suburb"},"geometry":{"type":"Point","coordinates":[-49.1866225,-28.3276675]}},{"type":"Feature","properties":{"nome":"Bela Vista","osm_id":4906715651,"osm_tipo":"node","tipo_lugar":"suburb"},"geometry":{"type":"Point","coordinates":[-49.1805929,-28.3312987]}},{"type":"Feature","properties":{"nome":"Beira Rio","osm_id":4906715652,"osm_tipo":"node","tipo_lugar":"suburb"},"geometry":{"type":"Point","coordinates":[-49.1763711,-28.3292163]}},{"type":"Feature","properties":{"nome":"Jardins","osm_id":4906715653,"osm_tipo":"node","tipo_lugar":"suburb"},"geometry":{"type":"Point","coordinates":[-49.1683459,-28.3366626]}},{"type":"Feature","properties":{"nome":"Divina Providência","osm_id":4906715654,"osm_tipo":"node","tipo_lugar":"suburb"},"geometry":{"type":"Point","coordinates":[-49.1586632,-28.3287559]}},{"type":"Feature","properties":{"nome":"Parque das Acácias","osm_id":4906715655,"osm_tipo":"node","tipo_lugar":"suburb"},"geometry":{"type":"Point","coordinates":[-49.1685981,-28.325977]}},{"type":"Feature","properties":{"nome":"Madre Tereza","osm_id":4906715656,"osm_tipo":"node","tipo_lugar":"suburb"},"geometry":{"type":"Point","coordinates":[-49.1684318,-28.3280925]}},{"type":"Feature","properties":{"nome":"Centro","osm_id":4906715657,"osm_tipo":"node","tipo_lugar":"suburb"},"geometry":{"type":"Point","coordinates":[-49.1755879,-28.3254717]}},{"type":"Feature","properties":{"nome":"Evolução","osm_id":4906715658,"osm_tipo":"node","tipo_lugar":"suburb"},"geometry":{"type":"Point","coordinates":[-49.1745901,-28.3225157]}},{"type":"Feature","properties":{"nome":"Industrial","osm_id":4906715659,"osm_tipo":"node","tipo_lugar":"suburb"},"geometry":{"type":"Point","coordinates":[-49.1796863,-28.3210234]}},{"type":"Feature","properties":{"nome":"Loteamento Lúcia Bruning","osm_id":7737663571,"osm_tipo":"node","tipo_lugar":"neighbourhood"},"geometry":{"type":"Point","coordinates":[-49.1789299,-28.3208487]}},{"type":"Feature","properties":{"nome":"Loteamento Jardim Alvorada","osm_id":7800960094,"osm_tipo":"node","tipo_lugar":"neighbourhood"},"geometry":{"type":"Point","coordinates":[-49.179343,-28.3409072]}},{"type":"Feature","properties":{"nome":"Loteamento Residencial Laranjeiras","osm_id":7861490189,"osm_tipo":"node","tipo_lugar":"neighbourhood"},"geometry":{"type":"Point","coordinates":[-49.1892994,-28.3470638]}},{"type":"Feature","properties":{"nome":"Loteamento Buss","osm_id":8191947910,"osm_tipo":"node","tipo_lugar":"neighbourhood"},"geometry":{"type":"Point","coordinates":[-49.1653204,-28.3266759]}},{"type":"Feature","properties":{"nome":"Loteamento Sales Melo","osm_id":9995334405,"osm_tipo":"node","tipo_lugar":"neighbourhood"},"geometry":{"type":"Point","coordinates":[-49.164996,-28.3285386]}},{"type":"Feature","properties":{"nome":"Residencial Belvedere","osm_id":13754586190,"osm_tipo":"node","tipo_lugar":"neighbourhood"},"geometry":{"type":"Point","coordinates":[-49.1889915,-28.3410735]}},{"type":"Feature","properties":{"nome":"Residencial Primavera","osm_id":13754586191,"osm_tipo":"node","tipo_lugar":"neighbourhood"},"geometry":{"type":"Point","coordinates":[-49.1944654,-28.3251385]}}]}