{"type":"FeatureCollection","features":[{"type":"Feature","properties":{"nome":"Centro","osm_id":4934433460,"osm_tipo":"node","tipo_lugar":"suburb"},"geometry":{"type":"Point","coordinates":[-49.9335212,-28.293758]}},{"type":"Feature","properties":{"nome":"São José","osm_id":4934433520,"osm_tipo":"node","tipo_lugar":"suburb"},"geometry":{"type":"Point","coordinates":[-49.9388105,-28.2967102]}},{"type":"Feature","properties":{"nome":"Jardim Bandeira","osm_id":4934434331,"osm_tipo":"node","tipo_lugar":"suburb"},"geometry":{"type":"Point","coordinates":[-49.9235594,-28.2906074]}},{"type":"Feature","properties":{"nome":"Pradinho","osm_id":10570654364,"osm_tipo":"node","tipo_lugar":"suburb"},"geometry":{"type":"Point","coordinates":[-49.9323551,-28.2999557]}},{"type":"Feature","properties":{"nome":"COHAB II","osm_id":10570654365,"osm_tipo":"node","tipo_lugar":"suburb"},"geometry":{"type":"Point","coordinates":[-49.9309819,-28.3033523]}},{"type":"Feature","properties":{"nome":"Três Pedrinhas","osm_id":10570654366,"osm_tipo":"node","tipo_lugar":"suburb"},"geometry":{"type":"Point","coordinates":[-49.9250684,-28.2960697]}}]}