{"type":"FeatureCollection","features":[{"type":"Feature","properties":{"nome":"Morretes","osm_id":4338712594,"osm_tipo":"node","tipo_lugar":"suburb"},"geometry":{"type":"Point","coordinates":[-48.6293964,-27.2912267]}},{"type":"Feature","properties":{"nome":"Nova Descoberta","osm_id":5615051522,"osm_tipo":"node","tipo_lugar":"suburb"},"geometry":{"type":"Point","coordinates":[-48.7288874,-27.2627411]}},{"type":"Feature","properties":{"nome":"Itinga","osm_id":5615051523,"osm_tipo":"node","tipo_lugar":"suburb"},"geometry":{"type":"Point","coordinates":[-48.6990345,-27.2728928]}},{"type":"Feature","properties":{"nome":"Joaia","osm_id":5615051524,"osm_tipo":"node","tipo_lugar":"suburb"},"geometry":{"type":"Point","coordinates":[-48.6636722,-27.2582586]}},{"type":"Feature","properties":{"nome":"Sul do Rio","osm_id":5615051525,"osm_tipo":"node","tipo_lugar":"suburb"},"geometry":{"type":"Point","coordinates":[-48.6221623,-27.2461931]}},{"type":"Feature","properties":{"nome":"Santa Luzia","osm_id":5615051567,"osm_tipo":"node","tipo_lugar":"suburb"},"geometry":{"type":"Point","coordinates":[-48.6082242,-27.2124935]}},{"type":"Feature","properties":{"nome":"Praça","osm_id":5615051574,"osm_tipo":"node","tipo_lugar":"suburb"},"geometry":{"type":"Point","coordinates":[-48.6151725,-27.2402267]}},{"type":"Feature","properties":{"nome":"Centro","osm_id":5615051575,"osm_tipo":"node","tipo_lugar":"suburb"},"geometry":{"type":"Point","coordinates":[-48.6320651,-27.242206]}},{"type":"Feature","properties":{"nome":"Pernambuco","osm_id":5615051576,"osm_tipo":"node","tipo_lugar":"suburb"},"geometry":{"type":"Point","coordinates":[-48.646195,-27.2583015]}},{"type":"Feature","properties":{"nome":"Areias","osm_id":8612632407,"osm_tipo":"node","tipo_lugar":"suburb"},"geometry":{"type":"Point","coordinates":[-48.6449214,-27.2339608]}},{"type":"Feature","properties":{"nome":"XV de Novembro","osm_id":9122989274,"osm_tipo":"node","tipo_lugar":"suburb"},"geometry":{"type":"Point","coordinates":[-48.6444354,-27.2450818]}},{"type":"Feature","properties":{"nome":"Residencial Galápagos","osm_id":9858788561,"osm_tipo":"node","tipo_lugar":"neighbourhood"},"geometry":{"type":"Point","coordinates":[-48.6448248,-27.2208767]}}]}