{"type":"FeatureCollection","features":[{"type":"Feature","properties":{"nome":"Rio Manin","osm_id":416766564,"osm_tipo":"node","tipo_lugar":"suburb"},"geometry":{"type":"Point","coordinates":[-49.494096,-28.5435888]}},{"type":"Feature","properties":{"nome":"San Giuseppe","osm_id":1445709349,"osm_tipo":"node","tipo_lugar":"suburb"},"geometry":{"type":"Point","coordinates":[12.2188652,45.660832]}},{"type":"Feature","properties":{"nome":"San Pelaio","osm_id":1446153276,"osm_tipo":"node","tipo_lugar":"suburb"},"geometry":{"type":"Point","coordinates":[12.2303522,45.6945516]}},{"type":"Feature","properties":{"nome":"Canizzano","osm_id":1482112129,"osm_tipo":"node","tipo_lugar":"suburb"},"geometry":{"type":"Point","coordinates":[12.1844818,45.6411193]}},{"type":"Feature","properties":{"nome":"Sant'Antonino","osm_id":1482112130,"osm_tipo":"node","tipo_lugar":"suburb"},"geometry":{"type":"Point","coordinates":[12.2688497,45.6462773]}},{"type":"Feature","properties":{"nome":"Le Stiore","osm_id":2271430080,"osm_tipo":"node","tipo_lugar":"neighbourhood"},"geometry":{"type":"Point","coordinates":[12.2244099,45.6686028]}},{"type":"Feature","properties":{"nome":"Area Appiani","osm_id":2845576561,"osm_tipo":"node","tipo_lugar":"neighbourhood"},"geometry":{"type":"Point","coordinates":[12.2295461,45.6683105]}},{"type":"Feature","properties":{"nome":"Santa Maria del Rovere","osm_id":3522285135,"osm_tipo":"node","tipo_lugar":"suburb"},"geometry":{"type":"Point","coordinates":[12.2531791,45.6825378]}},{"type":"Feature","properties":{"nome":"Sant'Angelo","osm_id":3717460363,"osm_tipo":"node","tipo_lugar":"suburb"},"geometry":{"type":"Point","coordinates":[12.2282974,45.6558779]}},{"type":"Feature","properties":{"nome":"Monigo","osm_id":4169612774,"osm_tipo":"node","tipo_lugar":"suburb"},"geometry":{"type":"Point","coordinates":[12.2099157,45.6769553]}},{"type":"Feature","properties":{"nome":"Fiera","osm_id":4169612775,"osm_tipo":"node","tipo_lugar":"suburb"},"geometry":{"type":"Point","coordinates":[12.2683309,45.6616734]}},{"type":"Feature","properties":{"nome":"San Lazzaro","osm_id":4169612776,"osm_tipo":"node","tipo_lugar":"suburb"},"geometry":{"type":"Point","coordinates":[12.2424716,45.651293]}},{"type":"Feature","properties":{"nome":"San Zeno","osm_id":4169612777,"osm_tipo":"node","tipo_lugar":"suburb"},"geometry":{"type":"Point","coordinates":[12.2435599,45.6585601]}},{"type":"Feature","properties":{"nome":"Volta Redonda","osm_id":4408112815,"osm_tipo":"node","tipo_lugar":"suburb"},"geometry":{"type":"Point","coordinates":[-49.4498823,-28.552007]}},{"type":"Feature","properties":{"nome":"Santa Cruz","osm_id":4802166892,"osm_tipo":"node","tipo_lugar":"suburb"},"geometry":{"type":"Point","coordinates":[-49.4845989,-28.4977626]}},{"type":"Feature","properties":{"nome":"Brasília","osm_id":4802166893,"osm_tipo":"node","tipo_lugar":"suburb"},"geometry":{"type":"Point","coordinates":[-49.4958197,-28.4630843]}},{"type":"Feature","properties":{"nome":"Selvana","osm_id":4892310598,"osm_tipo":"node","tipo_lugar":"suburb"},"geometry":{"type":"Point","coordinates":[12.2627741,45.6759796]}},{"type":"Feature","properties":{"nome":"San Paolo","osm_id":10766156350,"osm_tipo":"node","tipo_lugar":"suburb"},"geometry":{"type":"Point","coordinates":[12.2073383,45.6858902]}},{"type":"Feature","properties":{"nome":"San Liberale","osm_id":11133642997,"osm_tipo":"node","tipo_lugar":"suburb"},"geometry":{"type":"Point","coordinates":[12.2190286,45.678101]}},{"type":"Feature","properties":{"nome":"Santa Bona","osm_id":11133642998,"osm_tipo":"node","tipo_lugar":"suburb"},"geometry":{"type":"Point","coordinates":[12.2179855,45.6863046]}},{"type":"Feature","properties":{"nome":"Guanabara","osm_id":13027373043,"osm_tipo":"node","tipo_lugar":"suburb"},"geometry":{"type":"Point","coordinates":[-49.5106652,-28.4670221]}}]}