{"type":"FeatureCollection","features":[{"type":"Feature","properties":{"nome":"Águas Brancas","osm_id":416646621,"osm_tipo":"node","tipo_lugar":"suburb"},"geometry":{"type":"Point","coordinates":[-49.5796394,-27.9535093]}},{"type":"Feature","properties":{"nome":"Santa Catarina","osm_id":8975855009,"osm_tipo":"node","tipo_lugar":"neighbourhood"},"geometry":{"type":"Point","coordinates":[-49.5830262,-27.9890866]}},{"type":"Feature","properties":{"nome":"Rio Capoeiras","osm_id":8975855010,"osm_tipo":"node","tipo_lugar":"neighbourhood"},"geometry":{"type":"Point","coordinates":[-49.6051122,-28.0159052]}},{"type":"Feature","properties":{"nome":"Nossa Senhora Aparecida","osm_id":8975855011,"osm_tipo":"node","tipo_lugar":"neighbourhood"},"geometry":{"type":"Point","coordinates":[-49.5835945,-28.0212967]}},{"type":"Feature","properties":{"nome":"Fetti","osm_id":13525393282,"osm_tipo":"node","tipo_lugar":"neighbourhood"},"geometry":{"type":"Point","coordinates":[-49.5942649,-27.9854636]}},{"type":"Feature","properties":{"nome":"Jardim Verde Vale","osm_id":13525393284,"osm_tipo":"node","tipo_lugar":"neighbourhood"},"geometry":{"type":"Point","coordinates":[-49.5883759,-27.9956863]}},{"type":"Feature","properties":{"nome":"Traçado","osm_id":13525393286,"osm_tipo":"node","tipo_lugar":"neighbourhood"},"geometry":{"type":"Point","coordinates":[-49.5877453,-28.0013727]}},{"type":"Feature","properties":{"nome":"Brasília","osm_id":13525393289,"osm_tipo":"node","tipo_lugar":"neighbourhood"},"geometry":{"type":"Point","coordinates":[-49.5988425,-28.0150337]}},{"type":"Feature","properties":{"nome":"Nossa Senhora de Fátima","osm_id":13527563964,"osm_tipo":"node","tipo_lugar":"neighbourhood"},"geometry":{"type":"Point","coordinates":[-49.5909731,-28.0223898]}},{"type":"Feature","properties":{"nome":"Centro","osm_id":13527563966,"osm_tipo":"node","tipo_lugar":"neighbourhood"},"geometry":{"type":"Point","coordinates":[-49.5936228,-28.0143477]}}]}