{"type":"FeatureCollection","features":[{"type":"Feature","properties":{"nome":"Bela Vista","osm_id":4801718738,"osm_tipo":"node","tipo_lugar":"suburb"},"geometry":{"type":"Point","coordinates":[-49.3208868,-28.540696]}},{"type":"Feature","properties":{"nome":"Estação","osm_id":4801718739,"osm_tipo":"node","tipo_lugar":"suburb"},"geometry":{"type":"Point","coordinates":[-49.3205909,-28.5320517]}},{"type":"Feature","properties":{"nome":"Das Damas","osm_id":4801718751,"osm_tipo":"node","tipo_lugar":"suburb"},"geometry":{"type":"Point","coordinates":[-49.319321,-28.5140812]}},{"type":"Feature","properties":{"nome":"De Brida","osm_id":4801718752,"osm_tipo":"node","tipo_lugar":"suburb"},"geometry":{"type":"Point","coordinates":[-49.3111409,-28.5115703]}},{"type":"Feature","properties":{"nome":"Nova Itália","osm_id":4801718753,"osm_tipo":"node","tipo_lugar":"suburb"},"geometry":{"type":"Point","coordinates":[-49.3187102,-28.5063252]}},{"type":"Feature","properties":{"nome":"Santana","osm_id":4801718760,"osm_tipo":"node","tipo_lugar":"suburb"},"geometry":{"type":"Point","coordinates":[-49.3580942,-28.4658652]}},{"type":"Feature","properties":{"nome":"Rio América","osm_id":4801718761,"osm_tipo":"node","tipo_lugar":"suburb"},"geometry":{"type":"Point","coordinates":[-49.3684944,-28.5121723]}},{"type":"Feature","properties":{"nome":"De Villa","osm_id":4801718766,"osm_tipo":"node","tipo_lugar":"suburb"},"geometry":{"type":"Point","coordinates":[-49.2966625,-28.5354219]}},{"type":"Feature","properties":{"nome":"São Pedro","osm_id":4801718767,"osm_tipo":"node","tipo_lugar":"suburb"},"geometry":{"type":"Point","coordinates":[-49.2790183,-28.5524303]}},{"type":"Feature","properties":{"nome":"Vila Brasília","osm_id":5449562434,"osm_tipo":"node","tipo_lugar":"suburb"},"geometry":{"type":"Point","coordinates":[-49.3110593,-28.5178649]}},{"type":"Feature","properties":{"nome":"Vila São José","osm_id":5449582529,"osm_tipo":"node","tipo_lugar":"suburb"},"geometry":{"type":"Point","coordinates":[-49.31343,-28.5217734]}},{"type":"Feature","properties":{"nome":"Morro da Glória","osm_id":5449668662,"osm_tipo":"node","tipo_lugar":"suburb"},"geometry":{"type":"Point","coordinates":[-49.3173084,-28.5266478]}},{"type":"Feature","properties":{"nome":"Bel Recanto","osm_id":5451343780,"osm_tipo":"node","tipo_lugar":"suburb"},"geometry":{"type":"Point","coordinates":[-49.3138603,-28.5435137]}},{"type":"Feature","properties":{"nome":"Figueira","osm_id":5452022174,"osm_tipo":"node","tipo_lugar":"suburb"},"geometry":{"type":"Point","coordinates":[-49.3308064,-28.5257266]}},{"type":"Feature","properties":{"nome":"Pirago","osm_id":5452036825,"osm_tipo":"node","tipo_lugar":"suburb"},"geometry":{"type":"Point","coordinates":[-49.340314,-28.5292187]}},{"type":"Feature","properties":{"nome":"Centro","osm_id":5452132887,"osm_tipo":"node","tipo_lugar":"suburb"},"geometry":{"type":"Point","coordinates":[-49.3204865,-28.5218258]}},{"type":"Feature","properties":{"nome":"Baixada Fluminense","osm_id":5452155705,"osm_tipo":"node","tipo_lugar":"suburb"},"geometry":{"type":"Point","coordinates":[-49.3233007,-28.5156153]}},{"type":"Feature","properties":{"nome":"Loteamento José Scussel","osm_id":8608071796,"osm_tipo":"node","tipo_lugar":"neighbourhood"},"geometry":{"type":"Point","coordinates":[-49.2966835,-28.4042523]}}]}