{"type":"FeatureCollection","features":[{"type":"Feature","properties":{"nome":"Barros","osm_id":416653303,"osm_tipo":"node","tipo_lugar":"suburb"},"geometry":{"type":"Point","coordinates":[-48.2013165,-7.137527]}},{"type":"Feature","properties":{"nome":"Vila Santa Rita","osm_id":7429948465,"osm_tipo":"node","tipo_lugar":"suburb"},"geometry":{"type":"Point","coordinates":[-48.175993,-7.1786058]}},{"type":"Feature","properties":{"nome":"Jardim das Mangabeiras","osm_id":8184739230,"osm_tipo":"node","tipo_lugar":"neighbourhood"},"geometry":{"type":"Point","coordinates":[-48.1860566,-7.169728]}},{"type":"Feature","properties":{"nome":"Setor Sul","osm_id":8184739231,"osm_tipo":"node","tipo_lugar":"neighbourhood"},"geometry":{"type":"Point","coordinates":[-48.1818107,-7.1697014]}},{"type":"Feature","properties":{"nome":"Araguaína Sul","osm_id":8184739232,"osm_tipo":"node","tipo_lugar":"suburb"},"geometry":{"type":"Point","coordinates":[-48.1865657,-7.1813956]}},{"type":"Feature","properties":{"nome":"Vila Couto Magalhães","osm_id":8184739233,"osm_tipo":"node","tipo_lugar":"neighbourhood"},"geometry":{"type":"Point","coordinates":[-48.2047376,-7.1645909]}},{"type":"Feature","properties":{"nome":"Vila Norte","osm_id":8184739234,"osm_tipo":"node","tipo_lugar":"suburb"},"geometry":{"type":"Point","coordinates":[-48.197849,-7.1602636]}},{"type":"Feature","properties":{"nome":"Bela Vista","osm_id":8184739235,"osm_tipo":"node","tipo_lugar":"suburb"},"geometry":{"type":"Point","coordinates":[-48.2024388,-7.1601215]}},{"type":"Feature","properties":{"nome":"Residencial Presidente Lula","osm_id":8184739236,"osm_tipo":"node","tipo_lugar":"suburb"},"geometry":{"type":"Point","coordinates":[-48.1740731,-7.1725876]}},{"type":"Feature","properties":{"nome":"Jardim Boa Vista","osm_id":8184739237,"osm_tipo":"node","tipo_lugar":"neighbourhood"},"geometry":{"type":"Point","coordinates":[-48.2081751,-7.1391609]}},{"type":"Feature","properties":{"nome":"Residencial Costa Esmeralda","osm_id":8184739238,"osm_tipo":"node","tipo_lugar":"suburb"},"geometry":{"type":"Point","coordinates":[-48.18878,-7.1326011]}},{"type":"Feature","properties":{"nome":"Parque Primavera Norte","osm_id":8184739239,"osm_tipo":"node","tipo_lugar":"neighbourhood"},"geometry":{"type":"Point","coordinates":[-48.1875157,-7.1277458]}},{"type":"Feature","properties":{"nome":"Bairro de Fátima","osm_id":8184739240,"osm_tipo":"node","tipo_lugar":"suburb"},"geometry":{"type":"Point","coordinates":[-48.2509787,-7.2349928]}},{"type":"Feature","properties":{"nome":"Vila Azul","osm_id":8184739241,"osm_tipo":"node","tipo_lugar":"neighbourhood"},"geometry":{"type":"Point","coordinates":[-48.2526773,-7.2157438]}},{"type":"Feature","properties":{"nome":"Monte Sinai","osm_id":8184739242,"osm_tipo":"node","tipo_lugar":"neighbourhood"},"geometry":{"type":"Point","coordinates":[-48.2575818,-7.2307206]}},{"type":"Feature","properties":{"nome":"Vila Ana Maria","osm_id":8213824030,"osm_tipo":"node","tipo_lugar":"suburb"},"geometry":{"type":"Point","coordinates":[-48.176036,-7.2028495]}},{"type":"Feature","properties":{"nome":"Vila Vitória","osm_id":8213824046,"osm_tipo":"node","tipo_lugar":"neighbourhood"},"geometry":{"type":"Point","coordinates":[-48.1796217,-7.21474]}},{"type":"Feature","properties":{"nome":"Centro","osm_id":13663987895,"osm_tipo":"node","tipo_lugar":"suburb"},"geometry":{"type":"Point","coordinates":[-48.2092008,-7.1910724]}},{"type":"Feature","properties":{"nome":"Belo Horizonte","osm_id":13663987896,"osm_tipo":"node","tipo_lugar":"neighbourhood"},"geometry":{"type":"Point","coordinates":[-48.2055849,-7.1959364]}},{"type":"Feature","properties":{"nome":"Bairro São João","osm_id":13663987933,"osm_tipo":"node","tipo_lugar":"suburb"},"geometry":{"type":"Point","coordinates":[-48.1989528,-7.1936967]}},{"type":"Feature","properties":{"nome":"Bairro Senador","osm_id":13663987936,"osm_tipo":"node","tipo_lugar":"suburb"},"geometry":{"type":"Point","coordinates":[-48.2087791,-7.1990815]}},{"type":"Feature","properties":{"nome":"Vila Aliança","osm_id":13663987945,"osm_tipo":"node","tipo_lugar":"neighbourhood"},"geometry":{"type":"Point","coordinates":[-48.2044432,-7.2015862]}},{"type":"Feature","properties":{"nome":"Presidente Costa e Silva","osm_id":13663988003,"osm_tipo":"node","tipo_lugar":"neighbourhood"},"geometry":{"type":"Point","coordinates":[-48.2043435,-7.1994478]}},{"type":"Feature","properties":{"nome":"Dona Nelcia","osm_id":13665572486,"osm_tipo":"node","tipo_lugar":"suburb"},"geometry":{"type":"Point","coordinates":[-48.2124243,-7.2004569]}},{"type":"Feature","properties":{"nome":"Chacara 212","osm_id":13665584195,"osm_tipo":"node","tipo_lugar":"neighbourhood"},"geometry":{"type":"Point","coordinates":[-48.2098692,-7.2015867]}},{"type":"Feature","properties":{"nome":"Chacara T22","osm_id":13665584196,"osm_tipo":"node","tipo_lugar":"neighbourhood"},"geometry":{"type":"Point","coordinates":[-48.1939678,-7.1945739]}},{"type":"Feature","properties":{"nome":"Chacara 11E","osm_id":13665584197,"osm_tipo":"node","tipo_lugar":"neighbourhood"},"geometry":{"type":"Point","coordinates":[-48.2153113,-7.1991913]}},{"type":"Feature","properties":{"nome":"Chacara 11","osm_id":13665584198,"osm_tipo":"node","tipo_lugar":"neighbourhood"},"geometry":{"type":"Point","coordinates":[-48.2164484,-7.1983189]}},{"type":"Feature","properties":{"nome":"Chacara 11E1","osm_id":13665584199,"osm_tipo":"node","tipo_lugar":"neighbourhood"},"geometry":{"type":"Point","coordinates":[-48.2142199,-7.1988633]}},{"type":"Feature","properties":{"nome":"Chacara 19","osm_id":13665584200,"osm_tipo":"node","tipo_lugar":"neighbourhood"},"geometry":{"type":"Point","coordinates":[-48.2132583,-7.1983818]}},{"type":"Feature","properties":{"nome":"Setor Alaska","osm_id":13665596605,"osm_tipo":"node","tipo_lugar":"neighbourhood"},"geometry":{"type":"Point","coordinates":[-48.2150912,-7.1985466]}},{"type":"Feature","properties":{"nome":"Setor Alaska II","osm_id":13665596606,"osm_tipo":"node","tipo_lugar":"neighbourhood"},"geometry":{"type":"Point","coordinates":[-48.213177,-7.1968562]}},{"type":"Feature","properties":{"nome":"Jardim América","osm_id":13665596631,"osm_tipo":"node","tipo_lugar":"suburb"},"geometry":{"type":"Point","coordinates":[-48.2167006,-7.2006297]}},{"type":"Feature","properties":{"nome":"Centro Comercial","osm_id":13665596671,"osm_tipo":"node","tipo_lugar":"suburb"},"geometry":{"type":"Point","coordinates":[-48.2273269,-7.1907783]}},{"type":"Feature","properties":{"nome":"Bairro da Cimba","osm_id":13665596696,"osm_tipo":"node","tipo_lugar":"suburb"},"geometry":{"type":"Point","coordinates":[-48.1959216,-7.1809536]}},{"type":"Feature","properties":{"nome":"Setor Coimbra","osm_id":13665596774,"osm_tipo":"node","tipo_lugar":"suburb"},"geometry":{"type":"Point","coordinates":[-48.1884848,-7.1956051]}},{"type":"Feature","properties":{"nome":"Residencial Patrocinio","osm_id":13665596781,"osm_tipo":"node","tipo_lugar":"suburb"},"geometry":{"type":"Point","coordinates":[-48.182319,-7.1994203]}},{"type":"Feature","properties":{"nome":"Setor Raizal","osm_id":13665596791,"osm_tipo":"node","tipo_lugar":"suburb"},"geometry":{"type":"Point","coordinates":[-48.1822387,-7.1930252]}},{"type":"Feature","properties":{"nome":"Tereza Hilário ribeiro","osm_id":13665596793,"osm_tipo":"node","tipo_lugar":"suburb"},"geometry":{"type":"Point","coordinates":[-48.1805594,-7.1875832]}},{"type":"Feature","properties":{"nome":"Chacara 91","osm_id":13665608801,"osm_tipo":"node","tipo_lugar":"neighbourhood"},"geometry":{"type":"Point","coordinates":[-48.2114607,-7.197425]}},{"type":"Feature","properties":{"nome":"Chacara 95D","osm_id":13665608802,"osm_tipo":"node","tipo_lugar":"neighbourhood"},"geometry":{"type":"Point","coordinates":[-48.2197964,-7.2011658]}},{"type":"Feature","properties":{"nome":"Chacara 95","osm_id":13665608803,"osm_tipo":"node","tipo_lugar":"neighbourhood"},"geometry":{"type":"Point","coordinates":[-48.2183471,-7.2016451]}},{"type":"Feature","properties":{"nome":"Loteamento São João","osm_id":13665608804,"osm_tipo":"node","tipo_lugar":"neighbourhood"},"geometry":{"type":"Point","coordinates":[-48.2200674,-7.2023816]}},{"type":"Feature","properties":{"nome":"Jardim dos Ipês III","osm_id":13672760992,"osm_tipo":"node","tipo_lugar":"suburb"},"geometry":{"type":"Point","coordinates":[-48.2432767,-7.1678999]}},{"type":"Feature","properties":{"nome":"Jardim dos Ipês II","osm_id":13672760995,"osm_tipo":"node","tipo_lugar":"suburb"},"geometry":{"type":"Point","coordinates":[-48.2400138,-7.1728879]}},{"type":"Feature","properties":{"nome":"Jardim dos Ipês I","osm_id":13672782703,"osm_tipo":"node","tipo_lugar":"suburb"},"geometry":{"type":"Point","coordinates":[-48.2362698,-7.1772486]}},{"type":"Feature","properties":{"nome":"Jardim Boa Sorte","osm_id":13672782732,"osm_tipo":"node","tipo_lugar":"suburb"},"geometry":{"type":"Point","coordinates":[-48.2442089,-7.1852624]}},{"type":"Feature","properties":{"nome":"Chacara 13A","osm_id":13676730207,"osm_tipo":"node","tipo_lugar":"neighbourhood"},"geometry":{"type":"Point","coordinates":[-48.2053062,-7.1860297]}},{"type":"Feature","properties":{"nome":"Chacara 336","osm_id":13676730208,"osm_tipo":"node","tipo_lugar":"neighbourhood"},"geometry":{"type":"Point","coordinates":[-48.2042601,-7.1854775]}},{"type":"Feature","properties":{"nome":"Chacara 270","osm_id":13676730209,"osm_tipo":"node","tipo_lugar":"neighbourhood"},"geometry":{"type":"Point","coordinates":[-48.2034454,-7.1857204]}},{"type":"Feature","properties":{"nome":"Jardim California","osm_id":13676730222,"osm_tipo":"node","tipo_lugar":"suburb"},"geometry":{"type":"Point","coordinates":[-48.2359182,-7.1914028]}},{"type":"Feature","properties":{"nome":"Jardim Pedra Alta","osm_id":13676730232,"osm_tipo":"node","tipo_lugar":"suburb"},"geometry":{"type":"Point","coordinates":[-48.2361244,-7.1869394]}},{"type":"Feature","properties":{"nome":"Vale do Araguaia","osm_id":13676730240,"osm_tipo":"node","tipo_lugar":"neighbourhood"},"geometry":{"type":"Point","coordinates":[-48.2375482,-7.1941236]}},{"type":"Feature","properties":{"nome":"Bairro JK","osm_id":13676730275,"osm_tipo":"node","tipo_lugar":"suburb"},"geometry":{"type":"Point","coordinates":[-48.2412379,-7.2024223]}},{"type":"Feature","properties":{"nome":"Chacara Santo Antônio","osm_id":13676730277,"osm_tipo":"node","tipo_lugar":"neighbourhood"},"geometry":{"type":"Point","coordinates":[-48.2406531,-7.1999211]}},{"type":"Feature","properties":{"nome":"Chacara 221","osm_id":13676730289,"osm_tipo":"node","tipo_lugar":"neighbourhood"},"geometry":{"type":"Point","coordinates":[-48.2433635,-7.2019597]}},{"type":"Feature","properties":{"nome":"Alto Bonito","osm_id":13676730293,"osm_tipo":"node","tipo_lugar":"suburb"},"geometry":{"type":"Point","coordinates":[-48.244909,-7.2010775]}},{"type":"Feature","properties":{"nome":"Chacara 7A","osm_id":13676730304,"osm_tipo":"node","tipo_lugar":"neighbourhood"},"geometry":{"type":"Point","coordinates":[-48.2444453,-7.2056594]}},{"type":"Feature","properties":{"nome":"São Sebastião","osm_id":13676730307,"osm_tipo":"node","tipo_lugar":"neighbourhood"},"geometry":{"type":"Point","coordinates":[-48.2445353,-7.2066706]}},{"type":"Feature","properties":{"nome":"Frimar","osm_id":13676730336,"osm_tipo":"node","tipo_lugar":"neighbourhood"},"geometry":{"type":"Point","coordinates":[-48.2497927,-7.2014204]}},{"type":"Feature","properties":{"nome":"Parque Sonhos Dourados","osm_id":13676730345,"osm_tipo":"node","tipo_lugar":"suburb"},"geometry":{"type":"Point","coordinates":[-48.230093,-7.1792149]}},{"type":"Feature","properties":{"nome":"Chacara 33","osm_id":13676730346,"osm_tipo":"node","tipo_lugar":"neighbourhood"},"geometry":{"type":"Point","coordinates":[-48.2320246,-7.1873345]}},{"type":"Feature","properties":{"nome":"Chacara 49","osm_id":13676730350,"osm_tipo":"node","tipo_lugar":"neighbourhood"},"geometry":{"type":"Point","coordinates":[-48.2299845,-7.185031]}},{"type":"Feature","properties":{"nome":"Chacara 55A","osm_id":13676730360,"osm_tipo":"node","tipo_lugar":"neighbourhood"},"geometry":{"type":"Point","coordinates":[-48.2291122,-7.1842759]}},{"type":"Feature","properties":{"nome":"Chacara 53","osm_id":13676730361,"osm_tipo":"node","tipo_lugar":"neighbourhood"},"geometry":{"type":"Point","coordinates":[-48.2296159,-7.1846045]}},{"type":"Feature","properties":{"nome":"Chacara 57","osm_id":13676730365,"osm_tipo":"node","tipo_lugar":"neighbourhood"},"geometry":{"type":"Point","coordinates":[-48.2285547,-7.1840198]}},{"type":"Feature","properties":{"nome":"Chacara 59A","osm_id":13676730376,"osm_tipo":"node","tipo_lugar":"neighbourhood"},"geometry":{"type":"Point","coordinates":[-48.22847,-7.1831193]}},{"type":"Feature","properties":{"nome":"Vila Cearence II","osm_id":13676730392,"osm_tipo":"node","tipo_lugar":"neighbourhood"},"geometry":{"type":"Point","coordinates":[-48.2275958,-7.1814181]}},{"type":"Feature","properties":{"nome":"Vila Cearence","osm_id":13676730401,"osm_tipo":"node","tipo_lugar":"suburb"},"geometry":{"type":"Point","coordinates":[-48.2253298,-7.1796939]}},{"type":"Feature","properties":{"nome":"Vila Piauiense","osm_id":13676730403,"osm_tipo":"node","tipo_lugar":"neighbourhood"},"geometry":{"type":"Point","coordinates":[-48.2244732,-7.1777907]}},{"type":"Feature","properties":{"nome":"Residencial Pedro Borges","osm_id":13676730432,"osm_tipo":"node","tipo_lugar":"suburb"},"geometry":{"type":"Point","coordinates":[-48.2258042,-7.1749962]}},{"type":"Feature","properties":{"nome":"José Ferreira","osm_id":13676730444,"osm_tipo":"node","tipo_lugar":"suburb"},"geometry":{"type":"Point","coordinates":[-48.2212506,-7.1744369]}},{"type":"Feature","properties":{"nome":"Residencial Jardim Europa","osm_id":13676730472,"osm_tipo":"node","tipo_lugar":"suburb"},"geometry":{"type":"Point","coordinates":[-48.2236119,-7.1694902]}},{"type":"Feature","properties":{"nome":"Brejão","osm_id":13676730478,"osm_tipo":"node","tipo_lugar":"suburb"},"geometry":{"type":"Point","coordinates":[-48.2312747,-7.1655753]}},{"type":"Feature","properties":{"nome":"Setor Jardim","osm_id":13676730482,"osm_tipo":"node","tipo_lugar":"neighbourhood"},"geometry":{"type":"Point","coordinates":[-48.2237553,-7.1648854]}},{"type":"Feature","properties":{"nome":"Cidade Jardim","osm_id":13676730517,"osm_tipo":"node","tipo_lugar":"suburb"},"geometry":{"type":"Point","coordinates":[-48.2068531,-7.1483989]}},{"type":"Feature","properties":{"nome":"Parque Bom viver","osm_id":13676730584,"osm_tipo":"node","tipo_lugar":"suburb"},"geometry":{"type":"Point","coordinates":[-48.19508,-7.139906]}},{"type":"Feature","properties":{"nome":"Residencial Morumbi","osm_id":13676730589,"osm_tipo":"node","tipo_lugar":"neighbourhood"},"geometry":{"type":"Point","coordinates":[-48.1883836,-7.1442974]}},{"type":"Feature","properties":{"nome":"Maracanã","osm_id":13676730600,"osm_tipo":"node","tipo_lugar":"suburb"},"geometry":{"type":"Point","coordinates":[-48.1888578,-7.1534919]}},{"type":"Feature","properties":{"nome":"Serra Dourada","osm_id":13676730606,"osm_tipo":"node","tipo_lugar":"neighbourhood"},"geometry":{"type":"Point","coordinates":[-48.1793444,-7.1490395]}},{"type":"Feature","properties":{"nome":"Setor Universitário","osm_id":13676730613,"osm_tipo":"node","tipo_lugar":"suburb"},"geometry":{"type":"Point","coordinates":[-48.1880675,-7.1610533]}},{"type":"Feature","properties":{"nome":"Jardim das Mangueiras","osm_id":13676730618,"osm_tipo":"node","tipo_lugar":"suburb"},"geometry":{"type":"Point","coordinates":[-48.1935423,-7.1595781]}},{"type":"Feature","properties":{"nome":"Chacara 43","osm_id":13683762785,"osm_tipo":"node","tipo_lugar":"neighbourhood"},"geometry":{"type":"Point","coordinates":[-48.2137428,-7.1950057]}},{"type":"Feature","properties":{"nome":"Bela Vista II","osm_id":13683929160,"osm_tipo":"node","tipo_lugar":"neighbourhood"},"geometry":{"type":"Point","coordinates":[-48.198089,-7.1622919]}},{"type":"Feature","properties":{"nome":"Vila Goiás","osm_id":13683929173,"osm_tipo":"node","tipo_lugar":"suburb"},"geometry":{"type":"Point","coordinates":[-48.1941678,-7.1707294]}},{"type":"Feature","properties":{"nome":"Vila Santiago","osm_id":13683929191,"osm_tipo":"node","tipo_lugar":"suburb"},"geometry":{"type":"Point","coordinates":[-48.1975105,-7.1740408]}},{"type":"Feature","properties":{"nome":"Jardim das Flores","osm_id":13697376677,"osm_tipo":"node","tipo_lugar":"suburb"},"geometry":{"type":"Point","coordinates":[-48.1778254,-7.2047282]}},{"type":"Feature","properties":{"nome":"Morada do Sol III","osm_id":13697376691,"osm_tipo":"node","tipo_lugar":"suburb"},"geometry":{"type":"Point","coordinates":[-48.1760082,-7.1996998]}},{"type":"Feature","properties":{"nome":"Jardins Mônaco","osm_id":13697376699,"osm_tipo":"node","tipo_lugar":"suburb"},"geometry":{"type":"Point","coordinates":[-48.1694332,-7.2022622]}},{"type":"Feature","properties":{"nome":"Jardim Bouganville","osm_id":13697376704,"osm_tipo":"node","tipo_lugar":"suburb"},"geometry":{"type":"Point","coordinates":[-48.1676314,-7.1992233]}},{"type":"Feature","properties":{"nome":"Brejão 3a Etapa","osm_id":13697376705,"osm_tipo":"node","tipo_lugar":"neighbourhood"},"geometry":{"type":"Point","coordinates":[-48.170672,-7.1991342]}},{"type":"Feature","properties":{"nome":"Morada do Sol","osm_id":13697376726,"osm_tipo":"node","tipo_lugar":"suburb"},"geometry":{"type":"Point","coordinates":[-48.1729183,-7.1941025]}},{"type":"Feature","properties":{"nome":"Morada do Sol II","osm_id":13697376727,"osm_tipo":"node","tipo_lugar":"suburb"},"geometry":{"type":"Point","coordinates":[-48.1729146,-7.1867857]}},{"type":"Feature","properties":{"nome":"Jardins Sienna","osm_id":13697376736,"osm_tipo":"node","tipo_lugar":"suburb"},"geometry":{"type":"Point","coordinates":[-48.1750454,-7.2119908]}},{"type":"Feature","properties":{"nome":"CHAC 163-A1","osm_id":13697376746,"osm_tipo":"node","tipo_lugar":"neighbourhood"},"geometry":{"type":"Point","coordinates":[-48.1863557,-7.200512]}},{"type":"Feature","properties":{"nome":"Residencial Camargo","osm_id":13697376803,"osm_tipo":"node","tipo_lugar":"suburb"},"geometry":{"type":"Point","coordinates":[-48.1881867,-7.2042765]}},{"type":"Feature","properties":{"nome":"Setor Tocantins","osm_id":13697376808,"osm_tipo":"node","tipo_lugar":"suburb"},"geometry":{"type":"Point","coordinates":[-48.1810443,-7.2064339]}},{"type":"Feature","properties":{"nome":"Vila Ribeiro","osm_id":13697376810,"osm_tipo":"node","tipo_lugar":"suburb"},"geometry":{"type":"Point","coordinates":[-48.1832537,-7.2094579]}},{"type":"Feature","properties":{"nome":"Residencial Flamboyant","osm_id":13697376812,"osm_tipo":"node","tipo_lugar":"suburb"},"geometry":{"type":"Point","coordinates":[-48.1796193,-7.210815]}},{"type":"Feature","properties":{"nome":"Setor Itaipú","osm_id":13697376826,"osm_tipo":"node","tipo_lugar":"suburb"},"geometry":{"type":"Point","coordinates":[-48.1859237,-7.2113374]}},{"type":"Feature","properties":{"nome":"Céu Azul","osm_id":13697376851,"osm_tipo":"node","tipo_lugar":"suburb"},"geometry":{"type":"Point","coordinates":[-48.1839022,-7.217478]}},{"type":"Feature","properties":{"nome":"Setor Palmas","osm_id":13697376869,"osm_tipo":"node","tipo_lugar":"neighbourhood"},"geometry":{"type":"Point","coordinates":[-48.1930517,-7.2108919]}},{"type":"Feature","properties":{"nome":"Residencial Cazarotto","osm_id":13697376875,"osm_tipo":"node","tipo_lugar":"neighbourhood"},"geometry":{"type":"Point","coordinates":[-48.1869005,-7.2195489]}},{"type":"Feature","properties":{"nome":"Vila Nova","osm_id":13697376886,"osm_tipo":"node","tipo_lugar":"neighbourhood"},"geometry":{"type":"Point","coordinates":[-48.1958464,-7.2159929]}},{"type":"Feature","properties":{"nome":"Park Primavera","osm_id":13697376893,"osm_tipo":"node","tipo_lugar":"neighbourhood"},"geometry":{"type":"Point","coordinates":[-48.196604,-7.21931]}},{"type":"Feature","properties":{"nome":"Setor Tiúba","osm_id":13697376912,"osm_tipo":"node","tipo_lugar":"suburb"},"geometry":{"type":"Point","coordinates":[-48.193929,-7.2149785]}},{"type":"Feature","properties":{"nome":"Jardim Veneza","osm_id":13697376929,"osm_tipo":"node","tipo_lugar":"neighbourhood"},"geometry":{"type":"Point","coordinates":[-48.1552297,-7.2459044]}},{"type":"Feature","properties":{"nome":"Jardim Belo","osm_id":13697376934,"osm_tipo":"node","tipo_lugar":"neighbourhood"},"geometry":{"type":"Point","coordinates":[-48.1534723,-7.2472816]}},{"type":"Feature","properties":{"nome":"Jardim Paraíso","osm_id":13697376938,"osm_tipo":"node","tipo_lugar":"neighbourhood"},"geometry":{"type":"Point","coordinates":[-48.1511081,-7.2486029]}},{"type":"Feature","properties":{"nome":"Jardim Brasilia","osm_id":13697376943,"osm_tipo":"node","tipo_lugar":"neighbourhood"},"geometry":{"type":"Point","coordinates":[-48.1595508,-7.2363834]}},{"type":"Feature","properties":{"nome":"Daiara","osm_id":13697377000,"osm_tipo":"node","tipo_lugar":"suburb"},"geometry":{"type":"Point","coordinates":[-48.2603261,-7.2771841]}},{"type":"Feature","properties":{"nome":"Residencial Topázio","osm_id":13697823099,"osm_tipo":"node","tipo_lugar":"neighbourhood"},"geometry":{"type":"Point","coordinates":[-48.1910213,-7.1726842]}},{"type":"Feature","properties":{"nome":"Chacara 451","osm_id":13698392035,"osm_tipo":"node","tipo_lugar":"neighbourhood"},"geometry":{"type":"Point","coordinates":[-48.2331476,-7.1694398]}},{"type":"Feature","properties":{"nome":"Beira Lago","osm_id":13698392105,"osm_tipo":"node","tipo_lugar":"suburb"},"geometry":{"type":"Point","coordinates":[-48.2190029,-7.2051036]}},{"type":"Feature","properties":{"nome":"Chacara 90","osm_id":13698392109,"osm_tipo":"node","tipo_lugar":"neighbourhood"},"geometry":{"type":"Point","coordinates":[-48.2176866,-7.2087029]}},{"type":"Feature","properties":{"nome":"Jardim Filadelfia","osm_id":13698392119,"osm_tipo":"node","tipo_lugar":"suburb"},"geometry":{"type":"Point","coordinates":[-48.2158313,-7.2062248]}},{"type":"Feature","properties":{"nome":"Setor Recreativo","osm_id":13698392145,"osm_tipo":"node","tipo_lugar":"neighbourhood"},"geometry":{"type":"Point","coordinates":[-48.2138646,-7.2040775]}},{"type":"Feature","properties":{"nome":"Lago Sul","osm_id":13698392146,"osm_tipo":"node","tipo_lugar":"suburb"},"geometry":{"type":"Point","coordinates":[-48.210634,-7.2272453]}},{"type":"Feature","properties":{"nome":"Mansões do Lago","osm_id":13698392147,"osm_tipo":"node","tipo_lugar":"suburb"},"geometry":{"type":"Point","coordinates":[-48.2234576,-7.2171432]}},{"type":"Feature","properties":{"nome":"Jardim do Lago","osm_id":13698392148,"osm_tipo":"node","tipo_lugar":"suburb"},"geometry":{"type":"Point","coordinates":[-48.2237378,-7.2244447]}},{"type":"Feature","properties":{"nome":"Parque do Lago","osm_id":13698392149,"osm_tipo":"node","tipo_lugar":"suburb"},"geometry":{"type":"Point","coordinates":[-48.2229906,-7.2294112]}},{"type":"Feature","properties":{"nome":"Nova Araguaína","osm_id":13698392150,"osm_tipo":"node","tipo_lugar":"suburb"},"geometry":{"type":"Point","coordinates":[-48.2419534,-7.2234728]}},{"type":"Feature","properties":{"nome":"Chacara 219C","osm_id":13698392160,"osm_tipo":"node","tipo_lugar":"neighbourhood"},"geometry":{"type":"Point","coordinates":[-48.2412417,-7.2282519]}},{"type":"Feature","properties":{"nome":"Chacara 219-A1","osm_id":13698392161,"osm_tipo":"node","tipo_lugar":"neighbourhood"},"geometry":{"type":"Point","coordinates":[-48.2398368,-7.2304037]}},{"type":"Feature","properties":{"nome":"Chacara 75A-1","osm_id":13698392165,"osm_tipo":"node","tipo_lugar":"neighbourhood"},"geometry":{"type":"Point","coordinates":[-48.2487027,-7.2270536]}},{"type":"Feature","properties":{"nome":"Cidade Nova","osm_id":13698392166,"osm_tipo":"node","tipo_lugar":"suburb"},"geometry":{"type":"Point","coordinates":[-48.229744,-7.2382581]}},{"type":"Feature","properties":{"nome":"Loteamento São Luiz","osm_id":13698547017,"osm_tipo":"node","tipo_lugar":"neighbourhood"},"geometry":{"type":"Point","coordinates":[-48.2606067,-7.2183207]}},{"type":"Feature","properties":{"nome":"Olyntho Hotel","osm_id":13698547018,"osm_tipo":"node","tipo_lugar":"neighbourhood"},"geometry":{"type":"Point","coordinates":[-48.2521634,-7.2216935]}},{"type":"Feature","properties":{"nome":"Setor Brasil","osm_id":13704171994,"osm_tipo":"node","tipo_lugar":"suburb"},"geometry":{"type":"Point","coordinates":[-48.2017842,-7.1818812]}},{"type":"Feature","properties":{"nome":"Vila Boa","osm_id":13704171995,"osm_tipo":"node","tipo_lugar":"suburb"},"geometry":{"type":"Point","coordinates":[-48.2092729,-7.1798587]}},{"type":"Feature","properties":{"nome":"Setor Itapuam","osm_id":13704171996,"osm_tipo":"node","tipo_lugar":"suburb"},"geometry":{"type":"Point","coordinates":[-48.2118049,-7.1769421]}},{"type":"Feature","properties":{"nome":"Guaruja","osm_id":13704171997,"osm_tipo":"node","tipo_lugar":"neighbourhood"},"geometry":{"type":"Point","coordinates":[-48.2073632,-7.1823496]}},{"type":"Feature","properties":{"nome":"Panorama","osm_id":13704171998,"osm_tipo":"node","tipo_lugar":"suburb"},"geometry":{"type":"Point","coordinates":[-48.2068697,-7.1801781]}},{"type":"Feature","properties":{"nome":"São Luiz","osm_id":13704171999,"osm_tipo":"node","tipo_lugar":"suburb"},"geometry":{"type":"Point","coordinates":[-48.2035223,-7.1777298]}},{"type":"Feature","properties":{"nome":"Luiz Vinhal","osm_id":13704172000,"osm_tipo":"node","tipo_lugar":"neighbourhood"},"geometry":{"type":"Point","coordinates":[-48.2059041,-7.1738125]}},{"type":"Feature","properties":{"nome":"Setor Couto Magalhães","osm_id":13704236501,"osm_tipo":"node","tipo_lugar":"suburb"},"geometry":{"type":"Point","coordinates":[-48.2090454,-7.1725666]}},{"type":"Feature","properties":{"nome":"Setor Planalto","osm_id":13704236502,"osm_tipo":"node","tipo_lugar":"suburb"},"geometry":{"type":"Point","coordinates":[-48.2154184,-7.175462]}},{"type":"Feature","properties":{"nome":"Loteamento São Francisco","osm_id":13704236503,"osm_tipo":"node","tipo_lugar":"neighbourhood"},"geometry":{"type":"Point","coordinates":[-48.2196026,-7.17708]}},{"type":"Feature","properties":{"nome":"Dom Orione II","osm_id":13704236504,"osm_tipo":"node","tipo_lugar":"suburb"},"geometry":{"type":"Point","coordinates":[-48.2159977,-7.1789748]}},{"type":"Feature","properties":{"nome":"Dom Orione","osm_id":13704236505,"osm_tipo":"node","tipo_lugar":"suburb"},"geometry":{"type":"Point","coordinates":[-48.2179718,-7.1813166]}},{"type":"Feature","properties":{"nome":"Dom Orione III","osm_id":13704236506,"osm_tipo":"node","tipo_lugar":"suburb"},"geometry":{"type":"Point","coordinates":[-48.2152038,-7.1816359]}},{"type":"Feature","properties":{"nome":"Vila Rosário","osm_id":13704236507,"osm_tipo":"node","tipo_lugar":"suburb"},"geometry":{"type":"Point","coordinates":[-48.2160406,-7.1853828]}},{"type":"Feature","properties":{"nome":"Setor Noroeste","osm_id":13704236508,"osm_tipo":"node","tipo_lugar":"neighbourhood"},"geometry":{"type":"Point","coordinates":[-48.2129936,-7.1821895]}},{"type":"Feature","properties":{"nome":"Jardim Goias","osm_id":13704236509,"osm_tipo":"node","tipo_lugar":"suburb"},"geometry":{"type":"Point","coordinates":[-48.2106548,-7.1842971]}}]}