{"type":"FeatureCollection","features":[{"type":"Feature","properties":{"nome":"Albano Franco","osm_id":2916403604,"osm_tipo":"node","tipo_lugar":"suburb"},"geometry":{"type":"Point","coordinates":[-36.5862995,-10.3282732]}},{"type":"Feature","properties":{"nome":"Cambraia","osm_id":2916403606,"osm_tipo":"node","tipo_lugar":"suburb"},"geometry":{"type":"Point","coordinates":[-36.5866291,-10.3105639]}},{"type":"Feature","properties":{"nome":"Centro","osm_id":11771810381,"osm_tipo":"node","tipo_lugar":"suburb"},"geometry":{"type":"Point","coordinates":[-36.5785703,-10.3180574]}},{"type":"Feature","properties":{"nome":"Cidade Nova","osm_id":11771810383,"osm_tipo":"node","tipo_lugar":"suburb"},"geometry":{"type":"Point","coordinates":[-36.5831282,-10.3294148]}},{"type":"Feature","properties":{"nome":"Pedro Valadares","osm_id":11772077207,"osm_tipo":"node","tipo_lugar":"suburb"},"geometry":{"type":"Point","coordinates":[-36.5868581,-10.3243335]}},{"type":"Feature","properties":{"nome":"Alta Vista","osm_id":11772077208,"osm_tipo":"node","tipo_lugar":"suburb"},"geometry":{"type":"Point","coordinates":[-36.5841704,-10.3248573]}},{"type":"Feature","properties":{"nome":"Nossa Sra. da Paz","osm_id":11870133633,"osm_tipo":"node","tipo_lugar":"suburb"},"geometry":{"type":"Point","coordinates":[-36.5742473,-10.3242141]}}]}