{"type":"FeatureCollection","features":[{"type":"Feature","properties":{"nome":"São Miguel","osm_id":2915453001,"osm_tipo":"node","tipo_lugar":"suburb"},"geometry":{"type":"Point","coordinates":[-49.2200919,-26.165642]}},{"type":"Feature","properties":{"nome":"Campestre","osm_id":2962026659,"osm_tipo":"node","tipo_lugar":"suburb"},"geometry":{"type":"Point","coordinates":[-49.2949073,-26.1984123]}},{"type":"Feature","properties":{"nome":"Faxinal","osm_id":2962026660,"osm_tipo":"node","tipo_lugar":"suburb"},"geometry":{"type":"Point","coordinates":[-49.288286,-26.1821507]}},{"type":"Feature","properties":{"nome":"Fragosos","osm_id":2962026661,"osm_tipo":"node","tipo_lugar":"suburb"},"geometry":{"type":"Point","coordinates":[-49.3876377,-26.1625896]}},{"type":"Feature","properties":{"nome":"Rio Represo","osm_id":2962026662,"osm_tipo":"node","tipo_lugar":"suburb"},"geometry":{"type":"Point","coordinates":[-49.3593962,-26.185966]}},{"type":"Feature","properties":{"nome":"Santo Antônio","osm_id":6250830055,"osm_tipo":"node","tipo_lugar":"suburb"},"geometry":{"type":"Point","coordinates":[-49.2699371,-26.1878726]}},{"type":"Feature","properties":{"nome":"Pinhais","osm_id":6250830080,"osm_tipo":"node","tipo_lugar":"suburb"},"geometry":{"type":"Point","coordinates":[-49.2535755,-26.1778297]}},{"type":"Feature","properties":{"nome":"Belo Horizonte","osm_id":6250835487,"osm_tipo":"node","tipo_lugar":"suburb"},"geometry":{"type":"Point","coordinates":[-49.2554658,-26.1868703]}},{"type":"Feature","properties":{"nome":"Cascatas","osm_id":6250835492,"osm_tipo":"node","tipo_lugar":"suburb"},"geometry":{"type":"Point","coordinates":[-49.2703727,-26.1994676]}},{"type":"Feature","properties":{"nome":"Centro","osm_id":6250835493,"osm_tipo":"node","tipo_lugar":"suburb"},"geometry":{"type":"Point","coordinates":[-49.2645922,-26.1937121]}},{"type":"Feature","properties":{"nome":"Loteamento Villages dos Bosques","osm_id":10820644423,"osm_tipo":"node","tipo_lugar":"neighbourhood"},"geometry":{"type":"Point","coordinates":[-49.2765231,-26.2169021]}}]}