{"type":"FeatureCollection","features":[{"type":"Feature","properties":{"nome":"Amancio Pimenta","osm_id":3573535130,"osm_tipo":"node","tipo_lugar":"suburb"},"geometry":{"type":"Point","coordinates":[-41.1261075,-20.0855775]}},{"type":"Feature","properties":{"nome":"Bela Vista","osm_id":3573535197,"osm_tipo":"node","tipo_lugar":"suburb"},"geometry":{"type":"Point","coordinates":[-41.127862,-20.0853519]}},{"type":"Feature","properties":{"nome":"Boa Fé","osm_id":3573535213,"osm_tipo":"node","tipo_lugar":"suburb"},"geometry":{"type":"Point","coordinates":[-41.1292479,-20.070679]}},{"type":"Feature","properties":{"nome":"Campo Vinte","osm_id":3573535257,"osm_tipo":"node","tipo_lugar":"suburb"},"geometry":{"type":"Point","coordinates":[-41.1213274,-20.0835766]}},{"type":"Feature","properties":{"nome":"Centro","osm_id":3573535326,"osm_tipo":"node","tipo_lugar":"suburb"},"geometry":{"type":"Point","coordinates":[-41.124561,-20.077578]}},{"type":"Feature","properties":{"nome":"Chácara da Providência","osm_id":3573535361,"osm_tipo":"node","tipo_lugar":"suburb"},"geometry":{"type":"Point","coordinates":[-41.1202289,-20.07741]}},{"type":"Feature","properties":{"nome":"Colina do Cruzeiro","osm_id":3573535379,"osm_tipo":"node","tipo_lugar":"suburb"},"geometry":{"type":"Point","coordinates":[-41.1210982,-20.0744849]}},{"type":"Feature","properties":{"nome":"Constantino Delpupo","osm_id":3573535387,"osm_tipo":"node","tipo_lugar":"suburb"},"geometry":{"type":"Point","coordinates":[-41.1311803,-20.0739237]}},{"type":"Feature","properties":{"nome":"Custódio Ribeiro Leite","osm_id":3573535401,"osm_tipo":"node","tipo_lugar":"suburb"},"geometry":{"type":"Point","coordinates":[-41.1272876,-20.0740474]}},{"type":"Feature","properties":{"nome":"Grama","osm_id":3573535458,"osm_tipo":"node","tipo_lugar":"suburb"},"geometry":{"type":"Point","coordinates":[-41.1148177,-20.063108]}},{"type":"Feature","properties":{"nome":"Itapuã","osm_id":3573535494,"osm_tipo":"node","tipo_lugar":"suburb"},"geometry":{"type":"Point","coordinates":[-41.1142887,-20.088362]}},{"type":"Feature","properties":{"nome":"Jandira Alves Giesta","osm_id":3573535497,"osm_tipo":"node","tipo_lugar":"suburb"},"geometry":{"type":"Point","coordinates":[-41.128362,-20.0828633]}},{"type":"Feature","properties":{"nome":"José Valim","osm_id":3573535529,"osm_tipo":"node","tipo_lugar":"suburb"},"geometry":{"type":"Point","coordinates":[-41.1304772,-20.077997]}},{"type":"Feature","properties":{"nome":"João Duarte Manso","osm_id":3573535536,"osm_tipo":"node","tipo_lugar":"suburb"},"geometry":{"type":"Point","coordinates":[-41.1235307,-20.07072]}},{"type":"Feature","properties":{"nome":"João Soares","osm_id":3573535541,"osm_tipo":"node","tipo_lugar":"suburb"},"geometry":{"type":"Point","coordinates":[-41.1269245,-20.0727998]}},{"type":"Feature","properties":{"nome":"João Valim","osm_id":3573535543,"osm_tipo":"node","tipo_lugar":"suburb"},"geometry":{"type":"Point","coordinates":[-41.1183926,-20.0953019]}},{"type":"Feature","properties":{"nome":"Leni Alves de Lima","osm_id":3573535561,"osm_tipo":"node","tipo_lugar":"suburb"},"geometry":{"type":"Point","coordinates":[-41.1230773,-20.0895041]}},{"type":"Feature","properties":{"nome":"Maria Valim","osm_id":3573535594,"osm_tipo":"node","tipo_lugar":"suburb"},"geometry":{"type":"Point","coordinates":[-41.1288218,-20.0790672]}},{"type":"Feature","properties":{"nome":"São Tarcísio","osm_id":3573536173,"osm_tipo":"node","tipo_lugar":"suburb"},"geometry":{"type":"Point","coordinates":[-41.127188,-20.0768997]}},{"type":"Feature","properties":{"nome":"São Vicente","osm_id":3573536179,"osm_tipo":"node","tipo_lugar":"suburb"},"geometry":{"type":"Point","coordinates":[-41.1258744,-20.0823713]}},{"type":"Feature","properties":{"nome":"Vila Nova","osm_id":3573536247,"osm_tipo":"node","tipo_lugar":"suburb"},"geometry":{"type":"Point","coordinates":[-41.1269938,-20.0801938]}}]}