{"type":"FeatureCollection","features":[{"type":"Feature","properties":{"nome":"Boa Vista I","osm_id":3573535215,"osm_tipo":"node","tipo_lugar":"suburb"},"geometry":{"type":"Point","coordinates":[-40.0571885,-18.907688]}},{"type":"Feature","properties":{"nome":"Boa Vista II","osm_id":3573535217,"osm_tipo":"node","tipo_lugar":"suburb"},"geometry":{"type":"Point","coordinates":[-40.0625454,-18.9062219]}},{"type":"Feature","properties":{"nome":"Centro","osm_id":3573535306,"osm_tipo":"node","tipo_lugar":"suburb"},"geometry":{"type":"Point","coordinates":[-40.076364,-18.9060123]}},{"type":"Feature","properties":{"nome":"Irmã Tereza Altoé","osm_id":3573535486,"osm_tipo":"node","tipo_lugar":"suburb"},"geometry":{"type":"Point","coordinates":[-40.0778079,-18.9128216]}},{"type":"Feature","properties":{"nome":"Laquini","osm_id":3573535558,"osm_tipo":"node","tipo_lugar":"suburb"},"geometry":{"type":"Point","coordinates":[-40.0676656,-18.908144]}},{"type":"Feature","properties":{"nome":"Mata Atlantica","osm_id":3573535601,"osm_tipo":"node","tipo_lugar":"suburb"},"geometry":{"type":"Point","coordinates":[-40.0602963,-18.9109469]}},{"type":"Feature","properties":{"nome":"Nova Esperança","osm_id":3573535679,"osm_tipo":"node","tipo_lugar":"suburb"},"geometry":{"type":"Point","coordinates":[-40.0706889,-18.9014248]}},{"type":"Feature","properties":{"nome":"Novo Tempo","osm_id":3573535697,"osm_tipo":"node","tipo_lugar":"suburb"},"geometry":{"type":"Point","coordinates":[-40.0755293,-18.9202597]}},{"type":"Feature","properties":{"nome":"Pedro de José Altoé","osm_id":3573535746,"osm_tipo":"node","tipo_lugar":"suburb"},"geometry":{"type":"Point","coordinates":[-40.0846164,-18.9042555]}},{"type":"Feature","properties":{"nome":"Seac","osm_id":3573536098,"osm_tipo":"node","tipo_lugar":"suburb"},"geometry":{"type":"Point","coordinates":[-40.0722202,-18.9142337]}}]}