{"type":"FeatureCollection","features":[{"type":"Feature","properties":{"nome":"Barra do Itapemirim","osm_id":416657564,"osm_tipo":"node","tipo_lugar":"suburb"},"geometry":{"type":"Point","coordinates":[-40.8109739,-21.010354]}},{"type":"Feature","properties":{"nome":"Boa Vista do Sul","osm_id":416657568,"osm_tipo":"node","tipo_lugar":"suburb"},"geometry":{"type":"Point","coordinates":[-40.9110759,-21.165969]}},{"type":"Feature","properties":{"nome":"Ilmenita","osm_id":1446795127,"osm_tipo":"node","tipo_lugar":"suburb"},"geometry":{"type":"Point","coordinates":[-40.8196363,-21.0359177]}},{"type":"Feature","properties":{"nome":"Xodó","osm_id":1451310516,"osm_tipo":"node","tipo_lugar":"suburb"},"geometry":{"type":"Point","coordinates":[-40.8327652,-21.051413]}},{"type":"Feature","properties":{"nome":"Cidade Nova","osm_id":1477448358,"osm_tipo":"node","tipo_lugar":"suburb"},"geometry":{"type":"Point","coordinates":[-40.8143058,-21.0261377]}},{"type":"Feature","properties":{"nome":"Pontal","osm_id":1489994084,"osm_tipo":"node","tipo_lugar":"suburb"},"geometry":{"type":"Point","coordinates":[-40.8083652,-21.0008626]}},{"type":"Feature","properties":{"nome":"Acapulco","osm_id":1626484124,"osm_tipo":"node","tipo_lugar":"suburb"},"geometry":{"type":"Point","coordinates":[-40.8206429,-21.0215962]}},{"type":"Feature","properties":{"nome":"Belo Horizonte","osm_id":1626495829,"osm_tipo":"node","tipo_lugar":"suburb"},"geometry":{"type":"Point","coordinates":[-40.8397082,-21.0490846]}},{"type":"Feature","properties":{"nome":"Santa Tereza","osm_id":1626495980,"osm_tipo":"node","tipo_lugar":"suburb"},"geometry":{"type":"Point","coordinates":[-40.835252,-21.0429747]}},{"type":"Feature","properties":{"nome":"Lagoa Funda","osm_id":1626496884,"osm_tipo":"node","tipo_lugar":"suburb"},"geometry":{"type":"Point","coordinates":[-40.8376984,-21.0682063]}},{"type":"Feature","properties":{"nome":"Praia dos Cações","osm_id":1827223516,"osm_tipo":"node","tipo_lugar":"suburb"},"geometry":{"type":"Point","coordinates":[-40.8690647,-21.1330687]}},{"type":"Feature","properties":{"nome":"Centro","osm_id":2281047309,"osm_tipo":"node","tipo_lugar":"suburb"},"geometry":{"type":"Point","coordinates":[-40.8272204,-21.0443767]}},{"type":"Feature","properties":{"nome":"boa vista do sul","osm_id":1481175347,"osm_tipo":"way","tipo_lugar":"suburb"},"geometry":{"type":"Polygon","coordinates":[[[-40.9178163,-21.1771107],[-40.9221204,-21.1750079],[-40.9229542,-21.1713474],[-40.9195168,-21.1578794],[-40.9015611,-21.1517624],[-40.8904769,-21.1525004],[-40.892456,-21.1565585],[-40.9025346,-21.1623981],[-40.9178163,-21.1771107]]]}}]}