{"type":"FeatureCollection","features":[{"type":"Feature","properties":{"nome":"Adão Wagmacker","osm_id":3573535096,"osm_tipo":"node","tipo_lugar":"neighbourhood"},"geometry":{"type":"Point","coordinates":[-40.5253223,-18.1000418]}},{"type":"Feature","properties":{"nome":"Alto Bonito","osm_id":3573535111,"osm_tipo":"node","tipo_lugar":"neighbourhood"},"geometry":{"type":"Point","coordinates":[-40.5265703,-18.101738]}},{"type":"Feature","properties":{"nome":"Boa Vista","osm_id":3573535218,"osm_tipo":"node","tipo_lugar":"neighbourhood"},"geometry":{"type":"Point","coordinates":[-40.5226995,-18.0986833]}},{"type":"Feature","properties":{"nome":"Caxias","osm_id":3573535282,"osm_tipo":"node","tipo_lugar":"neighbourhood"},"geometry":{"type":"Point","coordinates":[-40.5157206,-18.0962225]}},{"type":"Feature","properties":{"nome":"Centro","osm_id":3573535291,"osm_tipo":"node","tipo_lugar":"neighbourhood"},"geometry":{"type":"Point","coordinates":[-40.5176338,-18.0944114]}},{"type":"Feature","properties":{"nome":"Niterói","osm_id":3573535633,"osm_tipo":"node","tipo_lugar":"neighbourhood"},"geometry":{"type":"Point","coordinates":[-40.514945,-18.0919415]}},{"type":"Feature","properties":{"nome":"Planalto","osm_id":3573535758,"osm_tipo":"node","tipo_lugar":"neighbourhood"},"geometry":{"type":"Point","coordinates":[-40.5204706,-18.095172]}},{"type":"Feature","properties":{"nome":"Polo Industrial","osm_id":3573535763,"osm_tipo":"node","tipo_lugar":"neighbourhood"},"geometry":{"type":"Point","coordinates":[-40.5305225,-18.1063145]}},{"type":"Feature","properties":{"nome":"Sostenes Ferreira","osm_id":3573536114,"osm_tipo":"node","tipo_lugar":"neighbourhood"},"geometry":{"type":"Point","coordinates":[-40.5214475,-18.0938275]}}]}