{"type":"FeatureCollection","features":[{"type":"Feature","properties":{"nome":"Nossa Senhora Aparecida","osm_id":3062935205,"osm_tipo":"node","tipo_lugar":"suburb"},"geometry":{"type":"Point","coordinates":[-41.3445068,-20.9576498]}},{"type":"Feature","properties":{"nome":"Alto Boa Esperança","osm_id":3573535110,"osm_tipo":"node","tipo_lugar":"suburb"},"geometry":{"type":"Point","coordinates":[-41.3402403,-20.9608335]}},{"type":"Feature","properties":{"nome":"Boa Esperança","osm_id":3573535212,"osm_tipo":"node","tipo_lugar":"suburb"},"geometry":{"type":"Point","coordinates":[-41.3424474,-20.9566083]}},{"type":"Feature","properties":{"nome":"Centro","osm_id":3573535353,"osm_tipo":"node","tipo_lugar":"suburb"},"geometry":{"type":"Point","coordinates":[-41.3463131,-20.9517821]}},{"type":"Feature","properties":{"nome":"Entre Morros","osm_id":3573535418,"osm_tipo":"node","tipo_lugar":"suburb"},"geometry":{"type":"Point","coordinates":[-41.3544109,-20.9545195]}},{"type":"Feature","properties":{"nome":"San Domingo","osm_id":3573535929,"osm_tipo":"node","tipo_lugar":"suburb"},"geometry":{"type":"Point","coordinates":[-41.340874,-20.9514414]}},{"type":"Feature","properties":{"nome":"Santo Agostinho","osm_id":3573535977,"osm_tipo":"node","tipo_lugar":"suburb"},"geometry":{"type":"Point","coordinates":[-41.3462069,-20.9469993]}},{"type":"Feature","properties":{"nome":"São Francisco","osm_id":3573536131,"osm_tipo":"node","tipo_lugar":"suburb"},"geometry":{"type":"Point","coordinates":[-41.3325395,-20.9433502]}},{"type":"Feature","properties":{"nome":"São Pedro","osm_id":3573536163,"osm_tipo":"node","tipo_lugar":"suburb"},"geometry":{"type":"Point","coordinates":[-41.3388686,-20.9487845]}}]}