{"type":"FeatureCollection","features":[{"type":"Feature","properties":{"nome":"Centro","osm_id":3573535313,"osm_tipo":"node","tipo_lugar":"suburb"},"geometry":{"type":"Point","coordinates":[-40.8522971,-19.2240063]}},{"type":"Feature","properties":{"nome":"Lírio dos Vales","osm_id":3573535580,"osm_tipo":"node","tipo_lugar":"suburb"},"geometry":{"type":"Point","coordinates":[-40.8549718,-19.2194344]}},{"type":"Feature","properties":{"nome":"Nilton Sá","osm_id":3573535632,"osm_tipo":"node","tipo_lugar":"suburb"},"geometry":{"type":"Point","coordinates":[-40.8401693,-19.2292524]}},{"type":"Feature","properties":{"nome":"Nossa Senhora Aparecida","osm_id":3573535645,"osm_tipo":"node","tipo_lugar":"suburb"},"geometry":{"type":"Point","coordinates":[-40.8547372,-19.2259336]}},{"type":"Feature","properties":{"nome":"Nossa Senhora das Graças","osm_id":3573535659,"osm_tipo":"node","tipo_lugar":"suburb"},"geometry":{"type":"Point","coordinates":[-40.8472042,-19.2257468]}},{"type":"Feature","properties":{"nome":"Oscar Lourenço da Silva","osm_id":3573535707,"osm_tipo":"node","tipo_lugar":"suburb"},"geometry":{"type":"Point","coordinates":[-40.8574633,-19.2210797]}},{"type":"Feature","properties":{"nome":"Sebastião Furtado","osm_id":3573536099,"osm_tipo":"node","tipo_lugar":"suburb"},"geometry":{"type":"Point","coordinates":[-40.8513682,-19.2203235]}},{"type":"Feature","properties":{"nome":"Vila Nova","osm_id":3573536242,"osm_tipo":"node","tipo_lugar":"suburb"},"geometry":{"type":"Point","coordinates":[-40.8479683,-19.2227584]}}]}