{"type":"FeatureCollection","features":[{"type":"Feature","properties":{"nome":"Canário","osm_id":3573535268,"osm_tipo":"node","tipo_lugar":"suburb"},"geometry":{"type":"Point","coordinates":[-40.2152675,-18.4080009]}},{"type":"Feature","properties":{"nome":"Centro","osm_id":3573535296,"osm_tipo":"node","tipo_lugar":"suburb"},"geometry":{"type":"Point","coordinates":[-40.2126809,-18.4145221]}},{"type":"Feature","properties":{"nome":"Domiciano","osm_id":3573535413,"osm_tipo":"node","tipo_lugar":"suburb"},"geometry":{"type":"Point","coordinates":[-40.2187928,-18.4115554]}},{"type":"Feature","properties":{"nome":"Galileia","osm_id":3573535452,"osm_tipo":"node","tipo_lugar":"suburb"},"geometry":{"type":"Point","coordinates":[-40.2224508,-18.4156836]}},{"type":"Feature","properties":{"nome":"Jardim Planalto","osm_id":3573535513,"osm_tipo":"node","tipo_lugar":"suburb"},"geometry":{"type":"Point","coordinates":[-40.2265155,-18.4154596]}},{"type":"Feature","properties":{"nome":"Jundiá","osm_id":3573535546,"osm_tipo":"node","tipo_lugar":"suburb"},"geometry":{"type":"Point","coordinates":[-40.2141353,-18.419051]}},{"type":"Feature","properties":{"nome":"Loteamento Amaranto","osm_id":3573535570,"osm_tipo":"node","tipo_lugar":"suburb"},"geometry":{"type":"Point","coordinates":[-40.2059763,-18.4147249]}},{"type":"Feature","properties":{"nome":"Loteamento Fávaro","osm_id":3573535571,"osm_tipo":"node","tipo_lugar":"suburb"},"geometry":{"type":"Point","coordinates":[-40.2081231,-18.4197727]}},{"type":"Feature","properties":{"nome":"Loteamento Nova Canaã","osm_id":3573535573,"osm_tipo":"node","tipo_lugar":"suburb"},"geometry":{"type":"Point","coordinates":[-40.2109211,-18.4087678]}},{"type":"Feature","properties":{"nome":"Lulina","osm_id":3573535578,"osm_tipo":"node","tipo_lugar":"suburb"},"geometry":{"type":"Point","coordinates":[-40.216864,-18.4148311]}},{"type":"Feature","properties":{"nome":"Niterói","osm_id":3573535634,"osm_tipo":"node","tipo_lugar":"suburb"},"geometry":{"type":"Point","coordinates":[-40.2173254,-18.4175244]}},{"type":"Feature","properties":{"nome":"Pinheirinho","osm_id":3573535750,"osm_tipo":"node","tipo_lugar":"suburb"},"geometry":{"type":"Point","coordinates":[-40.2273298,-18.4041833]}},{"type":"Feature","properties":{"nome":"Residencial Pinheiros","osm_id":3573535911,"osm_tipo":"node","tipo_lugar":"suburb"},"geometry":{"type":"Point","coordinates":[-40.2207769,-18.41889]}},{"type":"Feature","properties":{"nome":"Santo Antônio II","osm_id":3573535981,"osm_tipo":"node","tipo_lugar":"suburb"},"geometry":{"type":"Point","coordinates":[-40.222485,-18.4124626]}},{"type":"Feature","properties":{"nome":"Santo Antônio","osm_id":3573535983,"osm_tipo":"node","tipo_lugar":"suburb"},"geometry":{"type":"Point","coordinates":[-40.2246441,-18.4135824]}},{"type":"Feature","properties":{"nome":"Vila Nova","osm_id":3573536239,"osm_tipo":"node","tipo_lugar":"suburb"},"geometry":{"type":"Point","coordinates":[-40.2090628,-18.413908]}},{"type":"Feature","properties":{"nome":"Vila Verde","osm_id":3573536265,"osm_tipo":"node","tipo_lugar":"suburb"},"geometry":{"type":"Point","coordinates":[-40.2197581,-18.4143485]}},{"type":"Feature","properties":{"nome":"Souto","osm_id":3775055382,"osm_tipo":"node","tipo_lugar":"neighbourhood"},"geometry":{"type":"Point","coordinates":[-8.4950314,42.0399642]}},{"type":"Feature","properties":{"nome":"Cheira","osm_id":3775733809,"osm_tipo":"node","tipo_lugar":"neighbourhood"},"geometry":{"type":"Point","coordinates":[-8.4929884,42.0373922]}},{"type":"Feature","properties":{"nome":"Costa","osm_id":3775733810,"osm_tipo":"node","tipo_lugar":"neighbourhood"},"geometry":{"type":"Point","coordinates":[-8.5077365,42.0390672]}},{"type":"Feature","properties":{"nome":"Cruzeiro","osm_id":3775733812,"osm_tipo":"node","tipo_lugar":"neighbourhood"},"geometry":{"type":"Point","coordinates":[-8.5044347,42.0380557]}},{"type":"Feature","properties":{"nome":"Ponte","osm_id":3775733827,"osm_tipo":"node","tipo_lugar":"neighbourhood"},"geometry":{"type":"Point","coordinates":[-8.5005159,42.0373901]}}]}