{"type":"FeatureCollection","features":[{"type":"Feature","properties":{"nome":"Alvorada","osm_id":3573535127,"osm_tipo":"node","tipo_lugar":"suburb"},"geometry":{"type":"Point","coordinates":[-40.6016482,-19.94033]}},{"type":"Feature","properties":{"nome":"Bairro do Eco","osm_id":3573535175,"osm_tipo":"node","tipo_lugar":"suburb"},"geometry":{"type":"Point","coordinates":[-40.5951799,-19.9316049]}},{"type":"Feature","properties":{"nome":"Canaã","osm_id":3573535261,"osm_tipo":"node","tipo_lugar":"suburb"},"geometry":{"type":"Point","coordinates":[-40.5967842,-19.9269191]}},{"type":"Feature","properties":{"nome":"Centenário","osm_id":3573535286,"osm_tipo":"node","tipo_lugar":"suburb"},"geometry":{"type":"Point","coordinates":[-40.5881009,-19.9384162]}},{"type":"Feature","properties":{"nome":"Centro","osm_id":3573535324,"osm_tipo":"node","tipo_lugar":"suburb"},"geometry":{"type":"Point","coordinates":[-40.6004885,-19.9345704]}},{"type":"Feature","properties":{"nome":"Dois Pinheiros","osm_id":3573535410,"osm_tipo":"node","tipo_lugar":"suburb"},"geometry":{"type":"Point","coordinates":[-40.5931421,-19.9378385]}},{"type":"Feature","properties":{"nome":"Jardim da Montanha","osm_id":3573535518,"osm_tipo":"node","tipo_lugar":"suburb"},"geometry":{"type":"Point","coordinates":[-40.5887702,-19.9426407]}},{"type":"Feature","properties":{"nome":"João Júlio Migliorelli","osm_id":3573535538,"osm_tipo":"node","tipo_lugar":"suburb"},"geometry":{"type":"Point","coordinates":[-40.5864375,-19.9376291]}},{"type":"Feature","properties":{"nome":"Recanto do Vale","osm_id":3573535904,"osm_tipo":"node","tipo_lugar":"suburb"},"geometry":{"type":"Point","coordinates":[-40.6000946,-19.9280982]}},{"type":"Feature","properties":{"nome":"Residência","osm_id":3573535914,"osm_tipo":"node","tipo_lugar":"suburb"},"geometry":{"type":"Point","coordinates":[-40.5794976,-19.9425553]}},{"type":"Feature","properties":{"nome":"São Lourenço","osm_id":3573536148,"osm_tipo":"node","tipo_lugar":"suburb"},"geometry":{"type":"Point","coordinates":[-40.6141512,-19.9318728]}},{"type":"Feature","properties":{"nome":"Vila Anita","osm_id":3573536216,"osm_tipo":"node","tipo_lugar":"suburb"},"geometry":{"type":"Point","coordinates":[-40.5981059,-19.9360498]}},{"type":"Feature","properties":{"nome":"Vila Nova","osm_id":3573536245,"osm_tipo":"node","tipo_lugar":"suburb"},"geometry":{"type":"Point","coordinates":[-40.6078144,-19.940085]}},{"type":"Feature","properties":{"nome":"Saucipampa","osm_id":11729384269,"osm_tipo":"node","tipo_lugar":"neighbourhood"},"geometry":{"type":"Point","coordinates":[-72.598386,-13.1370326]}}]}