{"type":"FeatureCollection","features":[{"type":"Feature","properties":{"nome":"Alegre","osm_id":3573535106,"osm_tipo":"node","tipo_lugar":"suburb"},"geometry":{"type":"Point","coordinates":[-40.0961945,-19.2048283]}},{"type":"Feature","properties":{"nome":"Centro","osm_id":3573535312,"osm_tipo":"node","tipo_lugar":"suburb"},"geometry":{"type":"Point","coordinates":[-40.0989752,-19.1913853]}},{"type":"Feature","properties":{"nome":"Parque São Jorge","osm_id":3573535733,"osm_tipo":"node","tipo_lugar":"suburb"},"geometry":{"type":"Point","coordinates":[-40.1084806,-19.1874545]}},{"type":"Feature","properties":{"nome":"Salvador","osm_id":3573535927,"osm_tipo":"node","tipo_lugar":"suburb"},"geometry":{"type":"Point","coordinates":[-40.1132255,-19.1855363]}},{"type":"Feature","properties":{"nome":"Sayonara","osm_id":3573536094,"osm_tipo":"node","tipo_lugar":"suburb"},"geometry":{"type":"Point","coordinates":[-40.1050276,-19.1893999]}},{"type":"Feature","properties":{"nome":"Vale do Sol","osm_id":3573536206,"osm_tipo":"node","tipo_lugar":"suburb"},"geometry":{"type":"Point","coordinates":[-40.0924087,-19.188339]}},{"type":"Feature","properties":{"nome":"Canaã","osm_id":10293642993,"osm_tipo":"node","tipo_lugar":"suburb"},"geometry":{"type":"Point","coordinates":[-40.0990154,-19.196162]}},{"type":"Feature","properties":{"nome":"Residencial Bionativa","osm_id":10293813546,"osm_tipo":"node","tipo_lugar":"suburb"},"geometry":{"type":"Point","coordinates":[-40.114463,-19.1907148]}},{"type":"Feature","properties":{"nome":"Nova Canaã","osm_id":10294991653,"osm_tipo":"node","tipo_lugar":"suburb"},"geometry":{"type":"Point","coordinates":[-40.091697,-19.1932437]}},{"type":"Feature","properties":{"nome":"Dalvo Loureiro","osm_id":10294991654,"osm_tipo":"node","tipo_lugar":"suburb"},"geometry":{"type":"Point","coordinates":[-40.0934994,-19.1902444]}},{"type":"Feature","properties":{"nome":"Sayonara Dois","osm_id":10296583535,"osm_tipo":"node","tipo_lugar":"suburb"},"geometry":{"type":"Point","coordinates":[-40.1117063,-19.1919163]}}]}