{"type":"FeatureCollection","features":[{"type":"Feature","properties":{"nome":"Bairro Avelino Leal","osm_id":3832906863,"osm_tipo":"node","tipo_lugar":"suburb"},"geometry":{"type":"Point","coordinates":[-70.7730474,-8.1535895]}},{"type":"Feature","properties":{"nome":"Bairro Novo","osm_id":3832906864,"osm_tipo":"node","tipo_lugar":"suburb"},"geometry":{"type":"Point","coordinates":[-70.7779882,-8.1518957]}},{"type":"Feature","properties":{"nome":"Bairro Senador Pompeu","osm_id":3832906865,"osm_tipo":"node","tipo_lugar":"suburb"},"geometry":{"type":"Point","coordinates":[-70.7656146,-8.1654831]}},{"type":"Feature","properties":{"nome":"Bairro Triangulo","osm_id":3832906866,"osm_tipo":"node","tipo_lugar":"suburb"},"geometry":{"type":"Point","coordinates":[-70.7578216,-8.1533149]}},{"type":"Feature","properties":{"nome":"Bairro do Ipepaconha","osm_id":3832906867,"osm_tipo":"node","tipo_lugar":"suburb"},"geometry":{"type":"Point","coordinates":[-70.7797554,-8.1767962]}},{"type":"Feature","properties":{"nome":"Copacabana","osm_id":3832906868,"osm_tipo":"node","tipo_lugar":"suburb"},"geometry":{"type":"Point","coordinates":[-70.7775006,-8.1543049]}},{"type":"Feature","properties":{"nome":"Pepacunha","osm_id":3832906869,"osm_tipo":"node","tipo_lugar":"suburb"},"geometry":{"type":"Point","coordinates":[-70.7847544,-8.1618348]}},{"type":"Feature","properties":{"nome":"Vila Seabra","osm_id":3832906870,"osm_tipo":"node","tipo_lugar":"suburb"},"geometry":{"type":"Point","coordinates":[-70.7753811,-8.1506294]}}]}