{"type":"FeatureCollection","features":[{"type":"Feature","properties":{"nome":"Jundiaquara","osm_id":368179922,"osm_tipo":"node","tipo_lugar":"suburb"},"geometry":{"type":"Point","coordinates":[-47.6012258,-23.574148]}},{"type":"Feature","properties":{"nome":"Centro","osm_id":3935051218,"osm_tipo":"node","tipo_lugar":"suburb"},"geometry":{"type":"Point","coordinates":[-47.6157008,-23.505454]}},{"type":"Feature","properties":{"nome":"Terras de Camapuã","osm_id":3938709829,"osm_tipo":"node","tipo_lugar":"suburb"},"geometry":{"type":"Point","coordinates":[-47.7194918,-23.5569576]}},{"type":"Feature","properties":{"nome":"Fazenda D'Oeste III","osm_id":3938709830,"osm_tipo":"node","tipo_lugar":"suburb"},"geometry":{"type":"Point","coordinates":[-47.7162098,-23.5615537]}},{"type":"Feature","properties":{"nome":"Vale Verde","osm_id":3938710077,"osm_tipo":"node","tipo_lugar":"suburb"},"geometry":{"type":"Point","coordinates":[-47.7290851,-23.5709765]}},{"type":"Feature","properties":{"nome":"Fazenda D'Oeste II","osm_id":3938710078,"osm_tipo":"node","tipo_lugar":"suburb"},"geometry":{"type":"Point","coordinates":[-47.7240345,-23.5744053]}},{"type":"Feature","properties":{"nome":"Conjunto Habitacional Vereadora Maria Paula Esposito","osm_id":3938782641,"osm_tipo":"node","tipo_lugar":"suburb"},"geometry":{"type":"Point","coordinates":[-47.6250348,-23.5156119]}},{"type":"Feature","properties":{"nome":"Bairro de São Bento","osm_id":3944758212,"osm_tipo":"node","tipo_lugar":"neighbourhood"},"geometry":{"type":"Point","coordinates":[-47.728797,-23.606909]}},{"type":"Feature","properties":{"nome":"Cercado","osm_id":3944758213,"osm_tipo":"node","tipo_lugar":"suburb"},"geometry":{"type":"Point","coordinates":[-47.7450068,-23.5879507]}},{"type":"Feature","properties":{"nome":"Bairro Barra","osm_id":3944758214,"osm_tipo":"node","tipo_lugar":"neighbourhood"},"geometry":{"type":"Point","coordinates":[-47.6867313,-23.6099571]}},{"type":"Feature","properties":{"nome":"Jundiacanga","osm_id":3944758215,"osm_tipo":"node","tipo_lugar":"suburb"},"geometry":{"type":"Point","coordinates":[-47.679557,-23.572439]}},{"type":"Feature","properties":{"nome":"Terras de Araçoiaba","osm_id":3944758216,"osm_tipo":"node","tipo_lugar":"suburb"},"geometry":{"type":"Point","coordinates":[-47.6922095,-23.5456558]}},{"type":"Feature","properties":{"nome":"Aparecida","osm_id":3944758218,"osm_tipo":"node","tipo_lugar":"neighbourhood"},"geometry":{"type":"Point","coordinates":[-47.6930876,-23.5249901]}},{"type":"Feature","properties":{"nome":"Bairro Iperó","osm_id":3944758220,"osm_tipo":"node","tipo_lugar":"neighbourhood"},"geometry":{"type":"Point","coordinates":[-47.6777655,-23.4887029]}},{"type":"Feature","properties":{"nome":"Tijuco Preto","osm_id":3944758221,"osm_tipo":"node","tipo_lugar":"neighbourhood"},"geometry":{"type":"Point","coordinates":[-47.6957086,-23.5035702]}},{"type":"Feature","properties":{"nome":"Bairro do Retiro","osm_id":3944758222,"osm_tipo":"node","tipo_lugar":"suburb"},"geometry":{"type":"Point","coordinates":[-47.6528984,-23.5127997]}},{"type":"Feature","properties":{"nome":"Iperó-Mirim","osm_id":3944758223,"osm_tipo":"node","tipo_lugar":"suburb"},"geometry":{"type":"Point","coordinates":[-47.6908783,-23.4944456]}},{"type":"Feature","properties":{"nome":"Morro","osm_id":3944758224,"osm_tipo":"node","tipo_lugar":"neighbourhood"},"geometry":{"type":"Point","coordinates":[-47.667275,-23.4735317]}},{"type":"Feature","properties":{"nome":"Bairro dos Farias","osm_id":3944758225,"osm_tipo":"node","tipo_lugar":"neighbourhood"},"geometry":{"type":"Point","coordinates":[-47.6441944,-23.4977072]}},{"type":"Feature","properties":{"nome":"Campina","osm_id":3944758226,"osm_tipo":"node","tipo_lugar":"suburb"},"geometry":{"type":"Point","coordinates":[-47.6558577,-23.5224475]}},{"type":"Feature","properties":{"nome":"Altos do Cercado","osm_id":3944758227,"osm_tipo":"node","tipo_lugar":"suburb"},"geometry":{"type":"Point","coordinates":[-47.6587351,-23.5405407]}},{"type":"Feature","properties":{"nome":"Terra dos Pinheirais","osm_id":3944758228,"osm_tipo":"node","tipo_lugar":"suburb"},"geometry":{"type":"Point","coordinates":[-47.6609376,-23.5384363]}},{"type":"Feature","properties":{"nome":"Loteamento Estrada da Colônia","osm_id":3944758229,"osm_tipo":"node","tipo_lugar":"neighbourhood"},"geometry":{"type":"Point","coordinates":[-47.6462254,-23.5419765]}},{"type":"Feature","properties":{"nome":"Guaxinduva","osm_id":3944758230,"osm_tipo":"node","tipo_lugar":"neighbourhood"},"geometry":{"type":"Point","coordinates":[-47.6599609,-23.6077687]}},{"type":"Feature","properties":{"nome":"Colonia","osm_id":3944758231,"osm_tipo":"node","tipo_lugar":"neighbourhood"},"geometry":{"type":"Point","coordinates":[-47.670431,-23.5522936]}},{"type":"Feature","properties":{"nome":"Colina de Ipanema","osm_id":3944774202,"osm_tipo":"node","tipo_lugar":"suburb"},"geometry":{"type":"Point","coordinates":[-47.6245727,-23.5239945]}},{"type":"Feature","properties":{"nome":"Distrito Industrial (Antigo)","osm_id":3944774203,"osm_tipo":"node","tipo_lugar":"suburb"},"geometry":{"type":"Point","coordinates":[-47.6226638,-23.5264537]}},{"type":"Feature","properties":{"nome":"Jardim Colonial II","osm_id":3945140338,"osm_tipo":"node","tipo_lugar":"neighbourhood"},"geometry":{"type":"Point","coordinates":[-47.5813823,-23.517355]}},{"type":"Feature","properties":{"nome":"Colinas II","osm_id":3945140339,"osm_tipo":"node","tipo_lugar":"suburb"},"geometry":{"type":"Point","coordinates":[-47.5758004,-23.526199]}},{"type":"Feature","properties":{"nome":"Colinas I","osm_id":3945140340,"osm_tipo":"node","tipo_lugar":"suburb"},"geometry":{"type":"Point","coordinates":[-47.5825383,-23.5242904]}},{"type":"Feature","properties":{"nome":"Parque Monte Bianco","osm_id":3945140341,"osm_tipo":"node","tipo_lugar":"suburb"},"geometry":{"type":"Point","coordinates":[-47.5715017,-23.52574]}},{"type":"Feature","properties":{"nome":"Residencial Pomares","osm_id":3945140342,"osm_tipo":"node","tipo_lugar":"suburb"},"geometry":{"type":"Point","coordinates":[-47.5663521,-23.528573]}},{"type":"Feature","properties":{"nome":"Recanto Ipanema do Meio","osm_id":3945140344,"osm_tipo":"node","tipo_lugar":"suburb"},"geometry":{"type":"Point","coordinates":[-47.5594428,-23.5568212]}},{"type":"Feature","properties":{"nome":"Rancho Billy","osm_id":3945140354,"osm_tipo":"node","tipo_lugar":"suburb"},"geometry":{"type":"Point","coordinates":[-47.583438,-23.5623622]}},{"type":"Feature","properties":{"nome":"Nucleo dos Ferreiras","osm_id":3945140355,"osm_tipo":"node","tipo_lugar":"suburb"},"geometry":{"type":"Point","coordinates":[-47.583005,-23.5583028]}},{"type":"Feature","properties":{"nome":"Bairro do Colégio Velho","osm_id":3945140356,"osm_tipo":"node","tipo_lugar":"suburb"},"geometry":{"type":"Point","coordinates":[-47.5824723,-23.5552417]}},{"type":"Feature","properties":{"nome":"Jardim Maria da Glória","osm_id":3945920204,"osm_tipo":"node","tipo_lugar":"suburb"},"geometry":{"type":"Point","coordinates":[-47.6169932,-23.5111182]}},{"type":"Feature","properties":{"nome":"Conjunto Habitacional Alcides Vieira","osm_id":3945920205,"osm_tipo":"node","tipo_lugar":"suburb"},"geometry":{"type":"Point","coordinates":[-47.6229435,-23.5137646]}},{"type":"Feature","properties":{"nome":"Jardim Tonelli","osm_id":3945976495,"osm_tipo":"node","tipo_lugar":"suburb"},"geometry":{"type":"Point","coordinates":[-47.5998121,-23.5168429]}},{"type":"Feature","properties":{"nome":"Jardim Dalila","osm_id":3945979074,"osm_tipo":"node","tipo_lugar":"suburb"},"geometry":{"type":"Point","coordinates":[-47.6036316,-23.5148168]}},{"type":"Feature","properties":{"nome":"Chácara Primavera","osm_id":3945995206,"osm_tipo":"node","tipo_lugar":"suburb"},"geometry":{"type":"Point","coordinates":[-47.5965398,-23.5152108]}},{"type":"Feature","properties":{"nome":"Chácara Santo Antônio","osm_id":3946002626,"osm_tipo":"node","tipo_lugar":"suburb"},"geometry":{"type":"Point","coordinates":[-47.5533139,-23.4997345]}},{"type":"Feature","properties":{"nome":"Jardim Colonial I","osm_id":3946002627,"osm_tipo":"node","tipo_lugar":"suburb"},"geometry":{"type":"Point","coordinates":[-47.5696217,-23.5070742]}},{"type":"Feature","properties":{"nome":"Parque Monte Líbano","osm_id":3946002628,"osm_tipo":"node","tipo_lugar":"suburb"},"geometry":{"type":"Point","coordinates":[-47.5561249,-23.5047533]}},{"type":"Feature","properties":{"nome":"Residencial Alvorada","osm_id":3946029146,"osm_tipo":"node","tipo_lugar":"suburb"},"geometry":{"type":"Point","coordinates":[-47.6191031,-23.5202167]}},{"type":"Feature","properties":{"nome":"Jardim Santa Cruz","osm_id":3946033663,"osm_tipo":"node","tipo_lugar":"neighbourhood"},"geometry":{"type":"Point","coordinates":[-47.6033907,-23.505436]}},{"type":"Feature","properties":{"nome":"Loteamento Jaiminho","osm_id":3946035049,"osm_tipo":"node","tipo_lugar":"neighbourhood"},"geometry":{"type":"Point","coordinates":[-47.5881408,-23.4955656]}},{"type":"Feature","properties":{"nome":"Jardim Master","osm_id":3946035050,"osm_tipo":"node","tipo_lugar":"suburb"},"geometry":{"type":"Point","coordinates":[-47.5987838,-23.4947391]}},{"type":"Feature","properties":{"nome":"Residencial Saint Charbel","osm_id":3946036967,"osm_tipo":"node","tipo_lugar":"suburb"},"geometry":{"type":"Point","coordinates":[-47.5587641,-23.487318]}},{"type":"Feature","properties":{"nome":"Residencial Village Ipanema II","osm_id":3946036968,"osm_tipo":"node","tipo_lugar":"suburb"},"geometry":{"type":"Point","coordinates":[-47.5634362,-23.4869827]}},{"type":"Feature","properties":{"nome":"Residencial Village Ipanema I","osm_id":3946036969,"osm_tipo":"node","tipo_lugar":"suburb"},"geometry":{"type":"Point","coordinates":[-47.5686572,-23.4921021]}},{"type":"Feature","properties":{"nome":"Jardim Planalto","osm_id":3946056892,"osm_tipo":"node","tipo_lugar":"neighbourhood"},"geometry":{"type":"Point","coordinates":[-47.6278578,-23.5011719]}},{"type":"Feature","properties":{"nome":"Caminhos de San Conrado","osm_id":3946058109,"osm_tipo":"node","tipo_lugar":"suburb"},"geometry":{"type":"Point","coordinates":[-47.6139747,-23.4960163]}},{"type":"Feature","properties":{"nome":"Residencial Nova Araçoiaba","osm_id":3946060319,"osm_tipo":"node","tipo_lugar":"suburb"},"geometry":{"type":"Point","coordinates":[-47.61361,-23.5020181]}},{"type":"Feature","properties":{"nome":"Conjunto Habitacional José Antunes Nogueira","osm_id":3946062074,"osm_tipo":"node","tipo_lugar":"suburb"},"geometry":{"type":"Point","coordinates":[-47.6208197,-23.50306]}},{"type":"Feature","properties":{"nome":"Portal de Araçoiaba","osm_id":3946062825,"osm_tipo":"node","tipo_lugar":"neighbourhood"},"geometry":{"type":"Point","coordinates":[-47.6252615,-23.5024116]}},{"type":"Feature","properties":{"nome":"Estância Las Vegas","osm_id":3946118731,"osm_tipo":"node","tipo_lugar":"neighbourhood"},"geometry":{"type":"Point","coordinates":[-47.6414053,-23.4678271]}},{"type":"Feature","properties":{"nome":"Riacho Fundo","osm_id":3946187702,"osm_tipo":"node","tipo_lugar":"neighbourhood"},"geometry":{"type":"Point","coordinates":[-47.5919372,-23.5738402]}},{"type":"Feature","properties":{"nome":"Residencial Colinas de Saint Germain","osm_id":3946187703,"osm_tipo":"node","tipo_lugar":"suburb"},"geometry":{"type":"Point","coordinates":[-47.5964004,-23.5719817]}},{"type":"Feature","properties":{"nome":"Residencial Villagio de San Francesco","osm_id":3946203495,"osm_tipo":"node","tipo_lugar":"neighbourhood"},"geometry":{"type":"Point","coordinates":[-47.6014094,-23.5718619]}},{"type":"Feature","properties":{"nome":"Loteamento Gonzales","osm_id":3946808570,"osm_tipo":"node","tipo_lugar":"suburb"},"geometry":{"type":"Point","coordinates":[-47.6313173,-23.5648873]}},{"type":"Feature","properties":{"nome":"Loteamento Fazenda Amadeu","osm_id":3946870365,"osm_tipo":"node","tipo_lugar":"suburb"},"geometry":{"type":"Point","coordinates":[-47.7348674,-23.552304]}},{"type":"Feature","properties":{"nome":"Loteamento Sun Flower","osm_id":3946933057,"osm_tipo":"node","tipo_lugar":"suburb"},"geometry":{"type":"Point","coordinates":[-47.58639,-23.5390062]}},{"type":"Feature","properties":{"nome":"Loteamento Antonio Vitorino","osm_id":3946934240,"osm_tipo":"node","tipo_lugar":"suburb"},"geometry":{"type":"Point","coordinates":[-47.5813193,-23.5420982]}},{"type":"Feature","properties":{"nome":"Bairro do Alto Grande","osm_id":3987081371,"osm_tipo":"node","tipo_lugar":"suburb"},"geometry":{"type":"Point","coordinates":[-47.6119161,-23.5366085]}},{"type":"Feature","properties":{"nome":"Jardim Escócia","osm_id":3988105620,"osm_tipo":"node","tipo_lugar":"suburb"},"geometry":{"type":"Point","coordinates":[-47.5693913,-23.5112378]}},{"type":"Feature","properties":{"nome":"Recanto Aldeville","osm_id":3996187125,"osm_tipo":"node","tipo_lugar":"neighbourhood"},"geometry":{"type":"Point","coordinates":[-47.5594819,-23.5142854]}},{"type":"Feature","properties":{"nome":"Loteamento Colônia","osm_id":3996639070,"osm_tipo":"node","tipo_lugar":"suburb"},"geometry":{"type":"Point","coordinates":[-47.6463741,-23.5596999]}},{"type":"Feature","properties":{"nome":"Bosque dos Eucaliptos","osm_id":3999456544,"osm_tipo":"node","tipo_lugar":"suburb"},"geometry":{"type":"Point","coordinates":[-47.5657584,-23.5475825]}},{"type":"Feature","properties":{"nome":"Loteamento Pouso dos Boiadeiros","osm_id":4000029203,"osm_tipo":"node","tipo_lugar":"neighbourhood"},"geometry":{"type":"Point","coordinates":[-47.6671062,-23.5157128]}},{"type":"Feature","properties":{"nome":"Campo do Meio","osm_id":4000031329,"osm_tipo":"node","tipo_lugar":"suburb"},"geometry":{"type":"Point","coordinates":[-47.7135781,-23.5772615]}},{"type":"Feature","properties":{"nome":"Loteamento dos Farias (COPAD)","osm_id":4000033666,"osm_tipo":"node","tipo_lugar":"neighbourhood"},"geometry":{"type":"Point","coordinates":[-47.6483495,-23.4955929]}},{"type":"Feature","properties":{"nome":"Bairro da Campina","osm_id":4000034232,"osm_tipo":"node","tipo_lugar":"neighbourhood"},"geometry":{"type":"Point","coordinates":[-47.6411424,-23.5082378]}},{"type":"Feature","properties":{"nome":"Desdobro do Araçoiabinha","osm_id":4000034820,"osm_tipo":"node","tipo_lugar":"suburb"},"geometry":{"type":"Point","coordinates":[-47.5753961,-23.4797035]}},{"type":"Feature","properties":{"nome":"Bairro do Rio Verde","osm_id":4000034826,"osm_tipo":"node","tipo_lugar":"suburb"},"geometry":{"type":"Point","coordinates":[-47.5870691,-23.4890319]}},{"type":"Feature","properties":{"nome":"Núcleo Rio Verde","osm_id":4000035778,"osm_tipo":"node","tipo_lugar":"neighbourhood"},"geometry":{"type":"Point","coordinates":[-47.5918756,-23.4937549]}},{"type":"Feature","properties":{"nome":"Desmembramento Bueno","osm_id":4000036439,"osm_tipo":"node","tipo_lugar":"neighbourhood"},"geometry":{"type":"Point","coordinates":[-47.5762115,-23.5115415]}},{"type":"Feature","properties":{"nome":"Bairro do Barreiro","osm_id":4000037204,"osm_tipo":"node","tipo_lugar":"suburb"},"geometry":{"type":"Point","coordinates":[-47.5656972,-23.5037908]}},{"type":"Feature","properties":{"nome":"Barreiro","osm_id":4000037205,"osm_tipo":"node","tipo_lugar":"neighbourhood"},"geometry":{"type":"Point","coordinates":[-47.5840221,-23.5207103]}},{"type":"Feature","properties":{"nome":"Desmembramento José Pinto","osm_id":4000038211,"osm_tipo":"node","tipo_lugar":"suburb"},"geometry":{"type":"Point","coordinates":[-47.6181194,-23.5297516]}},{"type":"Feature","properties":{"nome":"Loteamento Chuchuzeiro","osm_id":4000038412,"osm_tipo":"node","tipo_lugar":"suburb"},"geometry":{"type":"Point","coordinates":[-47.7012614,-23.5459508]}},{"type":"Feature","properties":{"nome":"Loteamento Estrada do Jundiaquara","osm_id":4000038420,"osm_tipo":"node","tipo_lugar":"neighbourhood"},"geometry":{"type":"Point","coordinates":[-47.6569117,-23.5480752]}},{"type":"Feature","properties":{"nome":"Loteamento Travessa Primavera","osm_id":4000038421,"osm_tipo":"node","tipo_lugar":"neighbourhood"},"geometry":{"type":"Point","coordinates":[-47.6560104,-23.5456754]}},{"type":"Feature","properties":{"nome":"Bairro do Monge","osm_id":4000040571,"osm_tipo":"node","tipo_lugar":"neighbourhood"},"geometry":{"type":"Point","coordinates":[-47.6610122,-23.5434545]}},{"type":"Feature","properties":{"nome":"Loteamento Recreio dos Bandeirantes","osm_id":4000040600,"osm_tipo":"node","tipo_lugar":"neighbourhood"},"geometry":{"type":"Point","coordinates":[-47.6822081,-23.5402264]}},{"type":"Feature","properties":{"nome":"Loteamento Horizonte Perdido I","osm_id":4000041555,"osm_tipo":"node","tipo_lugar":"suburb"},"geometry":{"type":"Point","coordinates":[-47.5925172,-23.5628059]}},{"type":"Feature","properties":{"nome":"Loteamento Horizonte Perdido II","osm_id":4000041752,"osm_tipo":"node","tipo_lugar":"neighbourhood"},"geometry":{"type":"Point","coordinates":[-47.594384,-23.5561184]}},{"type":"Feature","properties":{"nome":"Desmembramento Ferraz","osm_id":4000043756,"osm_tipo":"node","tipo_lugar":"suburb"},"geometry":{"type":"Point","coordinates":[-47.5906933,-23.5827876]}},{"type":"Feature","properties":{"nome":"Desmembramento Santo Messiano","osm_id":4000045448,"osm_tipo":"node","tipo_lugar":"suburb"},"geometry":{"type":"Point","coordinates":[-47.5941909,-23.5711057]}},{"type":"Feature","properties":{"nome":"Itinga","osm_id":4000045995,"osm_tipo":"node","tipo_lugar":"neighbourhood"},"geometry":{"type":"Point","coordinates":[-47.5601375,-23.5713624]}},{"type":"Feature","properties":{"nome":"Portão Grande","osm_id":4002999052,"osm_tipo":"node","tipo_lugar":"suburb"},"geometry":{"type":"Point","coordinates":[-47.626592,-23.5104003]}},{"type":"Feature","properties":{"nome":"Recanto Gran Ville","osm_id":4007148961,"osm_tipo":"node","tipo_lugar":"neighbourhood"},"geometry":{"type":"Point","coordinates":[-47.5563426,-23.5164145]}},{"type":"Feature","properties":{"nome":"Bosque dos Eucaliptos","osm_id":4017282209,"osm_tipo":"node","tipo_lugar":"suburb"},"geometry":{"type":"Point","coordinates":[-47.5656522,-23.5339701]}},{"type":"Feature","properties":{"nome":"Terras de San Felippe","osm_id":6919084710,"osm_tipo":"node","tipo_lugar":"suburb"},"geometry":{"type":"Point","coordinates":[-47.6230029,-23.5016386]}},{"type":"Feature","properties":{"nome":"Residencial Primavera","osm_id":6919084711,"osm_tipo":"node","tipo_lugar":"suburb"},"geometry":{"type":"Point","coordinates":[-47.6093139,-23.5046545]}},{"type":"Feature","properties":{"nome":"Cristóvão","osm_id":8307900959,"osm_tipo":"node","tipo_lugar":"suburb"},"geometry":{"type":"Point","coordinates":[-47.5754368,-23.5680151]}},{"type":"Feature","properties":{"nome":"Jardim Perlamar","osm_id":8318653193,"osm_tipo":"node","tipo_lugar":"suburb"},"geometry":{"type":"Point","coordinates":[-47.6087992,-23.5162535]}},{"type":"Feature","properties":{"nome":"Residencial Village Araçoiaba","osm_id":8318713569,"osm_tipo":"node","tipo_lugar":"suburb"},"geometry":{"type":"Point","coordinates":[-47.5941581,-23.5354608]}},{"type":"Feature","properties":{"nome":"Residencial Portal das Laranjeiras","osm_id":8318745227,"osm_tipo":"node","tipo_lugar":"suburb"},"geometry":{"type":"Point","coordinates":[-47.5835242,-23.533375]}},{"type":"Feature","properties":{"nome":"Loteamento Antonio Vitorino","osm_id":8318745435,"osm_tipo":"node","tipo_lugar":"suburb"},"geometry":{"type":"Point","coordinates":[-47.5942525,-23.5266556]}},{"type":"Feature","properties":{"nome":"Jardim Horizonte","osm_id":8319118880,"osm_tipo":"node","tipo_lugar":"suburb"},"geometry":{"type":"Point","coordinates":[-47.6282061,-23.5267028]}},{"type":"Feature","properties":{"nome":"Residencial Village da Serra","osm_id":8319150093,"osm_tipo":"node","tipo_lugar":"suburb"},"geometry":{"type":"Point","coordinates":[-47.7055669,-23.5752521]}},{"type":"Feature","properties":{"nome":"Residencial Portal do Sabiá","osm_id":8319203618,"osm_tipo":"node","tipo_lugar":"suburb"},"geometry":{"type":"Point","coordinates":[-47.5580915,-23.5109543]}},{"type":"Feature","properties":{"nome":"Condomínio Parque Raposo Tavares","osm_id":9814714479,"osm_tipo":"node","tipo_lugar":"neighbourhood"},"geometry":{"type":"Point","coordinates":[-47.6158168,-23.5263572]}},{"type":"Feature","properties":{"nome":"Jardim Residencial Villa Real","osm_id":10017153453,"osm_tipo":"node","tipo_lugar":"suburb"},"geometry":{"type":"Point","coordinates":[-47.6125687,-23.4985533]}},{"type":"Feature","properties":{"nome":"Jardim Floriano","osm_id":10017259451,"osm_tipo":"node","tipo_lugar":"suburb"},"geometry":{"type":"Point","coordinates":[-47.575593,-23.5638192]}},{"type":"Feature","properties":{"nome":"Recanto dos Pássaros","osm_id":10876012984,"osm_tipo":"node","tipo_lugar":"neighbourhood"},"geometry":{"type":"Point","coordinates":[-47.666296,-23.5917362]}},{"type":"Feature","properties":{"nome":"Loteamento Brizola","osm_id":11094265746,"osm_tipo":"node","tipo_lugar":"neighbourhood"},"geometry":{"type":"Point","coordinates":[-47.6895354,-23.5698291]}}]}