{"type":"FeatureCollection","features":[{"type":"Feature","properties":{"nome":"Park Residencial Colinas","osm_id":3656758184,"osm_tipo":"node","tipo_lugar":"suburb"},"geometry":{"type":"Point","coordinates":[-50.4335112,-22.6792317]}},{"type":"Feature","properties":{"nome":"Vila Arlindo Luz","osm_id":3656758185,"osm_tipo":"node","tipo_lugar":"neighbourhood"},"geometry":{"type":"Point","coordinates":[-50.4334718,-22.6641956]}},{"type":"Feature","properties":{"nome":"Vila Operária","osm_id":3656758186,"osm_tipo":"node","tipo_lugar":"suburb"},"geometry":{"type":"Point","coordinates":[-50.428326,-22.6614507]}},{"type":"Feature","properties":{"nome":"Vila Tênis Clube","osm_id":3656758187,"osm_tipo":"node","tipo_lugar":"neighbourhood"},"geometry":{"type":"Point","coordinates":[-50.4324481,-22.6501061]}},{"type":"Feature","properties":{"nome":"Vila Santa Cecília","osm_id":3656758188,"osm_tipo":"node","tipo_lugar":"neighbourhood"},"geometry":{"type":"Point","coordinates":[-50.4225925,-22.6554935]}},{"type":"Feature","properties":{"nome":"BNH","osm_id":3656758189,"osm_tipo":"node","tipo_lugar":"neighbourhood"},"geometry":{"type":"Point","coordinates":[-50.4304928,-22.6446421]}},{"type":"Feature","properties":{"nome":"Portal São Francisco","osm_id":3656758190,"osm_tipo":"node","tipo_lugar":"suburb"},"geometry":{"type":"Point","coordinates":[-50.4350225,-22.6447533]}},{"type":"Feature","properties":{"nome":"Jardim Paraná","osm_id":3656758191,"osm_tipo":"node","tipo_lugar":"suburb"},"geometry":{"type":"Point","coordinates":[-50.4316615,-22.6409273]}},{"type":"Feature","properties":{"nome":"Vila Progresso","osm_id":3656758192,"osm_tipo":"node","tipo_lugar":"suburb"},"geometry":{"type":"Point","coordinates":[-50.4265566,-22.6401251]}},{"type":"Feature","properties":{"nome":"Vila Triângulo","osm_id":3656758193,"osm_tipo":"node","tipo_lugar":"suburb"},"geometry":{"type":"Point","coordinates":[-50.4191344,-22.6486667]}},{"type":"Feature","properties":{"nome":"Vila Glória","osm_id":3656758196,"osm_tipo":"node","tipo_lugar":"neighbourhood"},"geometry":{"type":"Point","coordinates":[-50.4162939,-22.6515561]}},{"type":"Feature","properties":{"nome":"Vila Santana","osm_id":3656758197,"osm_tipo":"node","tipo_lugar":"suburb"},"geometry":{"type":"Point","coordinates":[-50.4153786,-22.6489181]}},{"type":"Feature","properties":{"nome":"Vila Rodrigues","osm_id":3656758198,"osm_tipo":"node","tipo_lugar":"neighbourhood"},"geometry":{"type":"Point","coordinates":[-50.4260752,-22.6496607]}},{"type":"Feature","properties":{"nome":"Assis IV","osm_id":3656758199,"osm_tipo":"node","tipo_lugar":"suburb"},"geometry":{"type":"Point","coordinates":[-50.4156707,-22.6455308]}},{"type":"Feature","properties":{"nome":"Parque das Acácias","osm_id":3656758200,"osm_tipo":"node","tipo_lugar":"suburb"},"geometry":{"type":"Point","coordinates":[-50.4099646,-22.6442]}},{"type":"Feature","properties":{"nome":"Jardim Aeroporto","osm_id":3656758201,"osm_tipo":"node","tipo_lugar":"neighbourhood"},"geometry":{"type":"Point","coordinates":[-50.4073149,-22.6478397]}},{"type":"Feature","properties":{"nome":"Vila Adileta","osm_id":3656758202,"osm_tipo":"node","tipo_lugar":"suburb"},"geometry":{"type":"Point","coordinates":[-50.4092498,-22.6553917]}},{"type":"Feature","properties":{"nome":"Jardim Europa","osm_id":3656758203,"osm_tipo":"node","tipo_lugar":"suburb"},"geometry":{"type":"Point","coordinates":[-50.4049856,-22.6529123]}},{"type":"Feature","properties":{"nome":"Jardim Morumbi","osm_id":3656758204,"osm_tipo":"node","tipo_lugar":"neighbourhood"},"geometry":{"type":"Point","coordinates":[-50.3926648,-22.6550514]}},{"type":"Feature","properties":{"nome":"Vila Cláudia","osm_id":3656758205,"osm_tipo":"node","tipo_lugar":"neighbourhood"},"geometry":{"type":"Point","coordinates":[-50.3964213,-22.6545712]}},{"type":"Feature","properties":{"nome":"Jardim Paulista","osm_id":3656758206,"osm_tipo":"node","tipo_lugar":"neighbourhood"},"geometry":{"type":"Point","coordinates":[-50.4001128,-22.6572124]}},{"type":"Feature","properties":{"nome":"Vila Ouro Verde","osm_id":3656758207,"osm_tipo":"node","tipo_lugar":"neighbourhood"},"geometry":{"type":"Point","coordinates":[-50.4029261,-22.6634402]}},{"type":"Feature","properties":{"nome":"Jardim Santa Amélia","osm_id":3656758208,"osm_tipo":"node","tipo_lugar":"suburb"},"geometry":{"type":"Point","coordinates":[-50.3995599,-22.6695025]}},{"type":"Feature","properties":{"nome":"Alto dos Ipês","osm_id":3656758209,"osm_tipo":"node","tipo_lugar":"suburb"},"geometry":{"type":"Point","coordinates":[-50.4022431,-22.6705079]}},{"type":"Feature","properties":{"nome":"Jardim Canadá","osm_id":3656758210,"osm_tipo":"node","tipo_lugar":"suburb"},"geometry":{"type":"Point","coordinates":[-50.4134475,-22.6720384]}},{"type":"Feature","properties":{"nome":"Park Residencial Bambu","osm_id":3656758211,"osm_tipo":"node","tipo_lugar":"suburb"},"geometry":{"type":"Point","coordinates":[-50.4098267,-22.6717431]}},{"type":"Feature","properties":{"nome":"Vila Ribeiro","osm_id":3656758212,"osm_tipo":"node","tipo_lugar":"neighbourhood"},"geometry":{"type":"Point","coordinates":[-50.4223753,-22.6731038]}},{"type":"Feature","properties":{"nome":"Vila Xavier","osm_id":3656758213,"osm_tipo":"node","tipo_lugar":"neighbourhood"},"geometry":{"type":"Point","coordinates":[-50.4240446,-22.6682264]}},{"type":"Feature","properties":{"nome":"Centro","osm_id":3656758215,"osm_tipo":"node","tipo_lugar":"neighbourhood"},"geometry":{"type":"Point","coordinates":[-50.4152391,-22.6619951]}},{"type":"Feature","properties":{"nome":"Vila Central","osm_id":3656758216,"osm_tipo":"node","tipo_lugar":"neighbourhood"},"geometry":{"type":"Point","coordinates":[-50.4227563,-22.6595129]}},{"type":"Feature","properties":{"nome":"Vila Prudênciana","osm_id":3656758217,"osm_tipo":"node","tipo_lugar":"suburb"},"geometry":{"type":"Point","coordinates":[-50.4370682,-22.6721169]}},{"type":"Feature","properties":{"nome":"Conjunto Habitacional Nelson Marcondes","osm_id":3656777275,"osm_tipo":"node","tipo_lugar":"neighbourhood"},"geometry":{"type":"Point","coordinates":[-50.3960473,-22.6447166]}},{"type":"Feature","properties":{"nome":"Jardim Monte Carlo","osm_id":3656777287,"osm_tipo":"node","tipo_lugar":"neighbourhood"},"geometry":{"type":"Point","coordinates":[-50.3949133,-22.6579775]}},{"type":"Feature","properties":{"nome":"Parque Universitário","osm_id":3656785585,"osm_tipo":"node","tipo_lugar":"neighbourhood"},"geometry":{"type":"Point","coordinates":[-50.4423079,-22.6551221]}},{"type":"Feature","properties":{"nome":"Jardim Alvorada","osm_id":3656785587,"osm_tipo":"node","tipo_lugar":"suburb"},"geometry":{"type":"Point","coordinates":[-50.4249945,-22.6426539]}},{"type":"Feature","properties":{"nome":"Vila Orestes","osm_id":3656785588,"osm_tipo":"node","tipo_lugar":"neighbourhood"},"geometry":{"type":"Point","coordinates":[-50.4297324,-22.6517269]}},{"type":"Feature","properties":{"nome":"Jardim São Nicolau","osm_id":3656785589,"osm_tipo":"node","tipo_lugar":"neighbourhood"},"geometry":{"type":"Point","coordinates":[-50.4034206,-22.6405095]}},{"type":"Feature","properties":{"nome":"Parque das Flores","osm_id":3656785590,"osm_tipo":"node","tipo_lugar":"neighbourhood"},"geometry":{"type":"Point","coordinates":[-50.4035621,-22.6423648]}},{"type":"Feature","properties":{"nome":"Nucleo Habitacional Dirceu Gomes Cervilha","osm_id":3656785591,"osm_tipo":"node","tipo_lugar":"neighbourhood"},"geometry":{"type":"Point","coordinates":[-50.445974,-22.6666261]}},{"type":"Feature","properties":{"nome":"Jardim Santa Clara","osm_id":3656785592,"osm_tipo":"node","tipo_lugar":"suburb"},"geometry":{"type":"Point","coordinates":[-50.4479915,-22.6687635]}},{"type":"Feature","properties":{"nome":"Conjunto Habitaciona Irma Catarina","osm_id":3656786888,"osm_tipo":"node","tipo_lugar":"neighbourhood"},"geometry":{"type":"Point","coordinates":[-50.4067087,-22.6491465]}},{"type":"Feature","properties":{"nome":"Vila Brasileira","osm_id":3656788624,"osm_tipo":"node","tipo_lugar":"neighbourhood"},"geometry":{"type":"Point","coordinates":[-50.4330662,-22.6680568]}},{"type":"Feature","properties":{"nome":"Quinta dos Flamboyants","osm_id":3656802025,"osm_tipo":"node","tipo_lugar":"suburb"},"geometry":{"type":"Point","coordinates":[-50.4430973,-22.6732623]}},{"type":"Feature","properties":{"nome":"Vila Clementina","osm_id":3656802026,"osm_tipo":"node","tipo_lugar":"neighbourhood"},"geometry":{"type":"Point","coordinates":[-50.4330769,-22.6611965]}},{"type":"Feature","properties":{"nome":"Vila Cambuí","osm_id":3656802027,"osm_tipo":"node","tipo_lugar":"neighbourhood"},"geometry":{"type":"Point","coordinates":[-50.4345419,-22.6614031]}},{"type":"Feature","properties":{"nome":"Vila dos Comerciários","osm_id":3656813442,"osm_tipo":"node","tipo_lugar":"neighbourhood"},"geometry":{"type":"Point","coordinates":[-50.3941652,-22.6455992]}},{"type":"Feature","properties":{"nome":"Centro de Desenvolvimento de Assis","osm_id":3657268198,"osm_tipo":"node","tipo_lugar":"neighbourhood"},"geometry":{"type":"Point","coordinates":[-50.4104281,-22.6426254]}},{"type":"Feature","properties":{"nome":"Jardim Amaury","osm_id":3657268200,"osm_tipo":"node","tipo_lugar":"neighbourhood"},"geometry":{"type":"Point","coordinates":[-50.3970696,-22.6624367]}},{"type":"Feature","properties":{"nome":"Vila Rosangela","osm_id":3657268201,"osm_tipo":"node","tipo_lugar":"neighbourhood"},"geometry":{"type":"Point","coordinates":[-50.4116919,-22.6595349]}},{"type":"Feature","properties":{"nome":"Jardim 3 Americas I","osm_id":3657268202,"osm_tipo":"node","tipo_lugar":"neighbourhood"},"geometry":{"type":"Point","coordinates":[-50.4299846,-22.6786914]}},{"type":"Feature","properties":{"nome":"Residencial Danusa","osm_id":3659103622,"osm_tipo":"node","tipo_lugar":"neighbourhood"},"geometry":{"type":"Point","coordinates":[-50.4438823,-22.6652559]}},{"type":"Feature","properties":{"nome":"Vila Nova Santana","osm_id":3659121407,"osm_tipo":"node","tipo_lugar":"neighbourhood"},"geometry":{"type":"Point","coordinates":[-50.416986,-22.6477857]}},{"type":"Feature","properties":{"nome":"Residencial São Judas Tadeu","osm_id":3662548644,"osm_tipo":"node","tipo_lugar":"neighbourhood"},"geometry":{"type":"Point","coordinates":[-50.4308066,-22.6819512]}},{"type":"Feature","properties":{"nome":"Vila Carvalho","osm_id":6328159685,"osm_tipo":"node","tipo_lugar":"suburb"},"geometry":{"type":"Point","coordinates":[-50.4354729,-22.6626765]}},{"type":"Feature","properties":{"nome":"Centro","osm_id":6328177496,"osm_tipo":"node","tipo_lugar":"suburb"},"geometry":{"type":"Point","coordinates":[-50.408064,-22.6608604]}},{"type":"Feature","properties":{"nome":"Jardim Paulista","osm_id":7094733449,"osm_tipo":"node","tipo_lugar":"suburb"},"geometry":{"type":"Point","coordinates":[-50.3988078,-22.6599029]}},{"type":"Feature","properties":{"nome":"Alto dos Ipês 2","osm_id":8033170866,"osm_tipo":"node","tipo_lugar":"suburb"},"geometry":{"type":"Point","coordinates":[-50.4081232,-22.6747729]}},{"type":"Feature","properties":{"nome":"Jardim Sul","osm_id":8033170867,"osm_tipo":"node","tipo_lugar":"suburb"},"geometry":{"type":"Point","coordinates":[-50.4220865,-22.6765809]}},{"type":"Feature","properties":{"nome":"Jardim Nossa Senhora de Fátima","osm_id":9743288564,"osm_tipo":"node","tipo_lugar":"neighbourhood"},"geometry":{"type":"Point","coordinates":[-50.4535317,-22.6625268]}},{"type":"Feature","properties":{"nome":"Vila Tênis Clube","osm_id":11501658362,"osm_tipo":"node","tipo_lugar":"suburb"},"geometry":{"type":"Point","coordinates":[-50.4324791,-22.6493466]}},{"type":"Feature","properties":{"nome":"Residencial Viverdi","osm_id":385715556,"osm_tipo":"way","tipo_lugar":"suburb"},"geometry":{"type":"Polygon","coordinates":[[[-50.4406373,-22.6599784],[-50.4404921,-22.6614735],[-50.4384482,-22.659825],[-50.4406373,-22.6599784]]]}},{"type":"Feature","properties":{"nome":"Vila Santa Rita","osm_id":1506968523,"osm_tipo":"way","tipo_lugar":"suburb"},"geometry":{"type":"Polygon","coordinates":[[[-50.4266551,-22.6432211],[-50.4284262,-22.6490679],[-50.4258413,-22.6490615],[-50.4266551,-22.6432211]]]}}]}