{"type":"FeatureCollection","features":[{"type":"Feature","properties":{"nome":"Vila Nova Santa Clara","osm_id":2305662234,"osm_tipo":"node","tipo_lugar":"suburb"},"geometry":{"type":"Point","coordinates":[-49.0781456,-22.3375109]}},{"type":"Feature","properties":{"nome":"Vila Zillo","osm_id":2305682285,"osm_tipo":"node","tipo_lugar":"suburb"},"geometry":{"type":"Point","coordinates":[-49.0719523,-22.3463066]}},{"type":"Feature","properties":{"nome":"Jardim Estoril II","osm_id":2305682293,"osm_tipo":"node","tipo_lugar":"suburb"},"geometry":{"type":"Point","coordinates":[-49.0721803,-22.3415995]}},{"type":"Feature","properties":{"nome":"Vila Cidade Universitária","osm_id":2306548469,"osm_tipo":"node","tipo_lugar":"suburb"},"geometry":{"type":"Point","coordinates":[-49.0549673,-22.3373538]}},{"type":"Feature","properties":{"nome":"Jardim Infante Dom Henrique","osm_id":2306548478,"osm_tipo":"node","tipo_lugar":"suburb"},"geometry":{"type":"Point","coordinates":[-49.0515919,-22.3416027]}},{"type":"Feature","properties":{"nome":"Vila Engler","osm_id":2306918847,"osm_tipo":"node","tipo_lugar":"suburb"},"geometry":{"type":"Point","coordinates":[-49.0480281,-22.3305325]}},{"type":"Feature","properties":{"nome":"Alto Higienópolis","osm_id":2306918848,"osm_tipo":"node","tipo_lugar":"neighbourhood"},"geometry":{"type":"Point","coordinates":[-49.0565307,-22.32086]}},{"type":"Feature","properties":{"nome":"Jardim Marambá","osm_id":2306918849,"osm_tipo":"node","tipo_lugar":"suburb"},"geometry":{"type":"Point","coordinates":[-49.0441356,-22.3261181]}},{"type":"Feature","properties":{"nome":"Vila Brunhari","osm_id":2306918850,"osm_tipo":"node","tipo_lugar":"suburb"},"geometry":{"type":"Point","coordinates":[-49.0604998,-22.3239362]}},{"type":"Feature","properties":{"nome":"Jardim Estoril II","osm_id":2306918853,"osm_tipo":"node","tipo_lugar":"suburb"},"geometry":{"type":"Point","coordinates":[-49.0687165,-22.3405477]}},{"type":"Feature","properties":{"nome":"Jardim Contorno","osm_id":2306918856,"osm_tipo":"node","tipo_lugar":"suburb"},"geometry":{"type":"Point","coordinates":[-49.0446936,-22.341419]}},{"type":"Feature","properties":{"nome":"Vila Riachuelo","osm_id":2306918859,"osm_tipo":"node","tipo_lugar":"suburb"},"geometry":{"type":"Point","coordinates":[-49.0610439,-22.3442504]}},{"type":"Feature","properties":{"nome":"Vila Samaritana","osm_id":2306918863,"osm_tipo":"node","tipo_lugar":"suburb"},"geometry":{"type":"Point","coordinates":[-49.0677393,-22.3358052]}},{"type":"Feature","properties":{"nome":"Jardim América","osm_id":2306918865,"osm_tipo":"node","tipo_lugar":"suburb"},"geometry":{"type":"Point","coordinates":[-49.061879,-22.3517599]}},{"type":"Feature","properties":{"nome":"Vila Flores","osm_id":2306918866,"osm_tipo":"node","tipo_lugar":"suburb"},"geometry":{"type":"Point","coordinates":[-49.0656481,-22.3223696]}},{"type":"Feature","properties":{"nome":"Jardim Brasil","osm_id":2306918867,"osm_tipo":"node","tipo_lugar":"suburb"},"geometry":{"type":"Point","coordinates":[-49.066957,-22.3317373]}},{"type":"Feature","properties":{"nome":"Parque das Nações","osm_id":2306918869,"osm_tipo":"node","tipo_lugar":"suburb"},"geometry":{"type":"Point","coordinates":[-49.0695555,-22.3557031]}},{"type":"Feature","properties":{"nome":"Jardim Nova Nise","osm_id":2306918870,"osm_tipo":"node","tipo_lugar":"suburb"},"geometry":{"type":"Point","coordinates":[-49.0632448,-22.3327099]}},{"type":"Feature","properties":{"nome":"Jardim Estoril","osm_id":2306918871,"osm_tipo":"node","tipo_lugar":"suburb"},"geometry":{"type":"Point","coordinates":[-49.0746463,-22.3442769]}},{"type":"Feature","properties":{"nome":"Jardim Estoril III","osm_id":2306918872,"osm_tipo":"node","tipo_lugar":"suburb"},"geometry":{"type":"Point","coordinates":[-49.069489,-22.3435446]}},{"type":"Feature","properties":{"nome":"Parque Paulistano","osm_id":2306918873,"osm_tipo":"node","tipo_lugar":"suburb"},"geometry":{"type":"Point","coordinates":[-49.0483628,-22.3240935]}},{"type":"Feature","properties":{"nome":"Vila Clara","osm_id":2306918875,"osm_tipo":"node","tipo_lugar":"suburb"},"geometry":{"type":"Point","coordinates":[-49.0766773,-22.3334849]}},{"type":"Feature","properties":{"nome":"Vila Mesquita","osm_id":2306918877,"osm_tipo":"node","tipo_lugar":"suburb"},"geometry":{"type":"Point","coordinates":[-49.0651406,-22.3416968]}},{"type":"Feature","properties":{"nome":"Jardim Colonial","osm_id":2306918878,"osm_tipo":"node","tipo_lugar":"neighbourhood"},"geometry":{"type":"Point","coordinates":[-49.0352307,-22.3467984]}},{"type":"Feature","properties":{"nome":"Parque Jardim Europa","osm_id":2306918879,"osm_tipo":"node","tipo_lugar":"suburb"},"geometry":{"type":"Point","coordinates":[-49.0575231,-22.3497555]}},{"type":"Feature","properties":{"nome":"Jardim Nicéia","osm_id":2306918880,"osm_tipo":"node","tipo_lugar":"suburb"},"geometry":{"type":"Point","coordinates":[-49.0424191,-22.3500333]}},{"type":"Feature","properties":{"nome":"Vila Altinópolis","osm_id":2306918881,"osm_tipo":"node","tipo_lugar":"suburb"},"geometry":{"type":"Point","coordinates":[-49.0634905,-22.328102]}},{"type":"Feature","properties":{"nome":"Jardim Auriverde","osm_id":2306918882,"osm_tipo":"node","tipo_lugar":"suburb"},"geometry":{"type":"Point","coordinates":[-49.0458791,-22.333285]}},{"type":"Feature","properties":{"nome":"Jardim Nasralla","osm_id":2306918883,"osm_tipo":"node","tipo_lugar":"suburb"},"geometry":{"type":"Point","coordinates":[-49.0705619,-22.3335822]}},{"type":"Feature","properties":{"nome":"Vila Aviação","osm_id":2306918884,"osm_tipo":"node","tipo_lugar":"suburb"},"geometry":{"type":"Point","coordinates":[-49.0487469,-22.3507477]}},{"type":"Feature","properties":{"nome":"Vila Santa Inês","osm_id":2308882854,"osm_tipo":"node","tipo_lugar":"suburb"},"geometry":{"type":"Point","coordinates":[-49.0906217,-22.343031]}},{"type":"Feature","properties":{"nome":"Residencial Jardim Jussara","osm_id":2308882855,"osm_tipo":"node","tipo_lugar":"suburb"},"geometry":{"type":"Point","coordinates":[-49.1026668,-22.3383597]}},{"type":"Feature","properties":{"nome":"Vila São Manoel","osm_id":2308882862,"osm_tipo":"node","tipo_lugar":"suburb"},"geometry":{"type":"Point","coordinates":[-49.0964011,-22.3223241]}},{"type":"Feature","properties":{"nome":"Parque Fortaleza","osm_id":2308882867,"osm_tipo":"node","tipo_lugar":"suburb"},"geometry":{"type":"Point","coordinates":[-49.0864018,-22.3331596]}},{"type":"Feature","properties":{"nome":"Vila Pacífico II","osm_id":2308882873,"osm_tipo":"node","tipo_lugar":"suburb"},"geometry":{"type":"Point","coordinates":[-49.1013127,-22.3275842]}},{"type":"Feature","properties":{"nome":"Jardim Terra Branca","osm_id":2308882880,"osm_tipo":"node","tipo_lugar":"suburb"},"geometry":{"type":"Point","coordinates":[-49.0904359,-22.3480052]}},{"type":"Feature","properties":{"nome":"Vila Rocha","osm_id":2308882881,"osm_tipo":"node","tipo_lugar":"suburb"},"geometry":{"type":"Point","coordinates":[-49.1033963,-22.3314547]}},{"type":"Feature","properties":{"nome":"Vila Nova Nipônica","osm_id":2308882883,"osm_tipo":"node","tipo_lugar":"suburb"},"geometry":{"type":"Point","coordinates":[-49.0965771,-22.342091]}},{"type":"Feature","properties":{"nome":"Vila Independência","osm_id":2308882885,"osm_tipo":"node","tipo_lugar":"suburb"},"geometry":{"type":"Point","coordinates":[-49.0884189,-22.3394712]}},{"type":"Feature","properties":{"nome":"Vila Falcão","osm_id":2308882888,"osm_tipo":"node","tipo_lugar":"suburb"},"geometry":{"type":"Point","coordinates":[-49.0864877,-22.3281975]}},{"type":"Feature","properties":{"nome":"Jardim Ferraz","osm_id":2308882889,"osm_tipo":"node","tipo_lugar":"suburb"},"geometry":{"type":"Point","coordinates":[-49.1004897,-22.3509619]}},{"type":"Feature","properties":{"nome":"Vila Giunta","osm_id":2308882898,"osm_tipo":"node","tipo_lugar":"suburb"},"geometry":{"type":"Point","coordinates":[-49.0948175,-22.3346681]}},{"type":"Feature","properties":{"nome":"Jardim Marabá","osm_id":2308882901,"osm_tipo":"node","tipo_lugar":"suburb"},"geometry":{"type":"Point","coordinates":[-49.0350139,-22.3671752]}},{"type":"Feature","properties":{"nome":"Parque Viaduto","osm_id":2308882903,"osm_tipo":"node","tipo_lugar":"suburb"},"geometry":{"type":"Point","coordinates":[-49.1100911,-22.337806]}},{"type":"Feature","properties":{"nome":"Vila Alto Paraíso","osm_id":2308882904,"osm_tipo":"node","tipo_lugar":"suburb"},"geometry":{"type":"Point","coordinates":[-49.1073488,-22.3343505]}},{"type":"Feature","properties":{"nome":"Vila Santista","osm_id":2308882906,"osm_tipo":"node","tipo_lugar":"suburb"},"geometry":{"type":"Point","coordinates":[-49.0844706,-22.3486403]}},{"type":"Feature","properties":{"nome":"Residencial Paineiras","osm_id":2308882908,"osm_tipo":"node","tipo_lugar":"suburb"},"geometry":{"type":"Point","coordinates":[-49.0494335,-22.3599113]}},{"type":"Feature","properties":{"nome":"Parque Residencial Samambaia","osm_id":2308882913,"osm_tipo":"node","tipo_lugar":"suburb"},"geometry":{"type":"Point","coordinates":[-49.0456716,-22.3627518]}},{"type":"Feature","properties":{"nome":"Parque Residencial Granja Cecilia A","osm_id":2308882918,"osm_tipo":"node","tipo_lugar":"suburb"},"geometry":{"type":"Point","coordinates":[-49.104555,-22.3630854]}},{"type":"Feature","properties":{"nome":"Jardim Deallah","osm_id":2308882923,"osm_tipo":"node","tipo_lugar":"suburb"},"geometry":{"type":"Point","coordinates":[-49.0991477,-22.334549]}},{"type":"Feature","properties":{"nome":"Jardim Vitória","osm_id":2308882927,"osm_tipo":"node","tipo_lugar":"suburb"},"geometry":{"type":"Point","coordinates":[-49.1062716,-22.3541574]}},{"type":"Feature","properties":{"nome":"Vila Pacífico I","osm_id":2308882928,"osm_tipo":"node","tipo_lugar":"suburb"},"geometry":{"type":"Point","coordinates":[-49.1039971,-22.3254603]}},{"type":"Feature","properties":{"nome":"Vila Souto","osm_id":2308882930,"osm_tipo":"node","tipo_lugar":"suburb"},"geometry":{"type":"Point","coordinates":[-49.0960578,-22.3302638]}},{"type":"Feature","properties":{"nome":"Vila Martha","osm_id":2308882931,"osm_tipo":"node","tipo_lugar":"suburb"},"geometry":{"type":"Point","coordinates":[-49.0900496,-22.324982]}},{"type":"Feature","properties":{"nome":"Jardim Mary","osm_id":2308882935,"osm_tipo":"node","tipo_lugar":"suburb"},"geometry":{"type":"Point","coordinates":[-49.0305915,-22.3590799]}},{"type":"Feature","properties":{"nome":"Jardim Central","osm_id":2308882941,"osm_tipo":"node","tipo_lugar":"suburb"},"geometry":{"type":"Point","coordinates":[-49.0852125,-22.3354675]}},{"type":"Feature","properties":{"nome":"Vila Nipônica","osm_id":2308882944,"osm_tipo":"node","tipo_lugar":"suburb"},"geometry":{"type":"Point","coordinates":[-49.1014694,-22.3469355]}},{"type":"Feature","properties":{"nome":"Jardim Solange","osm_id":2308882946,"osm_tipo":"node","tipo_lugar":"suburb"},"geometry":{"type":"Point","coordinates":[-49.0932683,-22.3533021]}},{"type":"Feature","properties":{"nome":"Vila Industrial","osm_id":2308882947,"osm_tipo":"node","tipo_lugar":"suburb"},"geometry":{"type":"Point","coordinates":[-49.1139106,-22.3296683]}},{"type":"Feature","properties":{"nome":"Jardim Jandira","osm_id":2308882951,"osm_tipo":"node","tipo_lugar":"suburb"},"geometry":{"type":"Point","coordinates":[-49.0820288,-22.3453062]}},{"type":"Feature","properties":{"nome":"Jardim Gaivota","osm_id":2308882953,"osm_tipo":"node","tipo_lugar":"suburb"},"geometry":{"type":"Point","coordinates":[-49.0960192,-22.3465128]}},{"type":"Feature","properties":{"nome":"Vila Maria","osm_id":2308882956,"osm_tipo":"node","tipo_lugar":"suburb"},"geometry":{"type":"Point","coordinates":[-49.0943412,-22.3375678]}},{"type":"Feature","properties":{"nome":"Vila São Francisco","osm_id":2308882962,"osm_tipo":"node","tipo_lugar":"suburb"},"geometry":{"type":"Point","coordinates":[-49.0858439,-22.3525678]}},{"type":"Feature","properties":{"nome":"Jardim Ouro Verde","osm_id":2308882965,"osm_tipo":"node","tipo_lugar":"suburb"},"geometry":{"type":"Point","coordinates":[-49.1024093,-22.358166]}},{"type":"Feature","properties":{"nome":"Jardim Olímpico","osm_id":3160262681,"osm_tipo":"node","tipo_lugar":"neighbourhood"},"geometry":{"type":"Point","coordinates":[-49.024903,-22.3289738]}},{"type":"Feature","properties":{"nome":"Núcleo Residencial Presidente Geisel","osm_id":3160262682,"osm_tipo":"node","tipo_lugar":"suburb"},"geometry":{"type":"Point","coordinates":[-49.0287145,-22.331966]}},{"type":"Feature","properties":{"nome":"Jardim Alvorada","osm_id":3160262689,"osm_tipo":"node","tipo_lugar":"neighbourhood"},"geometry":{"type":"Point","coordinates":[-49.0322845,-22.325736]}},{"type":"Feature","properties":{"nome":"Conjunto Habitacional Pastor Arlindo Lopes Viana","osm_id":3160262691,"osm_tipo":"node","tipo_lugar":"neighbourhood"},"geometry":{"type":"Point","coordinates":[-49.0233777,-22.3250684]}},{"type":"Feature","properties":{"nome":"Núcleo Habitacional José Regino","osm_id":3859531115,"osm_tipo":"node","tipo_lugar":"suburb"},"geometry":{"type":"Point","coordinates":[-49.0172661,-22.3307782]}},{"type":"Feature","properties":{"nome":"Vila Tecnológica Engenheiro José Queda","osm_id":3859531136,"osm_tipo":"node","tipo_lugar":"neighbourhood"},"geometry":{"type":"Point","coordinates":[-49.019142,-22.3269704]}},{"type":"Feature","properties":{"nome":"Vila Ferradura Mirim","osm_id":3865877882,"osm_tipo":"node","tipo_lugar":"neighbourhood"},"geometry":{"type":"Point","coordinates":[-49.0169089,-22.3148231]}},{"type":"Feature","properties":{"nome":"Parque Manchester","osm_id":3865877892,"osm_tipo":"node","tipo_lugar":"neighbourhood"},"geometry":{"type":"Point","coordinates":[-49.0047798,-22.3231792]}},{"type":"Feature","properties":{"nome":"Parque Júlio Nóbrega","osm_id":4068352931,"osm_tipo":"node","tipo_lugar":"neighbourhood"},"geometry":{"type":"Point","coordinates":[-49.0243429,-22.3147642]}},{"type":"Feature","properties":{"nome":"Mutirão Primavera","osm_id":4088733708,"osm_tipo":"node","tipo_lugar":"suburb"},"geometry":{"type":"Point","coordinates":[-49.0338015,-22.3179052]}},{"type":"Feature","properties":{"nome":"Distrito Industrial I Domingos Biancardi","osm_id":4088733709,"osm_tipo":"node","tipo_lugar":"neighbourhood"},"geometry":{"type":"Point","coordinates":[-49.027403,-22.3084686]}},{"type":"Feature","properties":{"nome":"Núcleo Habitacional Engenheiro Octávio Rasi","osm_id":4094419291,"osm_tipo":"node","tipo_lugar":"suburb"},"geometry":{"type":"Point","coordinates":[-49.0041274,-22.3044069]}},{"type":"Feature","properties":{"nome":"Jardim Nova Bauru","osm_id":4094419304,"osm_tipo":"node","tipo_lugar":"neighbourhood"},"geometry":{"type":"Point","coordinates":[-49.0195725,-22.317065]}},{"type":"Feature","properties":{"nome":"Jardim Carvalho","osm_id":4119513088,"osm_tipo":"node","tipo_lugar":"neighbourhood"},"geometry":{"type":"Point","coordinates":[-49.0414893,-22.3222107]}},{"type":"Feature","properties":{"nome":"Vila Monlevade","osm_id":4122021358,"osm_tipo":"node","tipo_lugar":"neighbourhood"},"geometry":{"type":"Point","coordinates":[-49.0469623,-22.3181049]}},{"type":"Feature","properties":{"nome":"Jardim Guadalajara","osm_id":4122021359,"osm_tipo":"node","tipo_lugar":"neighbourhood"},"geometry":{"type":"Point","coordinates":[-49.0531622,-22.3133009]}},{"type":"Feature","properties":{"nome":"Jardim Antártica","osm_id":4128436159,"osm_tipo":"node","tipo_lugar":"neighbourhood"},"geometry":{"type":"Point","coordinates":[-49.0639414,-22.3152052]}},{"type":"Feature","properties":{"nome":"Vila Seabra","osm_id":4280565599,"osm_tipo":"node","tipo_lugar":"neighbourhood"},"geometry":{"type":"Point","coordinates":[-49.0758873,-22.3139021]}},{"type":"Feature","properties":{"nome":"Jardim Bela Vista","osm_id":4280565600,"osm_tipo":"node","tipo_lugar":"neighbourhood"},"geometry":{"type":"Point","coordinates":[-49.0817403,-22.3175316]}},{"type":"Feature","properties":{"nome":"Jardim Vitória Quaggio","osm_id":4280565602,"osm_tipo":"node","tipo_lugar":"neighbourhood"},"geometry":{"type":"Point","coordinates":[-49.0824362,-22.3221602]}},{"type":"Feature","properties":{"nome":"Vila São João da Boa Vista","osm_id":4280565603,"osm_tipo":"node","tipo_lugar":"neighbourhood"},"geometry":{"type":"Point","coordinates":[-49.0862863,-22.3180398]}},{"type":"Feature","properties":{"nome":"Parque Boa Vista","osm_id":4280565611,"osm_tipo":"node","tipo_lugar":"neighbourhood"},"geometry":{"type":"Point","coordinates":[-49.0829044,-22.3098727]}},{"type":"Feature","properties":{"nome":"Vila Bom Jesus","osm_id":4280565612,"osm_tipo":"node","tipo_lugar":"neighbourhood"},"geometry":{"type":"Point","coordinates":[-49.0844669,-22.3036989]}},{"type":"Feature","properties":{"nome":"Jardim Imperatriz","osm_id":4280565613,"osm_tipo":"node","tipo_lugar":"neighbourhood"},"geometry":{"type":"Point","coordinates":[-49.0867708,-22.3057384]}},{"type":"Feature","properties":{"nome":"Parque União","osm_id":4280565614,"osm_tipo":"node","tipo_lugar":"neighbourhood"},"geometry":{"type":"Point","coordinates":[-49.0857734,-22.3091952]}},{"type":"Feature","properties":{"nome":"Vila Santa Rosa","osm_id":4280565630,"osm_tipo":"node","tipo_lugar":"neighbourhood"},"geometry":{"type":"Point","coordinates":[-49.08939,-22.3090299]}},{"type":"Feature","properties":{"nome":"Vila Lemos","osm_id":4280565631,"osm_tipo":"node","tipo_lugar":"neighbourhood"},"geometry":{"type":"Point","coordinates":[-49.0903532,-22.3114169]}},{"type":"Feature","properties":{"nome":"Vila Cordeiro","osm_id":4280565633,"osm_tipo":"node","tipo_lugar":"neighbourhood"},"geometry":{"type":"Point","coordinates":[-49.0888056,-22.3163987]}},{"type":"Feature","properties":{"nome":"Jardim Elydia","osm_id":4280565634,"osm_tipo":"node","tipo_lugar":"neighbourhood"},"geometry":{"type":"Point","coordinates":[-49.0879219,-22.3141247]}},{"type":"Feature","properties":{"nome":"Vila São Manoel","osm_id":4280565635,"osm_tipo":"node","tipo_lugar":"neighbourhood"},"geometry":{"type":"Point","coordinates":[-49.0935021,-22.3202825]}},{"type":"Feature","properties":{"nome":"Residencial Vanessa","osm_id":4280565636,"osm_tipo":"node","tipo_lugar":"neighbourhood"},"geometry":{"type":"Point","coordinates":[-49.0934504,-22.315998]}},{"type":"Feature","properties":{"nome":"Jardim Vânia Maria","osm_id":4280565644,"osm_tipo":"node","tipo_lugar":"neighbourhood"},"geometry":{"type":"Point","coordinates":[-49.0959561,-22.3085973]}},{"type":"Feature","properties":{"nome":"Jardim Petrópolis","osm_id":4280565645,"osm_tipo":"node","tipo_lugar":"neighbourhood"},"geometry":{"type":"Point","coordinates":[-49.093498,-22.3026252]}},{"type":"Feature","properties":{"nome":"Parque Santa Edwirges","osm_id":4280565649,"osm_tipo":"node","tipo_lugar":"neighbourhood"},"geometry":{"type":"Point","coordinates":[-49.1036606,-22.3106413]}},{"type":"Feature","properties":{"nome":"Jardim Rosa Branca","osm_id":4280565650,"osm_tipo":"node","tipo_lugar":"neighbourhood"},"geometry":{"type":"Point","coordinates":[-49.1043317,-22.3172307]}},{"type":"Feature","properties":{"nome":"Parque Roosevelt","osm_id":4352686186,"osm_tipo":"node","tipo_lugar":"neighbourhood"},"geometry":{"type":"Point","coordinates":[-49.1006446,-22.3009866]}},{"type":"Feature","properties":{"nome":"Parque Primavera","osm_id":4352686188,"osm_tipo":"node","tipo_lugar":"neighbourhood"},"geometry":{"type":"Point","coordinates":[-49.1040083,-22.3020255]}},{"type":"Feature","properties":{"nome":"Distrito Industrial III","osm_id":4352688190,"osm_tipo":"node","tipo_lugar":"neighbourhood"},"geometry":{"type":"Point","coordinates":[-49.1037668,-22.2909375]}},{"type":"Feature","properties":{"nome":"Núcleo 9 de Julho","osm_id":4354012821,"osm_tipo":"node","tipo_lugar":"neighbourhood"},"geometry":{"type":"Point","coordinates":[-49.1051159,-22.3063136]}},{"type":"Feature","properties":{"nome":"Parque Jaraguá","osm_id":4354012874,"osm_tipo":"node","tipo_lugar":"neighbourhood"},"geometry":{"type":"Point","coordinates":[-49.11328,-22.3073146]}},{"type":"Feature","properties":{"nome":"Jardim Eldorado","osm_id":4354321777,"osm_tipo":"node","tipo_lugar":"neighbourhood"},"geometry":{"type":"Point","coordinates":[-49.1197586,-22.3056359]}},{"type":"Feature","properties":{"nome":"Jardim Andorfato","osm_id":4354321778,"osm_tipo":"node","tipo_lugar":"neighbourhood"},"geometry":{"type":"Point","coordinates":[-49.1157909,-22.3106375]}},{"type":"Feature","properties":{"nome":"Núcleo Habitacional Isaura Pitta Garms","osm_id":5257073123,"osm_tipo":"node","tipo_lugar":"neighbourhood"},"geometry":{"type":"Point","coordinates":[-49.032839,-22.2866384]}},{"type":"Feature","properties":{"nome":"Jardim Silvestre II","osm_id":5257073140,"osm_tipo":"node","tipo_lugar":"neighbourhood"},"geometry":{"type":"Point","coordinates":[-49.0537283,-22.2964056]}},{"type":"Feature","properties":{"nome":"Conjunto Habitacional Nobuji Nagasawa","osm_id":5257073143,"osm_tipo":"node","tipo_lugar":"neighbourhood"},"geometry":{"type":"Point","coordinates":[-49.0587845,-22.2896839]}},{"type":"Feature","properties":{"nome":"Núceo Habitacional Mary Dota","osm_id":5257073144,"osm_tipo":"node","tipo_lugar":"suburb"},"geometry":{"type":"Point","coordinates":[-49.0448155,-22.2946077]}},{"type":"Feature","properties":{"nome":"Núcleo Habitacional Beija-Flor","osm_id":5257073145,"osm_tipo":"node","tipo_lugar":"neighbourhood"},"geometry":{"type":"Point","coordinates":[-49.048333,-22.3011306]}},{"type":"Feature","properties":{"nome":"Vale do Igapó","osm_id":5294625012,"osm_tipo":"node","tipo_lugar":"suburb"},"geometry":{"type":"Point","coordinates":[-48.9599705,-22.3369373]}},{"type":"Feature","properties":{"nome":"Vila Aviação B","osm_id":6290474129,"osm_tipo":"node","tipo_lugar":"suburb"},"geometry":{"type":"Point","coordinates":[-49.0451977,-22.3554341]}},{"type":"Feature","properties":{"nome":"Parque Alto Sumaré","osm_id":6296900260,"osm_tipo":"node","tipo_lugar":"suburb"},"geometry":{"type":"Point","coordinates":[-49.063991,-22.3020417]}},{"type":"Feature","properties":{"nome":"Jardim Araruna","osm_id":6296914628,"osm_tipo":"node","tipo_lugar":"suburb"},"geometry":{"type":"Point","coordinates":[-49.0595761,-22.3016002]}},{"type":"Feature","properties":{"nome":"Parque São Geraldo","osm_id":6296922891,"osm_tipo":"node","tipo_lugar":"suburb"},"geometry":{"type":"Point","coordinates":[-49.0749507,-22.3000782]}},{"type":"Feature","properties":{"nome":"Jardim Maramba","osm_id":6296934847,"osm_tipo":"node","tipo_lugar":"suburb"},"geometry":{"type":"Point","coordinates":[-49.0452134,-22.3281101]}},{"type":"Feature","properties":{"nome":"Vila Nova Cidade Universitária","osm_id":6298400980,"osm_tipo":"node","tipo_lugar":"suburb"},"geometry":{"type":"Point","coordinates":[-49.0488146,-22.3421267]}},{"type":"Feature","properties":{"nome":"Novo Jardim Pagani","osm_id":6299319153,"osm_tipo":"node","tipo_lugar":"suburb"},"geometry":{"type":"Point","coordinates":[-49.0666662,-22.2955468]}},{"type":"Feature","properties":{"nome":"Núcleo Residencial Edison Bastos Gasparini","osm_id":6300242703,"osm_tipo":"node","tipo_lugar":"suburb"},"geometry":{"type":"Point","coordinates":[-49.08344,-22.2738747]}},{"type":"Feature","properties":{"nome":"Núcleo Habitacional Índia Vanuire","osm_id":6300242706,"osm_tipo":"node","tipo_lugar":"suburb"},"geometry":{"type":"Point","coordinates":[-49.0817851,-22.2754583]}},{"type":"Feature","properties":{"nome":"Vila Coralina","osm_id":6300254720,"osm_tipo":"node","tipo_lugar":"suburb"},"geometry":{"type":"Point","coordinates":[-49.0523744,-22.321999]}},{"type":"Feature","properties":{"nome":"Vila Cardia","osm_id":6300254733,"osm_tipo":"node","tipo_lugar":"suburb"},"geometry":{"type":"Point","coordinates":[-49.0554062,-22.3211091]}},{"type":"Feature","properties":{"nome":"Vila Noemy","osm_id":6300259489,"osm_tipo":"node","tipo_lugar":"suburb"},"geometry":{"type":"Point","coordinates":[-49.0714395,-22.3301339]}},{"type":"Feature","properties":{"nome":"Vila Conceição","osm_id":6300280196,"osm_tipo":"node","tipo_lugar":"suburb"},"geometry":{"type":"Point","coordinates":[-49.0573084,-22.3040257]}},{"type":"Feature","properties":{"nome":"Jardim TV","osm_id":6300360403,"osm_tipo":"node","tipo_lugar":"suburb"},"geometry":{"type":"Point","coordinates":[-49.0834611,-22.2913822]}},{"type":"Feature","properties":{"nome":"Jardim Redentor","osm_id":6300368427,"osm_tipo":"node","tipo_lugar":"suburb"},"geometry":{"type":"Point","coordinates":[-49.023716,-22.3186826]}},{"type":"Feature","properties":{"nome":"Jardim Petrópolis","osm_id":6300394993,"osm_tipo":"node","tipo_lugar":"suburb"},"geometry":{"type":"Point","coordinates":[-49.0940003,-22.3064403]}},{"type":"Feature","properties":{"nome":"Jardim Vania Maria","osm_id":6300395001,"osm_tipo":"node","tipo_lugar":"suburb"},"geometry":{"type":"Point","coordinates":[-49.0966828,-22.3063032]}},{"type":"Feature","properties":{"nome":"Vila Souto","osm_id":6300406292,"osm_tipo":"node","tipo_lugar":"suburb"},"geometry":{"type":"Point","coordinates":[-49.0945438,-22.3314348]}},{"type":"Feature","properties":{"nome":"Pousada da Esperança I","osm_id":6300413367,"osm_tipo":"node","tipo_lugar":"suburb"},"geometry":{"type":"Point","coordinates":[-49.0711817,-22.2767323]}},{"type":"Feature","properties":{"nome":"Tangarás","osm_id":6304668231,"osm_tipo":"node","tipo_lugar":"suburb"},"geometry":{"type":"Point","coordinates":[-49.0088304,-22.3236716]}},{"type":"Feature","properties":{"nome":"Vila Serrão","osm_id":6304858101,"osm_tipo":"node","tipo_lugar":"suburb"},"geometry":{"type":"Point","coordinates":[-49.0764224,-22.3513388]}},{"type":"Feature","properties":{"nome":"Centro","osm_id":6307319779,"osm_tipo":"node","tipo_lugar":"suburb"},"geometry":{"type":"Point","coordinates":[-49.0723708,-22.3267599]}},{"type":"Feature","properties":{"nome":"Residencial Nova Bauru","osm_id":6313564883,"osm_tipo":"node","tipo_lugar":"suburb"},"geometry":{"type":"Point","coordinates":[-49.0687482,-22.2674714]}},{"type":"Feature","properties":{"nome":"Jardim Santos Dumont","osm_id":6334649373,"osm_tipo":"node","tipo_lugar":"suburb"},"geometry":{"type":"Point","coordinates":[-49.0269192,-22.3396129]}},{"type":"Feature","properties":{"nome":"Altos da Cidade","osm_id":6350344542,"osm_tipo":"node","tipo_lugar":"suburb"},"geometry":{"type":"Point","coordinates":[-49.0777907,-22.331548]}},{"type":"Feature","properties":{"nome":"Vila Triagem","osm_id":6350618931,"osm_tipo":"node","tipo_lugar":"suburb"},"geometry":{"type":"Point","coordinates":[-49.043082,-22.3155728]}},{"type":"Feature","properties":{"nome":"Vargem Limpa","osm_id":6351089076,"osm_tipo":"node","tipo_lugar":"suburb"},"geometry":{"type":"Point","coordinates":[-49.0208442,-22.3353237]}},{"type":"Feature","properties":{"nome":"Vila São João do Ipiranga","osm_id":6368653469,"osm_tipo":"node","tipo_lugar":"suburb"},"geometry":{"type":"Point","coordinates":[-49.1017756,-22.3478546]}},{"type":"Feature","properties":{"nome":"Presidente Geisel","osm_id":6405493450,"osm_tipo":"node","tipo_lugar":"suburb"},"geometry":{"type":"Point","coordinates":[-49.032852,-22.3363951]}},{"type":"Feature","properties":{"nome":"Jardim Amália","osm_id":6422162457,"osm_tipo":"node","tipo_lugar":"suburb"},"geometry":{"type":"Point","coordinates":[-49.0641541,-22.3404065]}},{"type":"Feature","properties":{"nome":"Vila Camargo","osm_id":11110046163,"osm_tipo":"node","tipo_lugar":"suburb"},"geometry":{"type":"Point","coordinates":[-49.0779159,-22.3136394]}},{"type":"Feature","properties":{"nome":"Residencial Cidade Alegre - Ecovita","osm_id":13287962978,"osm_tipo":"node","tipo_lugar":"neighbourhood"},"geometry":{"type":"Point","coordinates":[-49.0586385,-22.2655051]}},{"type":"Feature","properties":{"nome":"Bauru Azevedo","osm_id":13326528634,"osm_tipo":"node","tipo_lugar":"neighbourhood"},"geometry":{"type":"Point","coordinates":[-49.0447989,-22.267679]}}]}