{"type":"FeatureCollection","features":[{"type":"Feature","properties":{"nome":"Jardim Alto do Silvares","osm_id":5184980398,"osm_tipo":"node","tipo_lugar":"neighbourhood"},"geometry":{"type":"Point","coordinates":[-50.3304861,-21.2810151]}},{"type":"Feature","properties":{"nome":"Centro","osm_id":12099097674,"osm_tipo":"node","tipo_lugar":"suburb"},"geometry":{"type":"Point","coordinates":[-50.3355151,-21.2951635]}},{"type":"Feature","properties":{"nome":"Monte Libano II","osm_id":12099113257,"osm_tipo":"node","tipo_lugar":"suburb"},"geometry":{"type":"Point","coordinates":[-50.3144181,-21.2845113]}},{"type":"Feature","properties":{"nome":"Cidade Jardim","osm_id":12099135328,"osm_tipo":"node","tipo_lugar":"suburb"},"geometry":{"type":"Point","coordinates":[-50.3225686,-21.2970513]}},{"type":"Feature","properties":{"nome":"Vila Izabel Marin","osm_id":12099199026,"osm_tipo":"node","tipo_lugar":"suburb"},"geometry":{"type":"Point","coordinates":[-50.3569553,-21.2979125]}},{"type":"Feature","properties":{"nome":"Conjunto Habitacional Vereador Flávio Marin Salmeirão","osm_id":12099242905,"osm_tipo":"node","tipo_lugar":"suburb"},"geometry":{"type":"Point","coordinates":[-50.3120041,-21.2485325]}},{"type":"Feature","properties":{"nome":"2° Distrito Industrial Armando Penterich","osm_id":12099836185,"osm_tipo":"node","tipo_lugar":"suburb"},"geometry":{"type":"Point","coordinates":[-50.3134742,-21.2632229]}},{"type":"Feature","properties":{"nome":"Parque das Nações","osm_id":12101121342,"osm_tipo":"node","tipo_lugar":"suburb"},"geometry":{"type":"Point","coordinates":[-50.3292637,-21.2714996]}},{"type":"Feature","properties":{"nome":"Jardim Morumbi","osm_id":12101636843,"osm_tipo":"node","tipo_lugar":"suburb"},"geometry":{"type":"Point","coordinates":[-50.3473288,-21.2958444]}},{"type":"Feature","properties":{"nome":"Distrito Industrial","osm_id":12117476860,"osm_tipo":"node","tipo_lugar":"suburb"},"geometry":{"type":"Point","coordinates":[-50.3619801,-21.2854132]}},{"type":"Feature","properties":{"nome":"Jardim Nossa Senhora de Fátima","osm_id":12147947982,"osm_tipo":"node","tipo_lugar":"suburb"},"geometry":{"type":"Point","coordinates":[-50.3502425,-21.2914596]}},{"type":"Feature","properties":{"nome":"Condomínio Residencial Guatambu Park","osm_id":180145245,"osm_tipo":"way","tipo_lugar":"neighbourhood"},"geometry":{"type":"Polygon","coordinates":[[[-50.3849499,-21.253044],[-50.3827416,-21.2587124],[-50.3850753,-21.2594567],[-50.3879601,-21.2529337],[-50.3849499,-21.253044]]]}}]}