{"type":"FeatureCollection","features":[{"type":"Feature","properties":{"nome":"Bairro do Pântano","osm_id":5610496786,"osm_tipo":"node","tipo_lugar":"suburb"},"geometry":{"type":"Point","coordinates":[-48.5559367,-21.8672939]}},{"type":"Feature","properties":{"nome":"Jardim Vista Verde","osm_id":8870732984,"osm_tipo":"node","tipo_lugar":"suburb"},"geometry":{"type":"Point","coordinates":[-48.3923889,-22.0031815]}},{"type":"Feature","properties":{"nome":"Jardim Padre Ricci","osm_id":8870741837,"osm_tipo":"node","tipo_lugar":"suburb"},"geometry":{"type":"Point","coordinates":[-48.3916525,-21.9959473]}},{"type":"Feature","properties":{"nome":"Jardim Progresso","osm_id":8870783565,"osm_tipo":"node","tipo_lugar":"suburb"},"geometry":{"type":"Point","coordinates":[-48.3844229,-21.9962854]}},{"type":"Feature","properties":{"nome":"Centro","osm_id":8870783615,"osm_tipo":"node","tipo_lugar":"suburb"},"geometry":{"type":"Point","coordinates":[-48.3831222,-21.9900028]}},{"type":"Feature","properties":{"nome":"Jardim dante Verdolini","osm_id":8870783616,"osm_tipo":"node","tipo_lugar":"suburb"},"geometry":{"type":"Point","coordinates":[-48.3820393,-21.9835949]}},{"type":"Feature","properties":{"nome":"Vila Nova Esperança","osm_id":8873638550,"osm_tipo":"node","tipo_lugar":"suburb"},"geometry":{"type":"Point","coordinates":[-48.3861103,-22.0004794]}}]}