{"type":"FeatureCollection","features":[{"type":"Feature","properties":{"nome":"Bonfim do Bom Jesus","osm_id":368179753,"osm_tipo":"node","tipo_lugar":"suburb"},"geometry":{"type":"Point","coordinates":[-47.0582182,-23.287381]}},{"type":"Feature","properties":{"nome":"Jacaré","osm_id":368179757,"osm_tipo":"node","tipo_lugar":"suburb"},"geometry":{"type":"Point","coordinates":[-47.0597064,-23.2446762]}},{"type":"Feature","properties":{"nome":"Jardim André","osm_id":3503408225,"osm_tipo":"node","tipo_lugar":"neighbourhood"},"geometry":{"type":"Point","coordinates":[-47.0630824,-23.2458888]}},{"type":"Feature","properties":{"nome":"Vale Verde II","osm_id":3503408226,"osm_tipo":"node","tipo_lugar":"neighbourhood"},"geometry":{"type":"Point","coordinates":[-47.0620102,-23.2531247]}},{"type":"Feature","properties":{"nome":"Residencial Haras Pindorama","osm_id":3503408227,"osm_tipo":"node","tipo_lugar":"neighbourhood"},"geometry":{"type":"Point","coordinates":[-47.0555551,-23.2396664]}},{"type":"Feature","properties":{"nome":"Bananal","osm_id":3522296823,"osm_tipo":"node","tipo_lugar":"suburb"},"geometry":{"type":"Point","coordinates":[-47.0830604,-23.3523917]}},{"type":"Feature","properties":{"nome":"Jardim Colina da Serra I","osm_id":5322983838,"osm_tipo":"node","tipo_lugar":"neighbourhood"},"geometry":{"type":"Point","coordinates":[-47.0529011,-23.2589328]}},{"type":"Feature","properties":{"nome":"Centro","osm_id":5337379157,"osm_tipo":"node","tipo_lugar":"suburb"},"geometry":{"type":"Point","coordinates":[-47.1329086,-23.3073364]}},{"type":"Feature","properties":{"nome":"Jardim Maria Cristina","osm_id":5338190571,"osm_tipo":"node","tipo_lugar":"neighbourhood"},"geometry":{"type":"Point","coordinates":[-47.0572042,-23.2534783]}},{"type":"Feature","properties":{"nome":"Novo Bonfim","osm_id":5338198000,"osm_tipo":"node","tipo_lugar":"suburb"},"geometry":{"type":"Point","coordinates":[-47.0613012,-23.2803838]}},{"type":"Feature","properties":{"nome":"Vilarejo Sopé da Serra","osm_id":5338204773,"osm_tipo":"node","tipo_lugar":"suburb"},"geometry":{"type":"Point","coordinates":[-47.0585202,-23.2667373]}},{"type":"Feature","properties":{"nome":"Jardim Alice","osm_id":6723544868,"osm_tipo":"node","tipo_lugar":"neighbourhood"},"geometry":{"type":"Point","coordinates":[-47.1364124,-23.3060292]}},{"type":"Feature","properties":{"nome":"Vale Verde","osm_id":7832552205,"osm_tipo":"node","tipo_lugar":"suburb"},"geometry":{"type":"Point","coordinates":[-47.1383484,-23.299824]}},{"type":"Feature","properties":{"nome":"Guaxatuba","osm_id":7835093203,"osm_tipo":"node","tipo_lugar":"suburb"},"geometry":{"type":"Point","coordinates":[-47.1107133,-23.3228133]}},{"type":"Feature","properties":{"nome":"Chácaras Boa Esperança","osm_id":7835093207,"osm_tipo":"node","tipo_lugar":"neighbourhood"},"geometry":{"type":"Point","coordinates":[-47.1109704,-23.3312689]}},{"type":"Feature","properties":{"nome":"Vale do Sossego","osm_id":7835093209,"osm_tipo":"node","tipo_lugar":"suburb"},"geometry":{"type":"Point","coordinates":[-47.0988235,-23.3593239]}},{"type":"Feature","properties":{"nome":"Caí de Baixo","osm_id":7835093216,"osm_tipo":"node","tipo_lugar":"neighbourhood"},"geometry":{"type":"Point","coordinates":[-47.0958774,-23.2815356]}},{"type":"Feature","properties":{"nome":"Chácaras do Pinhal","osm_id":7835093217,"osm_tipo":"node","tipo_lugar":"neighbourhood"},"geometry":{"type":"Point","coordinates":[-47.0902133,-23.2582814]}},{"type":"Feature","properties":{"nome":"São Francisco do Pinhal","osm_id":7835093218,"osm_tipo":"node","tipo_lugar":"suburb"},"geometry":{"type":"Point","coordinates":[-47.0952129,-23.2546935]}},{"type":"Feature","properties":{"nome":"Cururu","osm_id":7835093219,"osm_tipo":"node","tipo_lugar":"suburb"},"geometry":{"type":"Point","coordinates":[-47.0438218,-23.2798072]}},{"type":"Feature","properties":{"nome":"Nova Cabreúva","osm_id":7851316564,"osm_tipo":"node","tipo_lugar":"neighbourhood"},"geometry":{"type":"Point","coordinates":[-47.1324302,-23.3156051]}},{"type":"Feature","properties":{"nome":"Jardim Pedroso","osm_id":7851316565,"osm_tipo":"node","tipo_lugar":"neighbourhood"},"geometry":{"type":"Point","coordinates":[-47.1356202,-23.3102048]}},{"type":"Feature","properties":{"nome":"Jardim Zicatti","osm_id":7851316566,"osm_tipo":"node","tipo_lugar":"neighbourhood"},"geometry":{"type":"Point","coordinates":[-47.1288375,-23.3053538]}},{"type":"Feature","properties":{"nome":"Jardim Ipê","osm_id":7851316567,"osm_tipo":"node","tipo_lugar":"neighbourhood"},"geometry":{"type":"Point","coordinates":[-47.1369632,-23.307146]}},{"type":"Feature","properties":{"nome":"Jardim Santana","osm_id":7851316569,"osm_tipo":"node","tipo_lugar":"neighbourhood"},"geometry":{"type":"Point","coordinates":[-47.1304712,-23.3146538]}},{"type":"Feature","properties":{"nome":"Nova Pinhal V","osm_id":9890472017,"osm_tipo":"node","tipo_lugar":"neighbourhood"},"geometry":{"type":"Point","coordinates":[-47.1065687,-23.2653242]}},{"type":"Feature","properties":{"nome":"Jardim Colina da Serra II","osm_id":9919437109,"osm_tipo":"node","tipo_lugar":"neighbourhood"},"geometry":{"type":"Point","coordinates":[-47.0495284,-23.2601194]}},{"type":"Feature","properties":{"nome":"Parque Santo Antônio","osm_id":9919437110,"osm_tipo":"node","tipo_lugar":"neighbourhood"},"geometry":{"type":"Point","coordinates":[-47.0593461,-23.2569319]}},{"type":"Feature","properties":{"nome":"Jardim Paraíso","osm_id":9926180244,"osm_tipo":"node","tipo_lugar":"neighbourhood"},"geometry":{"type":"Point","coordinates":[-47.0539449,-23.2613249]}},{"type":"Feature","properties":{"nome":"Jardim Primavera","osm_id":9926350538,"osm_tipo":"node","tipo_lugar":"neighbourhood"},"geometry":{"type":"Point","coordinates":[-47.0708055,-23.2435209]}},{"type":"Feature","properties":{"nome":"Vila dos Barbudos","osm_id":9936244085,"osm_tipo":"node","tipo_lugar":"neighbourhood"},"geometry":{"type":"Point","coordinates":[-47.0767707,-23.2808915]}},{"type":"Feature","properties":{"nome":"Jardim Fazendinha Real","osm_id":9936244086,"osm_tipo":"node","tipo_lugar":"neighbourhood"},"geometry":{"type":"Point","coordinates":[-47.0575008,-23.279513]}},{"type":"Feature","properties":{"nome":"Vila Preciosa","osm_id":9936244087,"osm_tipo":"node","tipo_lugar":"neighbourhood"},"geometry":{"type":"Point","coordinates":[-47.0705411,-23.2551375]}},{"type":"Feature","properties":{"nome":"Jardim da Serra I","osm_id":9943326594,"osm_tipo":"node","tipo_lugar":"neighbourhood"},"geometry":{"type":"Point","coordinates":[-47.0545953,-23.2509979]}},{"type":"Feature","properties":{"nome":"Jardim da Serra II","osm_id":9943326595,"osm_tipo":"node","tipo_lugar":"neighbourhood"},"geometry":{"type":"Point","coordinates":[-47.0531196,-23.2482346]}},{"type":"Feature","properties":{"nome":"Flor do Ipê","osm_id":9943326606,"osm_tipo":"node","tipo_lugar":"neighbourhood"},"geometry":{"type":"Point","coordinates":[-47.0634666,-23.2433432]}},{"type":"Feature","properties":{"nome":"Loteamento Nova Pinhal IV","osm_id":9943368356,"osm_tipo":"node","tipo_lugar":"neighbourhood"},"geometry":{"type":"Point","coordinates":[-47.1065642,-23.2791929]}},{"type":"Feature","properties":{"nome":"Caí de Cima","osm_id":9943368365,"osm_tipo":"node","tipo_lugar":"neighbourhood"},"geometry":{"type":"Point","coordinates":[-47.0808484,-23.2913367]}},{"type":"Feature","properties":{"nome":"Caí","osm_id":9943368366,"osm_tipo":"node","tipo_lugar":"suburb"},"geometry":{"type":"Point","coordinates":[-47.0925606,-23.2903691]}},{"type":"Feature","properties":{"nome":"Condomínio São João do Caí","osm_id":9943368367,"osm_tipo":"node","tipo_lugar":"neighbourhood"},"geometry":{"type":"Point","coordinates":[-47.0903411,-23.2776797]}},{"type":"Feature","properties":{"nome":"Condomínio Jacaré","osm_id":9943368368,"osm_tipo":"node","tipo_lugar":"neighbourhood"},"geometry":{"type":"Point","coordinates":[-47.0900013,-23.2803001]}},{"type":"Feature","properties":{"nome":"Nova Pinhal","osm_id":9943368397,"osm_tipo":"node","tipo_lugar":"neighbourhood"},"geometry":{"type":"Point","coordinates":[-47.0993169,-23.2664234]}},{"type":"Feature","properties":{"nome":"Nova Pinhal II","osm_id":9943368398,"osm_tipo":"node","tipo_lugar":"neighbourhood"},"geometry":{"type":"Point","coordinates":[-47.1017845,-23.2703659]}},{"type":"Feature","properties":{"nome":"Nova Pinhal III","osm_id":9943368399,"osm_tipo":"node","tipo_lugar":"neighbourhood"},"geometry":{"type":"Point","coordinates":[-47.0945748,-23.2734015]}},{"type":"Feature","properties":{"nome":"Chácaras do Pinhal Mirim","osm_id":9943368400,"osm_tipo":"node","tipo_lugar":"neighbourhood"},"geometry":{"type":"Point","coordinates":[-47.0864301,-23.2653091]}},{"type":"Feature","properties":{"nome":"São Francisco","osm_id":9943953371,"osm_tipo":"node","tipo_lugar":"suburb"},"geometry":{"type":"Point","coordinates":[-47.1256437,-23.3714965]}},{"type":"Feature","properties":{"nome":"Piraí","osm_id":9943999519,"osm_tipo":"node","tipo_lugar":"suburb"},"geometry":{"type":"Point","coordinates":[-47.1501381,-23.3258734]}},{"type":"Feature","properties":{"nome":"CCNT - Clube de Camping Nossa Terra","osm_id":9963076536,"osm_tipo":"node","tipo_lugar":"neighbourhood"},"geometry":{"type":"Point","coordinates":[-47.0924665,-23.3295446]}},{"type":"Feature","properties":{"nome":"Vila dos Mineiros","osm_id":9977356834,"osm_tipo":"node","tipo_lugar":"neighbourhood"},"geometry":{"type":"Point","coordinates":[-47.0846758,-23.293674]}},{"type":"Feature","properties":{"nome":"Condomínio Portal da Concórdia","osm_id":10121608004,"osm_tipo":"node","tipo_lugar":"neighbourhood"},"geometry":{"type":"Point","coordinates":[-47.050219,-23.2541824]}},{"type":"Feature","properties":{"nome":"Vila do Sítio Marmeleiro","osm_id":10137658191,"osm_tipo":"node","tipo_lugar":"neighbourhood"},"geometry":{"type":"Point","coordinates":[-47.0896963,-23.2846335]}},{"type":"Feature","properties":{"nome":"Villarejo Sopé da Serra","osm_id":14433177,"osm_tipo":"relation","tipo_lugar":"suburb"},"geometry":{"type":"MultiPolygon","coordinates":[[[[-47.0723119,-23.2803124],[-47.0637467,-23.2805881],[-47.0588575,-23.2826084],[-47.0575442,-23.2848051],[-47.0504277,-23.2836272],[-47.0723119,-23.2803124]]],[[[-47.0723119,-23.2803124],[-47.0725323,-23.2799204],[-47.0721903,-23.2773307],[-47.0723119,-23.2803124]]],[[[-47.0721903,-23.2773307],[-47.0757564,-23.2704637],[-47.074808,-23.2685391],[-47.0721903,-23.2773307]]],[[[-47.037365,-23.2764454],[-47.0432409,-23.2776547],[-47.0499262,-23.2836313],[-47.037365,-23.2764454]]],[[[-47.037365,-23.2764454],[-47.0455817,-23.2707102],[-47.0481596,-23.2657911],[-47.0533337,-23.2652036],[-47.0539605,-23.2632456],[-47.0620271,-23.2611934],[-47.0630496,-23.2584166],[-47.0669529,-23.2571528],[-47.0694792,-23.2502239],[-47.0730964,-23.2481469],[-47.037365,-23.2764454]]],[[[-47.0733836,-23.2479956],[-47.0750473,-23.2509722],[-47.0809916,-23.2563652],[-47.0733836,-23.2479956]]],[[[-47.0753647,-23.2678049],[-47.0772763,-23.2668014],[-47.0779188,-23.2601025],[-47.0803316,-23.2566729],[-47.0753647,-23.2678049]]]]}}]}