{"type":"FeatureCollection","features":[{"type":"Feature","properties":{"nome":"Ligiana","osm_id":12313218648,"osm_tipo":"node","tipo_lugar":"suburb"},"geometry":{"type":"Point","coordinates":[-48.4208983,-23.6866754]}},{"type":"Feature","properties":{"nome":"Perdizes","osm_id":13245794884,"osm_tipo":"node","tipo_lugar":"suburb"},"geometry":{"type":"Point","coordinates":[-48.4094746,-23.594156]}},{"type":"Feature","properties":{"nome":"Corvo-Branco","osm_id":13245794885,"osm_tipo":"node","tipo_lugar":"suburb"},"geometry":{"type":"Point","coordinates":[-48.4112478,-23.555117]}},{"type":"Feature","properties":{"nome":"Retiro do Pereira","osm_id":13245794887,"osm_tipo":"node","tipo_lugar":"suburb"},"geometry":{"type":"Point","coordinates":[-48.4284109,-23.6750075]}},{"type":"Feature","properties":{"nome":"Campina","osm_id":13245794888,"osm_tipo":"node","tipo_lugar":"suburb"},"geometry":{"type":"Point","coordinates":[-48.4863737,-23.5612776]}}]}