{"type":"FeatureCollection","features":[{"type":"Feature","properties":{"nome":"Bairro KM Sete","osm_id":2689131526,"osm_tipo":"node","tipo_lugar":"suburb"},"geometry":{"type":"Point","coordinates":[-49.0070129,-21.1946169]}},{"type":"Feature","properties":{"nome":"Residencial José Olympio Gonçalves","osm_id":5835216625,"osm_tipo":"node","tipo_lugar":"suburb"},"geometry":{"type":"Point","coordinates":[-49.0226506,-21.123968]}},{"type":"Feature","properties":{"nome":"Conjunto Hab. Giordano Mestrinelli","osm_id":5835216657,"osm_tipo":"node","tipo_lugar":"suburb"},"geometry":{"type":"Point","coordinates":[-48.9933908,-21.1306715]}},{"type":"Feature","properties":{"nome":"Parque Residencial Flamingo","osm_id":5835216661,"osm_tipo":"node","tipo_lugar":"suburb"},"geometry":{"type":"Point","coordinates":[-48.996427,-21.1257378]}},{"type":"Feature","properties":{"nome":"Jardim Alvorada","osm_id":5835216682,"osm_tipo":"node","tipo_lugar":"neighbourhood"},"geometry":{"type":"Point","coordinates":[-49.0083361,-21.1348146]}},{"type":"Feature","properties":{"nome":"Jardim Shangri-lá","osm_id":5835216684,"osm_tipo":"node","tipo_lugar":"neighbourhood"},"geometry":{"type":"Point","coordinates":[-49.0048814,-21.1358003]}},{"type":"Feature","properties":{"nome":"Conjunto Habitacional Gabriel Hernandez","osm_id":5835216922,"osm_tipo":"node","tipo_lugar":"suburb"},"geometry":{"type":"Point","coordinates":[-49.0147642,-21.12911]}},{"type":"Feature","properties":{"nome":"Parque Ipiranga","osm_id":5835217085,"osm_tipo":"node","tipo_lugar":"suburb"},"geometry":{"type":"Point","coordinates":[-48.9909929,-21.1232759]}},{"type":"Feature","properties":{"nome":"Distrito Industrial Antônio Boso","osm_id":5835217096,"osm_tipo":"node","tipo_lugar":"suburb"},"geometry":{"type":"Point","coordinates":[-48.9883268,-21.1261681]}},{"type":"Feature","properties":{"nome":"Vila Paulista","osm_id":5835217099,"osm_tipo":"node","tipo_lugar":"suburb"},"geometry":{"type":"Point","coordinates":[-48.9856875,-21.1280596]}},{"type":"Feature","properties":{"nome":"Residencial Ipanema","osm_id":5835217101,"osm_tipo":"node","tipo_lugar":"suburb"},"geometry":{"type":"Point","coordinates":[-48.9897108,-21.1296008]}},{"type":"Feature","properties":{"nome":"Conjunto Hab. Angelo Gaviolli","osm_id":5835217106,"osm_tipo":"node","tipo_lugar":"suburb"},"geometry":{"type":"Point","coordinates":[-48.9975429,-21.1311519]}},{"type":"Feature","properties":{"nome":"Residencial Santa Paula","osm_id":5835217107,"osm_tipo":"node","tipo_lugar":"suburb"},"geometry":{"type":"Point","coordinates":[-48.9986533,-21.1378017]}},{"type":"Feature","properties":{"nome":"Jardim Imperial","osm_id":5835217109,"osm_tipo":"node","tipo_lugar":"suburb"},"geometry":{"type":"Point","coordinates":[-49.0201914,-21.1305814]}},{"type":"Feature","properties":{"nome":"Conjunto Hab. Theodoro Rosa Filho","osm_id":5835217407,"osm_tipo":"node","tipo_lugar":"suburb"},"geometry":{"type":"Point","coordinates":[-48.9843088,-21.1202485]}},{"type":"Feature","properties":{"nome":"Residencial Anuar Pachá","osm_id":6219610483,"osm_tipo":"node","tipo_lugar":"neighbourhood"},"geometry":{"type":"Point","coordinates":[-48.9416283,-21.1524552]}},{"type":"Feature","properties":{"nome":"Distrito Industrial Pedro Luís Boso","osm_id":6219611069,"osm_tipo":"node","tipo_lugar":"suburb"},"geometry":{"type":"Point","coordinates":[-49.0388704,-21.122135]}},{"type":"Feature","properties":{"nome":"Nova Catanduva III","osm_id":7727599984,"osm_tipo":"node","tipo_lugar":"suburb"},"geometry":{"type":"Point","coordinates":[-49.009364,-21.1204371]}},{"type":"Feature","properties":{"nome":"Lluminar Residence","osm_id":8089330265,"osm_tipo":"node","tipo_lugar":"suburb"},"geometry":{"type":"Point","coordinates":[-48.9949645,-21.1584468]}},{"type":"Feature","properties":{"nome":"Jardim Vertoni","osm_id":8713436369,"osm_tipo":"node","tipo_lugar":"suburb"},"geometry":{"type":"Point","coordinates":[-48.9524512,-21.1320024]}},{"type":"Feature","properties":{"nome":"Higienópolis","osm_id":9921432413,"osm_tipo":"node","tipo_lugar":"suburb"},"geometry":{"type":"Point","coordinates":[-48.9681933,-21.1274004]}},{"type":"Feature","properties":{"nome":"Jardim Salles","osm_id":9921432414,"osm_tipo":"node","tipo_lugar":"suburb"},"geometry":{"type":"Point","coordinates":[-48.9708428,-21.1157954]}},{"type":"Feature","properties":{"nome":"Distrito Industrial Antônio Zaccaro","osm_id":10202392905,"osm_tipo":"node","tipo_lugar":"suburb"},"geometry":{"type":"Point","coordinates":[-49.0088092,-21.1266151]}},{"type":"Feature","properties":{"nome":"Jardim dos Coqueiros","osm_id":10202439723,"osm_tipo":"node","tipo_lugar":"suburb"},"geometry":{"type":"Point","coordinates":[-48.997028,-21.1715719]}},{"type":"Feature","properties":{"nome":"Jardim dos Coqueiros II","osm_id":10202439724,"osm_tipo":"node","tipo_lugar":"suburb"},"geometry":{"type":"Point","coordinates":[-49.002607,-21.1791152]}},{"type":"Feature","properties":{"nome":"Jardim das Oliveiras","osm_id":10202550798,"osm_tipo":"node","tipo_lugar":"suburb"},"geometry":{"type":"Point","coordinates":[-48.9489099,-21.109613]}},{"type":"Feature","properties":{"nome":"Morada dos Executivos","osm_id":10202550799,"osm_tipo":"node","tipo_lugar":"suburb"},"geometry":{"type":"Point","coordinates":[-48.9427072,-21.1105678]}},{"type":"Feature","properties":{"nome":"Residencial Júlia Caparroz","osm_id":10202550802,"osm_tipo":"node","tipo_lugar":"suburb"},"geometry":{"type":"Point","coordinates":[-48.9599198,-21.1097913]}},{"type":"Feature","properties":{"nome":"Jardim Pedro Borgonovi","osm_id":10202550803,"osm_tipo":"node","tipo_lugar":"suburb"},"geometry":{"type":"Point","coordinates":[-48.9552122,-21.1116127]}},{"type":"Feature","properties":{"nome":"Colina do Sol","osm_id":10202550804,"osm_tipo":"node","tipo_lugar":"suburb"},"geometry":{"type":"Point","coordinates":[-48.9585546,-21.1152017]}},{"type":"Feature","properties":{"nome":"Jardim Caparroz","osm_id":10202550805,"osm_tipo":"node","tipo_lugar":"suburb"},"geometry":{"type":"Point","coordinates":[-48.9608283,-21.119707]}},{"type":"Feature","properties":{"nome":"Portal do Bosque","osm_id":10202550806,"osm_tipo":"node","tipo_lugar":"suburb"},"geometry":{"type":"Point","coordinates":[-48.9548571,-21.1196963]}},{"type":"Feature","properties":{"nome":"Vivendas 07 de Setembro","osm_id":10202550807,"osm_tipo":"node","tipo_lugar":"suburb"},"geometry":{"type":"Point","coordinates":[-48.9648804,-21.1114384]}},{"type":"Feature","properties":{"nome":"Jardim São Benedito","osm_id":10202550808,"osm_tipo":"node","tipo_lugar":"suburb"},"geometry":{"type":"Point","coordinates":[-48.9657696,-21.1136178]}},{"type":"Feature","properties":{"nome":"Parque Maria Luiza P. Faria","osm_id":10202550809,"osm_tipo":"node","tipo_lugar":"suburb"},"geometry":{"type":"Point","coordinates":[-48.9663877,-21.1151576]}},{"type":"Feature","properties":{"nome":"Vila São Jorge","osm_id":10202550810,"osm_tipo":"node","tipo_lugar":"suburb"},"geometry":{"type":"Point","coordinates":[-48.9704759,-21.1216232]}},{"type":"Feature","properties":{"nome":"Vila Bela","osm_id":10202550811,"osm_tipo":"node","tipo_lugar":"suburb"},"geometry":{"type":"Point","coordinates":[-48.966404,-21.1186394]}},{"type":"Feature","properties":{"nome":"Vila Lunardelli","osm_id":10202550812,"osm_tipo":"node","tipo_lugar":"suburb"},"geometry":{"type":"Point","coordinates":[-48.9642766,-21.120132]}},{"type":"Feature","properties":{"nome":"Vila Motta","osm_id":10202550813,"osm_tipo":"node","tipo_lugar":"suburb"},"geometry":{"type":"Point","coordinates":[-48.9757359,-21.1259374]}},{"type":"Feature","properties":{"nome":"Jardim do Bosque","osm_id":10202550814,"osm_tipo":"node","tipo_lugar":"suburb"},"geometry":{"type":"Point","coordinates":[-48.9626854,-21.1264072]}},{"type":"Feature","properties":{"nome":"Jardim Monte Carlo","osm_id":10202550815,"osm_tipo":"node","tipo_lugar":"suburb"},"geometry":{"type":"Point","coordinates":[-48.9766844,-21.1210617]}},{"type":"Feature","properties":{"nome":"Condomínio Park Cambuí","osm_id":10202550816,"osm_tipo":"node","tipo_lugar":"suburb"},"geometry":{"type":"Point","coordinates":[-48.9762362,-21.1171224]}},{"type":"Feature","properties":{"nome":"Residencial Acapulco","osm_id":10202552717,"osm_tipo":"node","tipo_lugar":"suburb"},"geometry":{"type":"Point","coordinates":[-48.980513,-21.1186697]}},{"type":"Feature","properties":{"nome":"Jardim da Torre","osm_id":10202552718,"osm_tipo":"node","tipo_lugar":"suburb"},"geometry":{"type":"Point","coordinates":[-48.942665,-21.1059762]}},{"type":"Feature","properties":{"nome":"Parque das Américas","osm_id":10202552719,"osm_tipo":"node","tipo_lugar":"suburb"},"geometry":{"type":"Point","coordinates":[-48.9701342,-21.1314719]}},{"type":"Feature","properties":{"nome":"Residencial Bosque das Laranjeiras","osm_id":10202552720,"osm_tipo":"node","tipo_lugar":"suburb"},"geometry":{"type":"Point","coordinates":[-48.9509017,-21.1109569]}},{"type":"Feature","properties":{"nome":"Centro","osm_id":10202663710,"osm_tipo":"node","tipo_lugar":"suburb"},"geometry":{"type":"Point","coordinates":[-48.9758145,-21.1379462]}},{"type":"Feature","properties":{"nome":"Jardim Brasil","osm_id":10202663711,"osm_tipo":"node","tipo_lugar":"suburb"},"geometry":{"type":"Point","coordinates":[-48.97519,-21.143887]}},{"type":"Feature","properties":{"nome":"Vila Stocco","osm_id":10202663712,"osm_tipo":"node","tipo_lugar":"suburb"},"geometry":{"type":"Point","coordinates":[-48.982606,-21.1314469]}},{"type":"Feature","properties":{"nome":"Jardim do Lago","osm_id":10202663713,"osm_tipo":"node","tipo_lugar":"suburb"},"geometry":{"type":"Point","coordinates":[-48.986809,-21.1351059]}},{"type":"Feature","properties":{"nome":"Jardim Belém","osm_id":10202663714,"osm_tipo":"node","tipo_lugar":"suburb"},"geometry":{"type":"Point","coordinates":[-48.9855948,-21.1367959]}},{"type":"Feature","properties":{"nome":"Vila Santo Antônio","osm_id":10202663715,"osm_tipo":"node","tipo_lugar":"suburb"},"geometry":{"type":"Point","coordinates":[-48.984941,-21.1401063]}},{"type":"Feature","properties":{"nome":"Parque Residencial Agudo Romão","osm_id":10202663716,"osm_tipo":"node","tipo_lugar":"suburb"},"geometry":{"type":"Point","coordinates":[-48.9883872,-21.1441354]}},{"type":"Feature","properties":{"nome":"Jardim Amêndola","osm_id":10202667117,"osm_tipo":"node","tipo_lugar":"suburb"},"geometry":{"type":"Point","coordinates":[-48.9816202,-21.1469478]}},{"type":"Feature","properties":{"nome":"Parque Residencial Joaquim Lopes","osm_id":10202667118,"osm_tipo":"node","tipo_lugar":"suburb"},"geometry":{"type":"Point","coordinates":[-48.9880899,-21.1545396]}},{"type":"Feature","properties":{"nome":"Vila Juca Pedro","osm_id":10202667119,"osm_tipo":"node","tipo_lugar":"suburb"},"geometry":{"type":"Point","coordinates":[-48.9825854,-21.151074]}},{"type":"Feature","properties":{"nome":"Jardim Del Rey","osm_id":10202667120,"osm_tipo":"node","tipo_lugar":"suburb"},"geometry":{"type":"Point","coordinates":[-48.9942818,-21.1464415]}},{"type":"Feature","properties":{"nome":"Residencial Top Life","osm_id":10202667121,"osm_tipo":"node","tipo_lugar":"suburb"},"geometry":{"type":"Point","coordinates":[-48.9967885,-21.1445222]}},{"type":"Feature","properties":{"nome":"Parque Agudo Romão II","osm_id":10202667122,"osm_tipo":"node","tipo_lugar":"suburb"},"geometry":{"type":"Point","coordinates":[-49.0025046,-21.1455675]}},{"type":"Feature","properties":{"nome":"Parque José Curi","osm_id":10202667123,"osm_tipo":"node","tipo_lugar":"suburb"},"geometry":{"type":"Point","coordinates":[-49.0012156,-21.1425709]}},{"type":"Feature","properties":{"nome":"Residencial Diofen Martani","osm_id":10202667124,"osm_tipo":"node","tipo_lugar":"suburb"},"geometry":{"type":"Point","coordinates":[-48.9943601,-21.1410725]}},{"type":"Feature","properties":{"nome":"Residencial Isabella","osm_id":10202667125,"osm_tipo":"node","tipo_lugar":"suburb"},"geometry":{"type":"Point","coordinates":[-48.9905425,-21.1391844]}},{"type":"Feature","properties":{"nome":"Conjunto Habitacional Engracia Agudo Romão","osm_id":10202667126,"osm_tipo":"node","tipo_lugar":"suburb"},"geometry":{"type":"Point","coordinates":[-48.992023,-21.1363825]}},{"type":"Feature","properties":{"nome":"Residencial das Primaveras","osm_id":10202667127,"osm_tipo":"node","tipo_lugar":"suburb"},"geometry":{"type":"Point","coordinates":[-48.9897485,-21.1349214]}},{"type":"Feature","properties":{"nome":"Residencial Júlio Ramos","osm_id":10202667128,"osm_tipo":"node","tipo_lugar":"suburb"},"geometry":{"type":"Point","coordinates":[-49.0161163,-21.1240665]}},{"type":"Feature","properties":{"nome":"Residencial Pedro Monteleone","osm_id":10202667129,"osm_tipo":"node","tipo_lugar":"suburb"},"geometry":{"type":"Point","coordinates":[-48.9915405,-21.1579977]}},{"type":"Feature","properties":{"nome":"Jardim Primavera","osm_id":10202667130,"osm_tipo":"node","tipo_lugar":"suburb"},"geometry":{"type":"Point","coordinates":[-48.9803801,-21.1561444]}},{"type":"Feature","properties":{"nome":"Vila Industrial","osm_id":10202667131,"osm_tipo":"node","tipo_lugar":"suburb"},"geometry":{"type":"Point","coordinates":[-48.9790339,-21.1523204]}},{"type":"Feature","properties":{"nome":"Jardim Alpino","osm_id":10202667132,"osm_tipo":"node","tipo_lugar":"suburb"},"geometry":{"type":"Point","coordinates":[-48.9748535,-21.1606134]}},{"type":"Feature","properties":{"nome":"Residencial Cidade Jardim","osm_id":10202667133,"osm_tipo":"node","tipo_lugar":"suburb"},"geometry":{"type":"Point","coordinates":[-48.9697801,-21.1660487]}},{"type":"Feature","properties":{"nome":"Residencial Alto da Boa Vista II","osm_id":10202667134,"osm_tipo":"node","tipo_lugar":"suburb"},"geometry":{"type":"Point","coordinates":[-48.9643561,-21.1711613]}},{"type":"Feature","properties":{"nome":"Residencial Alto da Boa Vista","osm_id":10202667135,"osm_tipo":"node","tipo_lugar":"suburb"},"geometry":{"type":"Point","coordinates":[-48.9651206,-21.1614601]}},{"type":"Feature","properties":{"nome":"Jardim Monte Líbano","osm_id":10202667136,"osm_tipo":"node","tipo_lugar":"suburb"},"geometry":{"type":"Point","coordinates":[-48.9699915,-21.159922]}},{"type":"Feature","properties":{"nome":"Jardim Soto","osm_id":10202667157,"osm_tipo":"node","tipo_lugar":"suburb"},"geometry":{"type":"Point","coordinates":[-48.9721903,-21.1504661]}},{"type":"Feature","properties":{"nome":"Jardim Irradiação","osm_id":10202667158,"osm_tipo":"node","tipo_lugar":"suburb"},"geometry":{"type":"Point","coordinates":[-48.9624172,-21.15165]}},{"type":"Feature","properties":{"nome":"Village Damha","osm_id":10202667159,"osm_tipo":"node","tipo_lugar":"suburb"},"geometry":{"type":"Point","coordinates":[-48.9560703,-21.1464087]}},{"type":"Feature","properties":{"nome":"Jardim América","osm_id":10202667160,"osm_tipo":"node","tipo_lugar":"suburb"},"geometry":{"type":"Point","coordinates":[-48.9673592,-21.1499259]}},{"type":"Feature","properties":{"nome":"Residencial Sam Remo","osm_id":10202667161,"osm_tipo":"node","tipo_lugar":"suburb"},"geometry":{"type":"Point","coordinates":[-48.9638345,-21.1461788]}},{"type":"Feature","properties":{"nome":"Vila Celso Mouad","osm_id":10202667162,"osm_tipo":"node","tipo_lugar":"suburb"},"geometry":{"type":"Point","coordinates":[-48.9704526,-21.146719]}},{"type":"Feature","properties":{"nome":"Parque Iracema","osm_id":10202667163,"osm_tipo":"node","tipo_lugar":"suburb"},"geometry":{"type":"Point","coordinates":[-48.9635264,-21.1431328]}},{"type":"Feature","properties":{"nome":"Jardim Augusta","osm_id":10202667164,"osm_tipo":"node","tipo_lugar":"suburb"},"geometry":{"type":"Point","coordinates":[-48.9634648,-21.1368566]}},{"type":"Feature","properties":{"nome":"São Francisco","osm_id":10202667165,"osm_tipo":"node","tipo_lugar":"suburb"},"geometry":{"type":"Point","coordinates":[-48.9631443,-21.1330862]}},{"type":"Feature","properties":{"nome":"Vila Pellizzon","osm_id":10202667166,"osm_tipo":"node","tipo_lugar":"suburb"},"geometry":{"type":"Point","coordinates":[-48.9615052,-21.1307641]}},{"type":"Feature","properties":{"nome":"Jardim Bela Vista","osm_id":10202667167,"osm_tipo":"node","tipo_lugar":"suburb"},"geometry":{"type":"Point","coordinates":[-48.9578696,-21.128465]}},{"type":"Feature","properties":{"nome":"Residencial Sebastião Moraes","osm_id":10202667168,"osm_tipo":"node","tipo_lugar":"suburb"},"geometry":{"type":"Point","coordinates":[-48.948686,-21.1181904]}},{"type":"Feature","properties":{"nome":"Residencial Juliatti de Carvalho","osm_id":10202667169,"osm_tipo":"node","tipo_lugar":"suburb"},"geometry":{"type":"Point","coordinates":[-48.9453112,-21.1214524]}},{"type":"Feature","properties":{"nome":"Parque Glória IV","osm_id":10202667170,"osm_tipo":"node","tipo_lugar":"suburb"},"geometry":{"type":"Point","coordinates":[-48.9515829,-21.1213653]}},{"type":"Feature","properties":{"nome":"Parque Glória II","osm_id":10202667171,"osm_tipo":"node","tipo_lugar":"suburb"},"geometry":{"type":"Point","coordinates":[-48.9538511,-21.1248794]}},{"type":"Feature","properties":{"nome":"Residencial Chiodini","osm_id":10202667172,"osm_tipo":"node","tipo_lugar":"suburb"},"geometry":{"type":"Point","coordinates":[-48.9545796,-21.1334989]}},{"type":"Feature","properties":{"nome":"Jardim Moreschi","osm_id":10202667173,"osm_tipo":"node","tipo_lugar":"suburb"},"geometry":{"type":"Point","coordinates":[-48.9560683,-21.1337814]}},{"type":"Feature","properties":{"nome":"Jardim Santa Rosa","osm_id":10202667174,"osm_tipo":"node","tipo_lugar":"suburb"},"geometry":{"type":"Point","coordinates":[-48.9570808,-21.1376153]}},{"type":"Feature","properties":{"nome":"Vila Alexandria","osm_id":10202667175,"osm_tipo":"node","tipo_lugar":"suburb"},"geometry":{"type":"Point","coordinates":[-48.9554013,-21.1351793]}},{"type":"Feature","properties":{"nome":"Jardim Esperança","osm_id":10202667176,"osm_tipo":"node","tipo_lugar":"suburb"},"geometry":{"type":"Point","coordinates":[-48.9480239,-21.1307816]}},{"type":"Feature","properties":{"nome":"Jardim Nova Catanduva","osm_id":10202667177,"osm_tipo":"node","tipo_lugar":"suburb"},"geometry":{"type":"Point","coordinates":[-48.9498694,-21.1282401]}},{"type":"Feature","properties":{"nome":"Conj. Hab. Juliana Busnado Caparroz","osm_id":10202667178,"osm_tipo":"node","tipo_lugar":"suburb"},"geometry":{"type":"Point","coordinates":[-48.9486065,-21.1262957]}},{"type":"Feature","properties":{"nome":"Parque Glória 5","osm_id":10202667179,"osm_tipo":"node","tipo_lugar":"suburb"},"geometry":{"type":"Point","coordinates":[-48.945384,-21.1253355]}},{"type":"Feature","properties":{"nome":"Conj. Hab. Vasco Cappi Caetano da Rocha","osm_id":10202667180,"osm_tipo":"node","tipo_lugar":"suburb"},"geometry":{"type":"Point","coordinates":[-48.9404716,-21.1255071]}},{"type":"Feature","properties":{"nome":"Residencial João Miguel Calil","osm_id":10202667181,"osm_tipo":"node","tipo_lugar":"suburb"},"geometry":{"type":"Point","coordinates":[-48.9435861,-21.1243451]}},{"type":"Feature","properties":{"nome":"Jardim Bonsucesso","osm_id":10202667182,"osm_tipo":"node","tipo_lugar":"suburb"},"geometry":{"type":"Point","coordinates":[-48.9365927,-21.1176894]}},{"type":"Feature","properties":{"nome":"Jardim Campo Belo","osm_id":10202667183,"osm_tipo":"node","tipo_lugar":"suburb"},"geometry":{"type":"Point","coordinates":[-48.9384755,-21.1167385]}},{"type":"Feature","properties":{"nome":"Alexandria Perereira","osm_id":10202667184,"osm_tipo":"node","tipo_lugar":"suburb"},"geometry":{"type":"Point","coordinates":[-48.9407972,-21.1173328]}},{"type":"Feature","properties":{"nome":"Jardim Boa Vista","osm_id":10202667185,"osm_tipo":"node","tipo_lugar":"suburb"},"geometry":{"type":"Point","coordinates":[-48.9429349,-21.1174649]}},{"type":"Feature","properties":{"nome":"Jardim Europa","osm_id":10202667186,"osm_tipo":"node","tipo_lugar":"suburb"},"geometry":{"type":"Point","coordinates":[-48.9458937,-21.1157745]}},{"type":"Feature","properties":{"nome":"Vila Guzzo","osm_id":10202667187,"osm_tipo":"node","tipo_lugar":"suburb"},"geometry":{"type":"Point","coordinates":[-48.9829404,-21.1281522]}},{"type":"Feature","properties":{"nome":"Vila São Luiz","osm_id":10202667188,"osm_tipo":"node","tipo_lugar":"suburb"},"geometry":{"type":"Point","coordinates":[-48.9819963,-21.1251899]}},{"type":"Feature","properties":{"nome":"Vila Santo Antônio","osm_id":10780747950,"osm_tipo":"node","tipo_lugar":"suburb"},"geometry":{"type":"Point","coordinates":[-48.9835171,-21.1391457]}},{"type":"Feature","properties":{"nome":"Conjunto Hab. Giuseppe Spina","osm_id":11005400126,"osm_tipo":"node","tipo_lugar":"neighbourhood"},"geometry":{"type":"Point","coordinates":[-48.9387962,-21.154937]}},{"type":"Feature","properties":{"nome":"Jardim Eldorado","osm_id":11005400127,"osm_tipo":"node","tipo_lugar":"neighbourhood"},"geometry":{"type":"Point","coordinates":[-48.9453966,-21.1485774]}},{"type":"Feature","properties":{"nome":"Jardim Bom Pastor","osm_id":11005400129,"osm_tipo":"node","tipo_lugar":"neighbourhood"},"geometry":{"type":"Point","coordinates":[-48.9419004,-21.1455966]}},{"type":"Feature","properties":{"nome":"Parque Glória III","osm_id":11018698290,"osm_tipo":"node","tipo_lugar":"suburb"},"geometry":{"type":"Point","coordinates":[-48.9525139,-21.1236362]}},{"type":"Feature","properties":{"nome":"Parque Glória I","osm_id":11019050464,"osm_tipo":"node","tipo_lugar":"suburb"},"geometry":{"type":"Point","coordinates":[-48.9561188,-21.1254876]}},{"type":"Feature","properties":{"nome":"Vila Deolinda","osm_id":11021404417,"osm_tipo":"node","tipo_lugar":"suburb"},"geometry":{"type":"Point","coordinates":[-48.9680275,-21.120135]}},{"type":"Feature","properties":{"nome":"Altos do Higienópolis","osm_id":11021404427,"osm_tipo":"node","tipo_lugar":"suburb"},"geometry":{"type":"Point","coordinates":[-48.9661907,-21.1165498]}},{"type":"Feature","properties":{"nome":"Nova Catanduva","osm_id":11142120220,"osm_tipo":"node","tipo_lugar":"suburb"},"geometry":{"type":"Point","coordinates":[-49.0191209,-21.1256331]}},{"type":"Feature","properties":{"nome":"Conj. Hab. Orlando Facci","osm_id":11142120255,"osm_tipo":"node","tipo_lugar":"suburb"},"geometry":{"type":"Point","coordinates":[-49.0126987,-21.1274511]}},{"type":"Feature","properties":{"nome":"Nova Catanduva IV","osm_id":11693229496,"osm_tipo":"node","tipo_lugar":"suburb"},"geometry":{"type":"Point","coordinates":[-49.0170712,-21.1191851]}},{"type":"Feature","properties":{"nome":"Pólo Comercial e Industrial Raul de Carvalho","osm_id":11773837577,"osm_tipo":"node","tipo_lugar":"suburb"},"geometry":{"type":"Point","coordinates":[-48.9440453,-21.1027871]}},{"type":"Feature","properties":{"nome":"Residencial Horizon","osm_id":827750930,"osm_tipo":"way","tipo_lugar":"suburb"},"geometry":{"type":"Polygon","coordinates":[[[-49.0178642,-21.1352696],[-49.0134149,-21.1340009],[-49.0046018,-21.1390187],[-49.0084405,-21.1425468],[-49.0178642,-21.1352696]]]}},{"type":"Feature","properties":{"nome":"Jardim Vertoni","osm_id":15980101,"osm_tipo":"relation","tipo_lugar":"suburb"},"geometry":{"type":"Polygon","coordinates":[[[-48.9491993,-21.133096],[-48.9507045,-21.1340623],[-48.9518778,-21.1349606],[-48.9491993,-21.133096]]]}},{"type":"Feature","properties":{"nome":"Jardim Salles","osm_id":15980130,"osm_tipo":"relation","tipo_lugar":"suburb"},"geometry":{"type":"Polygon","coordinates":[[[-48.9736238,-21.1188686],[-48.9736557,-21.1175295],[-48.9733924,-21.1161629],[-48.9736238,-21.1188686]]]}},{"type":"Feature","properties":{"nome":"Alto da Boa Vista II","osm_id":15985014,"osm_tipo":"relation","tipo_lugar":"suburb"},"geometry":{"type":"MultiPolygon","coordinates":[[[[-48.9623395,-21.1742672],[-48.9619113,-21.1705622],[-48.962453,-21.1658925],[-48.9623395,-21.1742672]]],[[[-48.9657936,-21.1661756],[-48.9660167,-21.1700684],[-48.966327,-21.1755358],[-48.9657936,-21.1661756]]],[[[-48.9634738,-21.1772943],[-48.9633097,-21.1767119],[-48.9623395,-21.1742672],[-48.9634738,-21.1772943]]]]}},{"type":"Feature","properties":{"nome":"Residencial Alto da Boa Vista","osm_id":15985015,"osm_tipo":"relation","tipo_lugar":"suburb"},"geometry":{"type":"Polygon","coordinates":[[[-48.962453,-21.1658925],[-48.9629618,-21.1599632],[-48.9631131,-21.1580046],[-48.962453,-21.1658925]]]}},{"type":"Feature","properties":{"nome":"Residencial Paraíso","osm_id":15985016,"osm_tipo":"relation","tipo_lugar":"suburb"},"geometry":{"type":"Polygon","coordinates":[[[-48.9631131,-21.1580046],[-48.9635017,-21.153243],[-48.9708413,-21.1533396],[-48.969453,-21.1561721],[-48.9672894,-21.1562646],[-48.9671751,-21.1586518],[-48.9631131,-21.1580046]]]}},{"type":"Feature","properties":{"nome":"Centro","osm_id":15990766,"osm_tipo":"relation","tipo_lugar":"suburb"},"geometry":{"type":"MultiPolygon","coordinates":[[[[-48.9806155,-21.1410575],[-48.9799232,-21.1393468],[-48.9817161,-21.1387867],[-48.9806155,-21.1410575]]],[[[-48.9817161,-21.1387867],[-48.9815373,-21.1357436],[-48.9796985,-21.1363581],[-48.9780038,-21.1320158],[-48.9786459,-21.1303863],[-48.9817161,-21.1387867]]],[[[-48.9786459,-21.1303863],[-48.9769816,-21.1314826],[-48.9752127,-21.1316778],[-48.9786459,-21.1303863]]],[[[-48.9748062,-21.1316306],[-48.9746927,-21.1310956],[-48.9746281,-21.1307912],[-48.9748062,-21.1316306]]],[[[-48.9743619,-21.1295376],[-48.9685759,-21.1303957],[-48.9675149,-21.1311931],[-48.9743619,-21.1295376]]],[[[-48.9673746,-21.1314072],[-48.9675616,-21.1315203],[-48.9690848,-21.1337706],[-48.9673746,-21.1314072]]],[[[-48.9690848,-21.1337706],[-48.9692526,-21.1340217],[-48.9674169,-21.137202],[-48.9690848,-21.1337706]]],[[[-48.9674169,-21.137202],[-48.9700958,-21.1378154],[-48.9688224,-21.1411779],[-48.9674169,-21.137202]]],[[[-48.9693617,-21.1417183],[-48.9718364,-21.1419306],[-48.9725641,-21.1436001],[-48.9743972,-21.1430294],[-48.9754634,-21.1457049],[-48.9693617,-21.1417183]]],[[[-48.9754634,-21.1457049],[-48.9761337,-21.1454703],[-48.9765391,-21.1462819],[-48.9754634,-21.1457049]]],[[[-48.9772553,-21.1460001],[-48.9762379,-21.1433522],[-48.9781178,-21.1427342],[-48.9772553,-21.1460001]]]]}},{"type":"Feature","properties":{"nome":"Conjunto Hab. Giuseppe Spina","osm_id":16017071,"osm_tipo":"relation","tipo_lugar":"suburb"},"geometry":{"type":"MultiPolygon","coordinates":[[[[-48.9384324,-21.1519277],[-48.9314377,-21.1592289],[-48.9260513,-21.160276],[-48.9384324,-21.1519277]]],[[[-48.9275331,-21.1656188],[-48.9323742,-21.1612172],[-48.9385915,-21.1600863],[-48.9275331,-21.1656188]]],[[[-48.9387304,-21.1601001],[-48.9407393,-21.1606512],[-48.9439709,-21.1568355],[-48.9387304,-21.1601001]]]]}},{"type":"Feature","properties":{"nome":"Residencial Anuar Pachá","osm_id":16017072,"osm_tipo":"relation","tipo_lugar":"suburb"},"geometry":{"type":"MultiPolygon","coordinates":[[[[-48.9420206,-21.1495989],[-48.9402173,-21.1510543],[-48.9384324,-21.1519277],[-48.9420206,-21.1495989]]],[[[-48.9448687,-21.1570356],[-48.9464286,-21.1564343],[-48.9469966,-21.1550895],[-48.9486427,-21.1540498],[-48.9448687,-21.1570356]]],[[[-48.9486427,-21.1540498],[-48.9425058,-21.1490656],[-48.9424968,-21.1490583],[-48.9486427,-21.1540498]]]]}},{"type":"Feature","properties":{"nome":"Jardim Bom Pastor","osm_id":16017074,"osm_tipo":"relation","tipo_lugar":"suburb"},"geometry":{"type":"MultiPolygon","coordinates":[[[[-48.9404,-21.1406834],[-48.9347962,-21.1423432],[-48.937556,-21.1468568],[-48.9420206,-21.1495989],[-48.9404,-21.1406834]]],[[[-48.9457606,-21.1447851],[-48.9405359,-21.1409156],[-48.9404,-21.1406834],[-48.9457606,-21.1447851]]],[[[-48.9457606,-21.1447851],[-48.9447081,-21.1465498],[-48.9424968,-21.1490583],[-48.9457606,-21.1447851]]]]}},{"type":"Feature","properties":{"nome":"Parque Glória IV","osm_id":16036148,"osm_tipo":"relation","tipo_lugar":"suburb"},"geometry":{"type":"Polygon","coordinates":[[[-48.9511594,-21.1200145],[-48.9524643,-21.1190906],[-48.9545967,-21.1175888],[-48.9511594,-21.1200145]]]}},{"type":"Feature","properties":{"nome":"Parque Glória I","osm_id":16036579,"osm_tipo":"relation","tipo_lugar":"suburb"},"geometry":{"type":"MultiPolygon","coordinates":[[[[-48.9588654,-21.1242923],[-48.9589298,-21.1253288],[-48.9510159,-21.1271614],[-48.9588654,-21.1242923]]],[[[-48.9506781,-21.126887],[-48.9567062,-21.1243192],[-48.9588654,-21.1242923],[-48.9506781,-21.126887]]]]}},{"type":"Feature","properties":{"nome":"Parque Glória II","osm_id":16036580,"osm_tipo":"relation","tipo_lugar":"suburb"},"geometry":{"type":"MultiPolygon","coordinates":[[[[-48.9588654,-21.1242923],[-48.9587041,-21.123619],[-48.9572685,-21.1224659],[-48.9588654,-21.1242923]]],[[[-48.9506781,-21.126887],[-48.9567062,-21.1243192],[-48.9588654,-21.1242923],[-48.9506781,-21.126887]]],[[[-48.9485195,-21.1251611],[-48.9492685,-21.1257391],[-48.9506781,-21.126887],[-48.9485195,-21.1251611]]]]}},{"type":"Feature","properties":{"nome":"Jardim do Bosque","osm_id":16050379,"osm_tipo":"relation","tipo_lugar":"suburb"},"geometry":{"type":"MultiPolygon","coordinates":[[[[-48.9639026,-21.1293194],[-48.9652372,-21.1261427],[-48.9639704,-21.1244775],[-48.9639026,-21.1293194]]],[[[-48.9605027,-21.1257266],[-48.960669,-21.1267809],[-48.9613172,-21.1277401],[-48.9605027,-21.1257266]]],[[[-48.9614814,-21.1278693],[-48.9615467,-21.1279207],[-48.962965,-21.1287223],[-48.9614814,-21.1278693]]]]}},{"type":"Feature","properties":{"nome":"Higienópolis","osm_id":16050380,"osm_tipo":"relation","tipo_lugar":"suburb"},"geometry":{"type":"MultiPolygon","coordinates":[[[[-48.9639026,-21.1293194],[-48.9643562,-21.1295985],[-48.9651749,-21.130066],[-48.9639026,-21.1293194]]],[[[-48.9743619,-21.1295376],[-48.9685759,-21.1303957],[-48.9675149,-21.1311931],[-48.9743619,-21.1295376]]],[[[-48.9733512,-21.1238302],[-48.9685025,-21.1245445],[-48.9672192,-21.1234677],[-48.9733512,-21.1238302]]],[[[-48.9639026,-21.1293194],[-48.9652372,-21.1261427],[-48.9639704,-21.1244775],[-48.9639026,-21.1293194]]]]}},{"type":"Feature","properties":{"nome":"Vila Motta","osm_id":16050409,"osm_tipo":"relation","tipo_lugar":"suburb"},"geometry":{"type":"MultiPolygon","coordinates":[[[[-48.9746281,-21.1307912],[-48.977132,-21.1304048],[-48.9807628,-21.1212836],[-48.9746281,-21.1307912]]],[[[-48.977961,-21.1209002],[-48.9772813,-21.1237814],[-48.9744019,-21.1215956],[-48.977961,-21.1209002]]],[[[-48.9750825,-21.1205406],[-48.9742949,-21.1204373],[-48.9738692,-21.1204389],[-48.9750825,-21.1205406]]],[[[-48.9738692,-21.1204389],[-48.9741394,-21.122443],[-48.973143,-21.1225908],[-48.9733512,-21.1238302],[-48.9738692,-21.1204389]]]]}},{"type":"Feature","properties":{"nome":"Vila São Jorge","osm_id":16051321,"osm_tipo":"relation","tipo_lugar":"suburb"},"geometry":{"type":"MultiPolygon","coordinates":[[[[-48.9738692,-21.1204389],[-48.9734439,-21.120369],[-48.9728822,-21.1201481],[-48.9738692,-21.1204389]]],[[[-48.9685796,-21.1162698],[-48.9684307,-21.1165865],[-48.9683211,-21.1170049],[-48.9685796,-21.1162698]]],[[[-48.9682662,-21.1172133],[-48.968919,-21.1211585],[-48.9668309,-21.1214887],[-48.9682662,-21.1172133]]],[[[-48.9733512,-21.1238302],[-48.9685025,-21.1245445],[-48.9672192,-21.1234677],[-48.9733512,-21.1238302]]],[[[-48.9738692,-21.1204389],[-48.9741394,-21.122443],[-48.973143,-21.1225908],[-48.9733512,-21.1238302],[-48.9738692,-21.1204389]]]]}},{"type":"Feature","properties":{"nome":"Vila Deolinda","osm_id":16051322,"osm_tipo":"relation","tipo_lugar":"suburb"},"geometry":{"type":"MultiPolygon","coordinates":[[[[-48.9682662,-21.1172133],[-48.9671029,-21.1206228],[-48.9664579,-21.1208409],[-48.9682662,-21.1172133]]],[[[-48.9682662,-21.1172133],[-48.968919,-21.1211585],[-48.9668309,-21.1214887],[-48.9682662,-21.1172133]]]]}},{"type":"Feature","properties":{"nome":"Vila Bela","osm_id":16051323,"osm_tipo":"relation","tipo_lugar":"suburb"},"geometry":{"type":"MultiPolygon","coordinates":[[[[-48.9664579,-21.1208409],[-48.9654108,-21.118917],[-48.9647544,-21.1176733],[-48.9664579,-21.1208409]]],[[[-48.9682662,-21.1172133],[-48.9671029,-21.1206228],[-48.9664579,-21.1208409],[-48.9682662,-21.1172133]]]]}},{"type":"Feature","properties":{"nome":"Vila Lunardelli","osm_id":16051324,"osm_tipo":"relation","tipo_lugar":"suburb"},"geometry":{"type":"MultiPolygon","coordinates":[[[[-48.9647162,-21.1175841],[-48.9627063,-21.1178519],[-48.9632824,-21.1230425],[-48.9647162,-21.1175841]]],[[[-48.9664579,-21.1208409],[-48.9654108,-21.118917],[-48.9647544,-21.1176733],[-48.9664579,-21.1208409]]]]}},{"type":"Feature","properties":{"nome":"Altos do Higienópolis","osm_id":16051325,"osm_tipo":"relation","tipo_lugar":"suburb"},"geometry":{"type":"MultiPolygon","coordinates":[[[[-48.9685796,-21.1162698],[-48.9684307,-21.1165865],[-48.9683211,-21.1170049],[-48.9685796,-21.1162698]]],[[[-48.9639786,-21.1162503],[-48.9646209,-21.1174118],[-48.9647162,-21.1175841],[-48.9639786,-21.1162503]]]]}},{"type":"Feature","properties":{"nome":"Jardim Eldorado","osm_id":16060879,"osm_tipo":"relation","tipo_lugar":"suburb"},"geometry":{"type":"MultiPolygon","coordinates":[[[[-48.9507134,-21.1501445],[-48.9478894,-21.1477135],[-48.9457606,-21.1447851],[-48.9507134,-21.1501445]]],[[[-48.9486427,-21.1540498],[-48.9503631,-21.1530126],[-48.9506735,-21.150225],[-48.9486427,-21.1540498]]],[[[-48.9486427,-21.1540498],[-48.9425058,-21.1490656],[-48.9424968,-21.1490583],[-48.9486427,-21.1540498]]],[[[-48.9457606,-21.1447851],[-48.9447081,-21.1465498],[-48.9424968,-21.1490583],[-48.9457606,-21.1447851]]]]}},{"type":"Feature","properties":{"nome":"Nova Catanduva","osm_id":16239815,"osm_tipo":"relation","tipo_lugar":"suburb"},"geometry":{"type":"MultiPolygon","coordinates":[[[[-49.0186366,-21.1277823],[-49.019054,-21.1270772],[-49.0212377,-21.1243371],[-49.0186366,-21.1277823]]],[[[-49.0212377,-21.1243371],[-49.0197158,-21.1233335],[-49.0188098,-21.1245055],[-49.0212377,-21.1243371]]],[[[-49.0184282,-21.1242142],[-49.0178955,-21.1261331],[-49.0172659,-21.1271621],[-49.0184282,-21.1242142]]]]}},{"type":"Feature","properties":{"nome":"Residencial José Olympio Gonçalves","osm_id":16239816,"osm_tipo":"relation","tipo_lugar":"suburb"},"geometry":{"type":"MultiPolygon","coordinates":[[[[-49.0267529,-21.1262892],[-49.0240256,-21.1224253],[-49.0196165,-21.1189071],[-49.0267529,-21.1262892]]],[[[-49.0196165,-21.1189071],[-49.0195667,-21.1198843],[-49.0183246,-21.121582],[-49.0196165,-21.1189071]]],[[[-49.0183246,-21.121582],[-49.0181183,-21.1220977],[-49.0184369,-21.1241386],[-49.0183246,-21.121582]]],[[[-49.0212377,-21.1243371],[-49.0197158,-21.1233335],[-49.0188098,-21.1245055],[-49.0212377,-21.1243371]]],[[[-49.0186366,-21.1277823],[-49.019054,-21.1270772],[-49.0212377,-21.1243371],[-49.0186366,-21.1277823]]]]}},{"type":"Feature","properties":{"nome":"Residencial Julio Ramos","osm_id":16239817,"osm_tipo":"relation","tipo_lugar":"suburb"},"geometry":{"type":"MultiPolygon","coordinates":[[[[-49.0122889,-21.1220285],[-49.014628,-21.1242249],[-49.0126815,-21.126417],[-49.0122889,-21.1220285]]],[[[-49.0183246,-21.121582],[-49.0137084,-21.1203864],[-49.0122889,-21.1220285],[-49.0183246,-21.121582]]],[[[-49.0183246,-21.121582],[-49.0181183,-21.1220977],[-49.0184369,-21.1241386],[-49.0183246,-21.121582]]],[[[-49.0184282,-21.1242142],[-49.0178955,-21.1261331],[-49.0172659,-21.1271621],[-49.0184282,-21.1242142]]]]}},{"type":"Feature","properties":{"nome":"Residencial Esplanada","osm_id":16239818,"osm_tipo":"relation","tipo_lugar":"suburb"},"geometry":{"type":"MultiPolygon","coordinates":[[[[-49.0196165,-21.1189071],[-49.0193753,-21.1160949],[-49.0047803,-21.120312],[-49.0196165,-21.1189071]]],[[[-49.0047803,-21.120312],[-49.0086669,-21.1223902],[-49.0122889,-21.1220285],[-49.0047803,-21.120312]]],[[[-49.0183246,-21.121582],[-49.0137084,-21.1203864],[-49.0122889,-21.1220285],[-49.0183246,-21.121582]]],[[[-49.0196165,-21.1189071],[-49.0195667,-21.1198843],[-49.0183246,-21.121582],[-49.0196165,-21.1189071]]]]}},{"type":"Feature","properties":{"nome":"Conj. Hab. Orlando Facci","osm_id":16239819,"osm_tipo":"relation","tipo_lugar":"suburb"},"geometry":{"type":"Polygon","coordinates":[[[-49.0122608,-21.126047],[-49.011541,-21.1280143],[-49.0130425,-21.1288812],[-49.0122608,-21.126047]]]}},{"type":"Feature","properties":{"nome":"Prolongamento Imperial","osm_id":16239820,"osm_tipo":"relation","tipo_lugar":"suburb"},"geometry":{"type":"MultiPolygon","coordinates":[[[[-49.0122889,-21.1220285],[-49.014628,-21.1242249],[-49.0126815,-21.126417],[-49.0122889,-21.1220285]]],[[[-49.0086265,-21.123479],[-49.0036698,-21.1209269],[-49.0047803,-21.120312],[-49.0086265,-21.123479]]],[[[-49.0047803,-21.120312],[-49.0086669,-21.1223902],[-49.0122889,-21.1220285],[-49.0047803,-21.120312]]]]}},{"type":"Feature","properties":{"nome":"Distrito Industrial II - Antonio Zaccaro","osm_id":16239821,"osm_tipo":"relation","tipo_lugar":"suburb"},"geometry":{"type":"Polygon","coordinates":[[[-49.0122608,-21.126047],[-49.011541,-21.1280143],[-49.0130425,-21.1288812],[-49.0122608,-21.126047]]]}}]}