{"type":"FeatureCollection","features":[{"type":"Feature","properties":{"nome":"Residencial Portal do Cedro","osm_id":8551429979,"osm_tipo":"node","tipo_lugar":"suburb"},"geometry":{"type":"Point","coordinates":[-49.2758489,-20.9101395]}},{"type":"Feature","properties":{"nome":"Jardim Palmeiras","osm_id":8565778267,"osm_tipo":"node","tipo_lugar":"neighbourhood"},"geometry":{"type":"Point","coordinates":[-49.2633846,-20.9035021]}},{"type":"Feature","properties":{"nome":"Jardim Santa Suzana","osm_id":8565778268,"osm_tipo":"node","tipo_lugar":"neighbourhood"},"geometry":{"type":"Point","coordinates":[-49.2644146,-20.9058449]}},{"type":"Feature","properties":{"nome":"Maisparque Cedral","osm_id":8565778277,"osm_tipo":"node","tipo_lugar":"neighbourhood"},"geometry":{"type":"Point","coordinates":[-49.2603725,-20.9075437]}},{"type":"Feature","properties":{"nome":"Residenciais João Peres","osm_id":8565778278,"osm_tipo":"node","tipo_lugar":"neighbourhood"},"geometry":{"type":"Point","coordinates":[-49.2627597,-20.9082352]}},{"type":"Feature","properties":{"nome":"Avenida Parque","osm_id":8565778279,"osm_tipo":"node","tipo_lugar":"neighbourhood"},"geometry":{"type":"Point","coordinates":[-49.2583019,-20.9098288]}},{"type":"Feature","properties":{"nome":"Jardim Santa Terezinha 2","osm_id":8565779929,"osm_tipo":"node","tipo_lugar":"neighbourhood"},"geometry":{"type":"Point","coordinates":[-49.2640632,-20.9112269]}},{"type":"Feature","properties":{"nome":"Residencial Villagio d'Itália","osm_id":8565779941,"osm_tipo":"node","tipo_lugar":"neighbourhood"},"geometry":{"type":"Point","coordinates":[-49.2628241,-20.9111968]}},{"type":"Feature","properties":{"nome":"Jardim Santa Terezinha","osm_id":8565779942,"osm_tipo":"node","tipo_lugar":"neighbourhood"},"geometry":{"type":"Point","coordinates":[-49.2643046,-20.9105078]}},{"type":"Feature","properties":{"nome":"Jardim do Cedro","osm_id":8565779947,"osm_tipo":"node","tipo_lugar":"neighbourhood"},"geometry":{"type":"Point","coordinates":[-49.2639184,-20.9173102]}},{"type":"Feature","properties":{"nome":"Conjunto Habitacional Jardim das Oliveiras","osm_id":8565779948,"osm_tipo":"node","tipo_lugar":"neighbourhood"},"geometry":{"type":"Point","coordinates":[-49.267652,-20.9134769]}},{"type":"Feature","properties":{"nome":"Conjunto Habitacional Jardim Holambra","osm_id":8565779949,"osm_tipo":"node","tipo_lugar":"neighbourhood"},"geometry":{"type":"Point","coordinates":[-49.2682475,-20.9118884]}},{"type":"Feature","properties":{"nome":"Jardim Galante","osm_id":8565779950,"osm_tipo":"node","tipo_lugar":"neighbourhood"},"geometry":{"type":"Point","coordinates":[-49.2661285,-20.9127152]}},{"type":"Feature","properties":{"nome":"Residencial Bela Aurora","osm_id":8565779954,"osm_tipo":"node","tipo_lugar":"neighbourhood"},"geometry":{"type":"Point","coordinates":[-49.2731881,-20.9196954]}},{"type":"Feature","properties":{"nome":"Residencial di Nápoli","osm_id":8565779955,"osm_tipo":"node","tipo_lugar":"neighbourhood"},"geometry":{"type":"Point","coordinates":[-49.2688108,-20.9194148]}},{"type":"Feature","properties":{"nome":"Distrito Industrial Luiz Pereira da Costa","osm_id":8565779956,"osm_tipo":"node","tipo_lugar":"neighbourhood"},"geometry":{"type":"Point","coordinates":[-49.2694974,-20.9253625]}},{"type":"Feature","properties":{"nome":"Estância Alves","osm_id":8567728234,"osm_tipo":"node","tipo_lugar":"neighbourhood"},"geometry":{"type":"Point","coordinates":[-49.2694759,-20.8884798]}},{"type":"Feature","properties":{"nome":"Distrito Industrial","osm_id":8567728235,"osm_tipo":"node","tipo_lugar":"neighbourhood"},"geometry":{"type":"Point","coordinates":[-49.2778873,-20.9017055]}},{"type":"Feature","properties":{"nome":"Estância Trevo","osm_id":8567752919,"osm_tipo":"node","tipo_lugar":"neighbourhood"},"geometry":{"type":"Point","coordinates":[-49.2952842,-20.9091523]}},{"type":"Feature","properties":{"nome":"Estância das Paineiras","osm_id":8567752920,"osm_tipo":"node","tipo_lugar":"neighbourhood"},"geometry":{"type":"Point","coordinates":[-49.280591,-20.8976262]}},{"type":"Feature","properties":{"nome":"Residencial São Luiz","osm_id":8567752921,"osm_tipo":"node","tipo_lugar":"neighbourhood"},"geometry":{"type":"Point","coordinates":[-49.2742449,-20.8954261]}},{"type":"Feature","properties":{"nome":"Jardim São Paulo","osm_id":8567752922,"osm_tipo":"node","tipo_lugar":"neighbourhood"},"geometry":{"type":"Point","coordinates":[-49.2705864,-20.8946744]}},{"type":"Feature","properties":{"nome":"Santa Bárbara","osm_id":8567752923,"osm_tipo":"node","tipo_lugar":"neighbourhood"},"geometry":{"type":"Point","coordinates":[-49.263854,-20.9000167]}},{"type":"Feature","properties":{"nome":"Residencial Recanto Antônio Silva Filho","osm_id":8567752924,"osm_tipo":"node","tipo_lugar":"neighbourhood"},"geometry":{"type":"Point","coordinates":[-49.2612845,-20.9000417]}},{"type":"Feature","properties":{"nome":"Distrito Industrial Edgard Archimedes Beolchi","osm_id":8570001835,"osm_tipo":"node","tipo_lugar":"neighbourhood"},"geometry":{"type":"Point","coordinates":[-49.273113,-20.9263145]}},{"type":"Feature","properties":{"nome":"Residencial Parque Gramado","osm_id":8570001836,"osm_tipo":"node","tipo_lugar":"neighbourhood"},"geometry":{"type":"Point","coordinates":[-49.2707956,-20.9097336]}}]}