{"type":"FeatureCollection","features":[{"type":"Feature","properties":{"nome":"Granja Viana II Gl. 4 e 5","osm_id":3420847789,"osm_tipo":"node","tipo_lugar":"suburb"},"geometry":{"type":"Point","coordinates":[-46.8648856,-23.5807911]}},{"type":"Feature","properties":{"nome":"Granja Viana II Gl. 1 e 2","osm_id":3420847790,"osm_tipo":"node","tipo_lugar":"suburb"},"geometry":{"type":"Point","coordinates":[-46.8640329,-23.5911271]}},{"type":"Feature","properties":{"nome":"Granja Viana","osm_id":3420847791,"osm_tipo":"node","tipo_lugar":"suburb"},"geometry":{"type":"Point","coordinates":[-46.8529614,-23.5981083]}},{"type":"Feature","properties":{"nome":"Residence Park","osm_id":3420856549,"osm_tipo":"node","tipo_lugar":"suburb"},"geometry":{"type":"Point","coordinates":[-46.872533,-23.5905941]}},{"type":"Feature","properties":{"nome":"Vila Mont Serrat","osm_id":4220340919,"osm_tipo":"node","tipo_lugar":"suburb"},"geometry":{"type":"Point","coordinates":[-46.9225931,-23.6042434]}},{"type":"Feature","properties":{"nome":"Portão","osm_id":4220536354,"osm_tipo":"node","tipo_lugar":"suburb"},"geometry":{"type":"Point","coordinates":[-46.9079047,-23.6010032]}},{"type":"Feature","properties":{"nome":"Parque Bahia","osm_id":4220545566,"osm_tipo":"node","tipo_lugar":"suburb"},"geometry":{"type":"Point","coordinates":[-46.9116974,-23.6048571]}},{"type":"Feature","properties":{"nome":"Jardim Monte Santo","osm_id":4220606521,"osm_tipo":"node","tipo_lugar":"suburb"},"geometry":{"type":"Point","coordinates":[-46.9189366,-23.6084657]}},{"type":"Feature","properties":{"nome":"Atalaia","osm_id":4243780908,"osm_tipo":"node","tipo_lugar":"suburb"},"geometry":{"type":"Point","coordinates":[-46.9459051,-23.6124113]}},{"type":"Feature","properties":{"nome":"Vila Montserrat","osm_id":4253117214,"osm_tipo":"node","tipo_lugar":"suburb"},"geometry":{"type":"Point","coordinates":[-46.915745,-23.6251933]}},{"type":"Feature","properties":{"nome":"Recanto dos Victors","osm_id":4266873023,"osm_tipo":"node","tipo_lugar":"suburb"},"geometry":{"type":"Point","coordinates":[-46.915055,-23.6102374]}},{"type":"Feature","properties":{"nome":"Jardim Leonor","osm_id":4267405454,"osm_tipo":"node","tipo_lugar":"suburb"},"geometry":{"type":"Point","coordinates":[-46.9300813,-23.6087105]}},{"type":"Feature","properties":{"nome":"Jardim Nova Coimbra","osm_id":4269200420,"osm_tipo":"node","tipo_lugar":"suburb"},"geometry":{"type":"Point","coordinates":[-46.914222,-23.5983261]}},{"type":"Feature","properties":{"nome":"Jardim da Glória","osm_id":4270804484,"osm_tipo":"node","tipo_lugar":"suburb"},"geometry":{"type":"Point","coordinates":[-46.8387437,-23.6010927]}},{"type":"Feature","properties":{"nome":"Jardim Guerreiro","osm_id":4272237022,"osm_tipo":"node","tipo_lugar":"suburb"},"geometry":{"type":"Point","coordinates":[-46.8163798,-23.5910054]}},{"type":"Feature","properties":{"nome":"Jardim Japão","osm_id":4272443903,"osm_tipo":"node","tipo_lugar":"suburb"},"geometry":{"type":"Point","coordinates":[-47.0740279,-23.6645771]}},{"type":"Feature","properties":{"nome":"Jardim Araruama","osm_id":4272454795,"osm_tipo":"node","tipo_lugar":"suburb"},"geometry":{"type":"Point","coordinates":[-46.9392365,-23.6103996]}},{"type":"Feature","properties":{"nome":"Paisagem Renoir","osm_id":4272525858,"osm_tipo":"node","tipo_lugar":"suburb"},"geometry":{"type":"Point","coordinates":[-46.875408,-23.6030294]}},{"type":"Feature","properties":{"nome":"Vila Santo Antônio","osm_id":4272614975,"osm_tipo":"node","tipo_lugar":"suburb"},"geometry":{"type":"Point","coordinates":[-46.8464683,-23.5886019]}},{"type":"Feature","properties":{"nome":"Jardim dos Oliveiras","osm_id":4274746705,"osm_tipo":"node","tipo_lugar":"suburb"},"geometry":{"type":"Point","coordinates":[-47.0219763,-23.6689564]}},{"type":"Feature","properties":{"nome":"Vila Santo Antônio","osm_id":4274758935,"osm_tipo":"node","tipo_lugar":"suburb"},"geometry":{"type":"Point","coordinates":[-46.8406769,-23.5942883]}},{"type":"Feature","properties":{"nome":"Parque Santa Rita de Cassia","osm_id":4274770341,"osm_tipo":"node","tipo_lugar":"suburb"},"geometry":{"type":"Point","coordinates":[-46.9425334,-23.6074769]}},{"type":"Feature","properties":{"nome":"Jardim dos Ipes","osm_id":4277403143,"osm_tipo":"node","tipo_lugar":"suburb"},"geometry":{"type":"Point","coordinates":[-46.8925324,-23.602349]}},{"type":"Feature","properties":{"nome":"Jardim Arco Iris","osm_id":4285243502,"osm_tipo":"node","tipo_lugar":"suburb"},"geometry":{"type":"Point","coordinates":[-46.9357593,-23.6225175]}},{"type":"Feature","properties":{"nome":"Jardim Rio das Pedras","osm_id":4285401651,"osm_tipo":"node","tipo_lugar":"suburb"},"geometry":{"type":"Point","coordinates":[-46.9049503,-23.5952147]}},{"type":"Feature","properties":{"nome":"Jardim Rosemary","osm_id":4293413758,"osm_tipo":"node","tipo_lugar":"suburb"},"geometry":{"type":"Point","coordinates":[-46.9237007,-23.5648046]}},{"type":"Feature","properties":{"nome":"Jardim Sandra","osm_id":4293874089,"osm_tipo":"node","tipo_lugar":"suburb"},"geometry":{"type":"Point","coordinates":[-46.94469,-23.6341934]}},{"type":"Feature","properties":{"nome":"Parque Miguel Mirizola","osm_id":4318959890,"osm_tipo":"node","tipo_lugar":"suburb"},"geometry":{"type":"Point","coordinates":[-46.9167253,-23.581022]}},{"type":"Feature","properties":{"nome":"Bairro dos Mendes","osm_id":4325738120,"osm_tipo":"node","tipo_lugar":"suburb"},"geometry":{"type":"Point","coordinates":[-47.0251462,-23.7647699]}},{"type":"Feature","properties":{"nome":"Centro","osm_id":4327177603,"osm_tipo":"node","tipo_lugar":"suburb"},"geometry":{"type":"Point","coordinates":[-47.0221977,-23.6873106]}},{"type":"Feature","properties":{"nome":"Capelinha","osm_id":4329836941,"osm_tipo":"node","tipo_lugar":"suburb"},"geometry":{"type":"Point","coordinates":[-47.0195922,-23.7276301]}},{"type":"Feature","properties":{"nome":"Passárgada","osm_id":4343288168,"osm_tipo":"node","tipo_lugar":"suburb"},"geometry":{"type":"Point","coordinates":[-46.8481495,-23.6042916]}},{"type":"Feature","properties":{"nome":"Catupera","osm_id":4343360183,"osm_tipo":"node","tipo_lugar":"suburb"},"geometry":{"type":"Point","coordinates":[-46.9124957,-23.6364786]}},{"type":"Feature","properties":{"nome":"Maranhão","osm_id":4348155027,"osm_tipo":"node","tipo_lugar":"suburb"},"geometry":{"type":"Point","coordinates":[-46.8995778,-23.6187209]}},{"type":"Feature","properties":{"nome":"Jardim Torino","osm_id":4348163241,"osm_tipo":"node","tipo_lugar":"suburb"},"geometry":{"type":"Point","coordinates":[-46.8552433,-23.6106138]}},{"type":"Feature","properties":{"nome":"Água Espraiada","osm_id":4351546967,"osm_tipo":"node","tipo_lugar":"suburb"},"geometry":{"type":"Point","coordinates":[-47.0567262,-23.6610738]}},{"type":"Feature","properties":{"nome":"Aguaçaí","osm_id":4351548411,"osm_tipo":"node","tipo_lugar":"suburb"},"geometry":{"type":"Point","coordinates":[-47.074907,-23.6583007]}},{"type":"Feature","properties":{"nome":"Colinas de Caucaia do Alto","osm_id":4351569181,"osm_tipo":"node","tipo_lugar":"suburb"},"geometry":{"type":"Point","coordinates":[-47.0192032,-23.6627967]}},{"type":"Feature","properties":{"nome":"Bairro dos Pereiras","osm_id":4351569182,"osm_tipo":"node","tipo_lugar":"suburb"},"geometry":{"type":"Point","coordinates":[-47.0182805,-23.6593573]}},{"type":"Feature","properties":{"nome":"Bairro dos Pires","osm_id":4351569183,"osm_tipo":"node","tipo_lugar":"suburb"},"geometry":{"type":"Point","coordinates":[-47.0045476,-23.6655875]}},{"type":"Feature","properties":{"nome":"Nhambucá","osm_id":4351569184,"osm_tipo":"node","tipo_lugar":"suburb"},"geometry":{"type":"Point","coordinates":[-47.0501237,-23.6726231]}},{"type":"Feature","properties":{"nome":"Vila Viviana","osm_id":4360302427,"osm_tipo":"node","tipo_lugar":"suburb"},"geometry":{"type":"Point","coordinates":[-46.830901,-23.6012112]}},{"type":"Feature","properties":{"nome":"Jardim Rebelato","osm_id":4360302428,"osm_tipo":"node","tipo_lugar":"suburb"},"geometry":{"type":"Point","coordinates":[-46.8188203,-23.5942504]}},{"type":"Feature","properties":{"nome":"Jardim Horizonte","osm_id":4360302429,"osm_tipo":"node","tipo_lugar":"suburb"},"geometry":{"type":"Point","coordinates":[-46.8285621,-23.5962954]}},{"type":"Feature","properties":{"nome":"Jardim do Museu","osm_id":4360302430,"osm_tipo":"node","tipo_lugar":"neighbourhood"},"geometry":{"type":"Point","coordinates":[-46.9334043,-23.639214]}},{"type":"Feature","properties":{"nome":"Bairro das Graças","osm_id":4360302431,"osm_tipo":"node","tipo_lugar":"suburb"},"geometry":{"type":"Point","coordinates":[-46.943039,-23.6362808]}},{"type":"Feature","properties":{"nome":"Vila Guaraciaba","osm_id":4360302432,"osm_tipo":"node","tipo_lugar":"suburb"},"geometry":{"type":"Point","coordinates":[-46.9475449,-23.6274978]}},{"type":"Feature","properties":{"nome":"Raposo Cantreville","osm_id":4360302433,"osm_tipo":"node","tipo_lugar":"suburb"},"geometry":{"type":"Point","coordinates":[-46.9265593,-23.6185527]}},{"type":"Feature","properties":{"nome":"Jardim Belizário","osm_id":4362004676,"osm_tipo":"node","tipo_lugar":"suburb"},"geometry":{"type":"Point","coordinates":[-46.8837944,-23.6102312]}},{"type":"Feature","properties":{"nome":"Jardim Água Rosa","osm_id":4364955479,"osm_tipo":"node","tipo_lugar":"neighbourhood"},"geometry":{"type":"Point","coordinates":[-46.8540709,-23.6129446]}},{"type":"Feature","properties":{"nome":"Água Espraiada","osm_id":4422788150,"osm_tipo":"node","tipo_lugar":"suburb"},"geometry":{"type":"Point","coordinates":[-47.0369312,-23.6818584]}},{"type":"Feature","properties":{"nome":"Parque Mirante da Mata","osm_id":5709145559,"osm_tipo":"node","tipo_lugar":"suburb"},"geometry":{"type":"Point","coordinates":[-46.9566964,-23.6174543]}},{"type":"Feature","properties":{"nome":"Vila Jovina","osm_id":5715231802,"osm_tipo":"node","tipo_lugar":"suburb"},"geometry":{"type":"Point","coordinates":[-46.8925818,-23.5926567]}},{"type":"Feature","properties":{"nome":"Tijuco Preto","osm_id":5734510854,"osm_tipo":"node","tipo_lugar":"suburb"},"geometry":{"type":"Point","coordinates":[-46.9885901,-23.6401334]}},{"type":"Feature","properties":{"nome":"Jardim Santa Paula","osm_id":5861304845,"osm_tipo":"node","tipo_lugar":"suburb"},"geometry":{"type":"Point","coordinates":[-47.0084163,-23.6688466]}},{"type":"Feature","properties":{"nome":"Branco","osm_id":6538037071,"osm_tipo":"node","tipo_lugar":"suburb"},"geometry":{"type":"Point","coordinates":[-46.8878341,-23.6002101]}},{"type":"Feature","properties":{"nome":"Chácara Pavoeiro","osm_id":6655137276,"osm_tipo":"node","tipo_lugar":"suburb"},"geometry":{"type":"Point","coordinates":[-46.8248997,-23.6030291]}},{"type":"Feature","properties":{"nome":"Jardim Nova Vida","osm_id":6793816421,"osm_tipo":"node","tipo_lugar":"suburb"},"geometry":{"type":"Point","coordinates":[-46.9257667,-23.5800955]}},{"type":"Feature","properties":{"nome":"Chácara Vista Alegre","osm_id":6793816422,"osm_tipo":"node","tipo_lugar":"suburb"},"geometry":{"type":"Point","coordinates":[-46.9285464,-23.5830134]}},{"type":"Feature","properties":{"nome":"Parque Rizzo","osm_id":6793816423,"osm_tipo":"node","tipo_lugar":"suburb"},"geometry":{"type":"Point","coordinates":[-46.9238117,-23.5899498]}},{"type":"Feature","properties":{"nome":"Jardim Nara Lúcia","osm_id":6793816424,"osm_tipo":"node","tipo_lugar":"suburb"},"geometry":{"type":"Point","coordinates":[-46.9172964,-23.5845375]}},{"type":"Feature","properties":{"nome":"Parque das Rosas","osm_id":6793816425,"osm_tipo":"node","tipo_lugar":"suburb"},"geometry":{"type":"Point","coordinates":[-46.9202196,-23.5750199]}},{"type":"Feature","properties":{"nome":"Recanto Vista Alegre","osm_id":6793825949,"osm_tipo":"node","tipo_lugar":"suburb"},"geometry":{"type":"Point","coordinates":[-46.9302302,-23.5954686]}},{"type":"Feature","properties":{"nome":"Parque Turiguara","osm_id":6793825953,"osm_tipo":"node","tipo_lugar":"suburb"},"geometry":{"type":"Point","coordinates":[-46.917235,-23.5951469]}},{"type":"Feature","properties":{"nome":"Vila Clara","osm_id":6793825954,"osm_tipo":"node","tipo_lugar":"suburb"},"geometry":{"type":"Point","coordinates":[-46.9195139,-23.5956777]}},{"type":"Feature","properties":{"nome":"Jardim Cotia","osm_id":6793825965,"osm_tipo":"node","tipo_lugar":"suburb"},"geometry":{"type":"Point","coordinates":[-46.9101293,-23.5968465]}},{"type":"Feature","properties":{"nome":"Jardim Rosalina","osm_id":6793825966,"osm_tipo":"node","tipo_lugar":"suburb"},"geometry":{"type":"Point","coordinates":[-46.9063862,-23.5994191]}},{"type":"Feature","properties":{"nome":"Parque Rizzo 2","osm_id":6794167940,"osm_tipo":"node","tipo_lugar":"suburb"},"geometry":{"type":"Point","coordinates":[-46.9145687,-23.5884904]}},{"type":"Feature","properties":{"nome":"Jardim Adelina","osm_id":6853818247,"osm_tipo":"node","tipo_lugar":"suburb"},"geometry":{"type":"Point","coordinates":[-46.9332933,-23.5996657]}},{"type":"Feature","properties":{"nome":"Jardim Samambaia","osm_id":9005317707,"osm_tipo":"node","tipo_lugar":"suburb"},"geometry":{"type":"Point","coordinates":[-46.9064063,-23.7100103]}},{"type":"Feature","properties":{"nome":"Jardim Monte Verde","osm_id":9548551809,"osm_tipo":"node","tipo_lugar":"suburb"},"geometry":{"type":"Point","coordinates":[-47.0268938,-23.7024007]}},{"type":"Feature","properties":{"nome":"Altos de Cocaia","osm_id":9548577603,"osm_tipo":"node","tipo_lugar":"suburb"},"geometry":{"type":"Point","coordinates":[-47.0245707,-23.6747719]}},{"type":"Feature","properties":{"nome":"Mendes","osm_id":9550842980,"osm_tipo":"node","tipo_lugar":"suburb"},"geometry":{"type":"Point","coordinates":[-47.0278508,-23.7602873]}},{"type":"Feature","properties":{"nome":"Parque Rincão","osm_id":9552091838,"osm_tipo":"node","tipo_lugar":"suburb"},"geometry":{"type":"Point","coordinates":[-46.8862011,-23.5821979]}},{"type":"Feature","properties":{"nome":"Pedras","osm_id":9553080912,"osm_tipo":"node","tipo_lugar":"suburb"},"geometry":{"type":"Point","coordinates":[-46.9756164,-23.6196127]}},{"type":"Feature","properties":{"nome":"Jardim Isis","osm_id":9560613477,"osm_tipo":"node","tipo_lugar":"suburb"},"geometry":{"type":"Point","coordinates":[-46.9594061,-23.6477656]}},{"type":"Feature","properties":{"nome":"Pereiras","osm_id":9579558534,"osm_tipo":"node","tipo_lugar":"suburb"},"geometry":{"type":"Point","coordinates":[-47.0227138,-23.6570332]}},{"type":"Feature","properties":{"nome":"Jardim Petrópolis","osm_id":9579563708,"osm_tipo":"node","tipo_lugar":"suburb"},"geometry":{"type":"Point","coordinates":[-46.9281377,-23.6209309]}},{"type":"Feature","properties":{"nome":"Santana","osm_id":9581819329,"osm_tipo":"node","tipo_lugar":"suburb"},"geometry":{"type":"Point","coordinates":[-47.0441435,-23.69897]}},{"type":"Feature","properties":{"nome":"Jardim do Engenho","osm_id":12046763033,"osm_tipo":"node","tipo_lugar":"suburb"},"geometry":{"type":"Point","coordinates":[-46.8346153,-23.6142408]}},{"type":"Feature","properties":{"nome":"Granja Viana","osm_id":12053009478,"osm_tipo":"node","tipo_lugar":"suburb"},"geometry":{"type":"Point","coordinates":[-46.8306397,-23.589171]}},{"type":"Feature","properties":{"nome":"Parque São Jorge","osm_id":12071755614,"osm_tipo":"node","tipo_lugar":"suburb"},"geometry":{"type":"Point","coordinates":[-46.8479478,-23.5989767]}},{"type":"Feature","properties":{"nome":"Parque São Jorge","osm_id":12080133190,"osm_tipo":"node","tipo_lugar":"suburb"},"geometry":{"type":"Point","coordinates":[-46.8488294,-23.5965504]}}]}