{"type":"FeatureCollection","features":[{"type":"Feature","properties":{"nome":"Jardim Casqueiro","osm_id":2014082006,"osm_tipo":"node","tipo_lugar":"suburb"},"geometry":{"type":"Point","coordinates":[-46.4063746,-23.9295461]}},{"type":"Feature","properties":{"nome":"Jardim 31 de Março","osm_id":2014082017,"osm_tipo":"node","tipo_lugar":"suburb"},"geometry":{"type":"Point","coordinates":[-46.4290434,-23.8901844]}},{"type":"Feature","properties":{"nome":"Vila Nova","osm_id":2014082020,"osm_tipo":"node","tipo_lugar":"suburb"},"geometry":{"type":"Point","coordinates":[-46.4255431,-23.8939942]}},{"type":"Feature","properties":{"nome":"Cota 200","osm_id":2351317655,"osm_tipo":"node","tipo_lugar":"suburb"},"geometry":{"type":"Point","coordinates":[-46.4736951,-23.891764]}},{"type":"Feature","properties":{"nome":"Sitio Cafezal","osm_id":4281147473,"osm_tipo":"node","tipo_lugar":"suburb"},"geometry":{"type":"Point","coordinates":[-46.4214137,-23.8743766]}},{"type":"Feature","properties":{"nome":"Jardim Casqueiro","osm_id":5449526171,"osm_tipo":"node","tipo_lugar":"suburb"},"geometry":{"type":"Point","coordinates":[-46.4121594,-23.9281782]}},{"type":"Feature","properties":{"nome":"Vila Rua Cubatão","osm_id":7003984658,"osm_tipo":"node","tipo_lugar":"suburb"},"geometry":{"type":"Point","coordinates":[-46.4336729,-23.9344369]}},{"type":"Feature","properties":{"nome":"Pilões","osm_id":7004110600,"osm_tipo":"node","tipo_lugar":"suburb"},"geometry":{"type":"Point","coordinates":[-46.4524698,-23.8901147]}},{"type":"Feature","properties":{"nome":"Vila Sítio dos Queirozes","osm_id":7004110601,"osm_tipo":"node","tipo_lugar":"suburb"},"geometry":{"type":"Point","coordinates":[-46.4471698,-23.8973148]}},{"type":"Feature","properties":{"nome":"Vila Caic","osm_id":7004110750,"osm_tipo":"node","tipo_lugar":"suburb"},"geometry":{"type":"Point","coordinates":[-46.4366663,-23.9021604]}},{"type":"Feature","properties":{"nome":"Vila Ilha Bela","osm_id":7004110844,"osm_tipo":"node","tipo_lugar":"suburb"},"geometry":{"type":"Point","coordinates":[-46.4428997,-23.9025724]}},{"type":"Feature","properties":{"nome":"Vila Esperança","osm_id":7004110969,"osm_tipo":"node","tipo_lugar":"suburb"},"geometry":{"type":"Point","coordinates":[-46.4480496,-23.9001006]}},{"type":"Feature","properties":{"nome":"Vila dos Pescadores","osm_id":12349862458,"osm_tipo":"node","tipo_lugar":"suburb"},"geometry":{"type":"Point","coordinates":[-46.4040078,-23.9242972]}},{"type":"Feature","properties":{"nome":"Vila Couto","osm_id":1287824918,"osm_tipo":"way","tipo_lugar":"suburb"},"geometry":{"type":"Polygon","coordinates":[[[-46.426926,-23.8819784],[-46.4222291,-23.8827437],[-46.4208709,-23.886786],[-46.4263705,-23.8860676],[-46.426926,-23.8819784]]]}}]}