{"type":"FeatureCollection","features":[{"type":"Feature","properties":{"nome":"Bosque do Tamanduá","osm_id":11427338549,"osm_tipo":"node","tipo_lugar":"suburb"},"geometry":{"type":"Point","coordinates":[-47.6312058,-21.9293009]}},{"type":"Feature","properties":{"nome":"Santa Cruz","osm_id":11427426957,"osm_tipo":"node","tipo_lugar":"suburb"},"geometry":{"type":"Point","coordinates":[-47.621894,-21.8946366]}},{"type":"Feature","properties":{"nome":"Jardim Colonial","osm_id":11427455208,"osm_tipo":"node","tipo_lugar":"suburb"},"geometry":{"type":"Point","coordinates":[-47.6148871,-21.9155908]}},{"type":"Feature","properties":{"nome":"Centro","osm_id":11427472030,"osm_tipo":"node","tipo_lugar":"suburb"},"geometry":{"type":"Point","coordinates":[-47.6212365,-21.9019197]}},{"type":"Feature","properties":{"nome":"Morada do Sol","osm_id":11427475185,"osm_tipo":"node","tipo_lugar":"suburb"},"geometry":{"type":"Point","coordinates":[-47.6352331,-21.9096359]}},{"type":"Feature","properties":{"nome":"Portal dos Coqueiros","osm_id":11427610136,"osm_tipo":"node","tipo_lugar":"suburb"},"geometry":{"type":"Point","coordinates":[-47.5977883,-21.9055153]}},{"type":"Feature","properties":{"nome":"Jardim Albertina","osm_id":11427615202,"osm_tipo":"node","tipo_lugar":"suburb"},"geometry":{"type":"Point","coordinates":[-47.60064,-21.9064022]}},{"type":"Feature","properties":{"nome":"São Sebastião","osm_id":11427626689,"osm_tipo":"node","tipo_lugar":"suburb"},"geometry":{"type":"Point","coordinates":[-47.6282139,-21.9004461]}},{"type":"Feature","properties":{"nome":"Alto da Boa Vista","osm_id":11427629442,"osm_tipo":"node","tipo_lugar":"suburb"},"geometry":{"type":"Point","coordinates":[-47.6302976,-21.9245538]}},{"type":"Feature","properties":{"nome":"Novo Jardim Belém","osm_id":11427629447,"osm_tipo":"node","tipo_lugar":"suburb"},"geometry":{"type":"Point","coordinates":[-47.6260133,-21.9226471]}}]}