{"type":"FeatureCollection","features":[{"type":"Feature","properties":{"nome":"Itapeúna","osm_id":416646724,"osm_tipo":"node","tipo_lugar":"suburb"},"geometry":{"type":"Point","coordinates":[-48.2172952,-24.5959938]}},{"type":"Feature","properties":{"nome":"Braço","osm_id":416646726,"osm_tipo":"node","tipo_lugar":"suburb"},"geometry":{"type":"Point","coordinates":[-48.2922452,-24.6377993]}},{"type":"Feature","properties":{"nome":"Gedde","osm_id":1086439952,"osm_tipo":"node","tipo_lugar":"suburb"},"geometry":{"type":"Point","coordinates":[-54.6315195,-26.4001152]}},{"type":"Feature","properties":{"nome":"El Colono","osm_id":1086439958,"osm_tipo":"node","tipo_lugar":"neighbourhood"},"geometry":{"type":"Point","coordinates":[-54.6330562,-26.4078241]}},{"type":"Feature","properties":{"nome":"Cristo Redentor","osm_id":1086442965,"osm_tipo":"node","tipo_lugar":"suburb"},"geometry":{"type":"Point","coordinates":[-54.6368461,-26.3993781]}},{"type":"Feature","properties":{"nome":"La Colina","osm_id":1086446570,"osm_tipo":"node","tipo_lugar":"suburb"},"geometry":{"type":"Point","coordinates":[-54.6449757,-26.4020559]}},{"type":"Feature","properties":{"nome":"Manoel Farias da Silva","osm_id":1451390554,"osm_tipo":"node","tipo_lugar":"suburb"},"geometry":{"type":"Point","coordinates":[-54.2856944,-23.7708165]}},{"type":"Feature","properties":{"nome":"Manoel Gomes da Silva","osm_id":1451390557,"osm_tipo":"node","tipo_lugar":"suburb"},"geometry":{"type":"Point","coordinates":[-54.2912284,-23.7692436]}},{"type":"Feature","properties":{"nome":"André Lopes","osm_id":3304058801,"osm_tipo":"node","tipo_lugar":"suburb"},"geometry":{"type":"Point","coordinates":[-48.4061434,-24.600359]}},{"type":"Feature","properties":{"nome":"Pedro Cubas","osm_id":3304072112,"osm_tipo":"node","tipo_lugar":"suburb"},"geometry":{"type":"Point","coordinates":[-48.2880611,-24.5157289]}},{"type":"Feature","properties":{"nome":"Alto Guapiruvu","osm_id":3304078338,"osm_tipo":"node","tipo_lugar":"suburb"},"geometry":{"type":"Point","coordinates":[-48.1044753,-24.2808884]}},{"type":"Feature","properties":{"nome":"Quadro Vergueiro","osm_id":3316651977,"osm_tipo":"node","tipo_lugar":"suburb"},"geometry":{"type":"Point","coordinates":[-48.0522136,-24.4280794]}},{"type":"Feature","properties":{"nome":"Itatí","osm_id":4176157518,"osm_tipo":"node","tipo_lugar":"neighbourhood"},"geometry":{"type":"Point","coordinates":[-54.6043587,-26.3990892]}},{"type":"Feature","properties":{"nome":"Guaraní","osm_id":4176539098,"osm_tipo":"node","tipo_lugar":"neighbourhood"},"geometry":{"type":"Point","coordinates":[-54.6684011,-26.401936]}},{"type":"Feature","properties":{"nome":"Lomas del Paraná","osm_id":4176574234,"osm_tipo":"node","tipo_lugar":"neighbourhood"},"geometry":{"type":"Point","coordinates":[-54.6782934,-26.4029599]}},{"type":"Feature","properties":{"nome":"Florida","osm_id":4181552868,"osm_tipo":"node","tipo_lugar":"neighbourhood"},"geometry":{"type":"Point","coordinates":[-54.6002449,-26.432264]}},{"type":"Feature","properties":{"nome":"Elena","osm_id":4208090038,"osm_tipo":"node","tipo_lugar":"neighbourhood"},"geometry":{"type":"Point","coordinates":[-54.6825437,-26.4127157]}},{"type":"Feature","properties":{"nome":"El Fundador","osm_id":4208090056,"osm_tipo":"node","tipo_lugar":"neighbourhood"},"geometry":{"type":"Point","coordinates":[-54.6662873,-26.4227267]}},{"type":"Feature","properties":{"nome":"Bairro do Aboboral","osm_id":4413904293,"osm_tipo":"node","tipo_lugar":"suburb"},"geometry":{"type":"Point","coordinates":[-48.0724202,-24.4916393]}},{"type":"Feature","properties":{"nome":"Fazenda Camarão","osm_id":4428970119,"osm_tipo":"node","tipo_lugar":"suburb"},"geometry":{"type":"Point","coordinates":[-48.0762233,-24.3289132]}},{"type":"Feature","properties":{"nome":"Malvinas","osm_id":4760899267,"osm_tipo":"node","tipo_lugar":"neighbourhood"},"geometry":{"type":"Point","coordinates":[-54.6211411,-26.398363]}},{"type":"Feature","properties":{"nome":"ExCetricultor","osm_id":4760899424,"osm_tipo":"node","tipo_lugar":"neighbourhood"},"geometry":{"type":"Point","coordinates":[-54.6651009,-26.4122467]}},{"type":"Feature","properties":{"nome":"Esperanza","osm_id":4760899476,"osm_tipo":"node","tipo_lugar":"neighbourhood"},"geometry":{"type":"Point","coordinates":[-54.6071222,-26.4277809]}},{"type":"Feature","properties":{"nome":"Juventud","osm_id":4760899478,"osm_tipo":"node","tipo_lugar":"neighbourhood"},"geometry":{"type":"Point","coordinates":[-54.589165,-26.4278714]}},{"type":"Feature","properties":{"nome":"Somrau","osm_id":4760899479,"osm_tipo":"node","tipo_lugar":"neighbourhood"},"geometry":{"type":"Point","coordinates":[-54.585965,-26.4238727]}},{"type":"Feature","properties":{"nome":"Kraus","osm_id":4763219546,"osm_tipo":"node","tipo_lugar":"neighbourhood"},"geometry":{"type":"Point","coordinates":[-54.5713958,-26.4102039]}},{"type":"Feature","properties":{"nome":"Karl Kugelmann","osm_id":4763219547,"osm_tipo":"node","tipo_lugar":"neighbourhood"},"geometry":{"type":"Point","coordinates":[-54.5783583,-26.4102532]}},{"type":"Feature","properties":{"nome":"Parque Kilómetro 11","osm_id":4763219565,"osm_tipo":"node","tipo_lugar":"neighbourhood"},"geometry":{"type":"Point","coordinates":[-54.5782486,-26.4065195]}},{"type":"Feature","properties":{"nome":"Las Violetas","osm_id":4763219567,"osm_tipo":"node","tipo_lugar":"neighbourhood"},"geometry":{"type":"Point","coordinates":[-54.5784176,-26.4018129]}},{"type":"Feature","properties":{"nome":"Los Cedros","osm_id":4763219568,"osm_tipo":"node","tipo_lugar":"neighbourhood"},"geometry":{"type":"Point","coordinates":[-54.5839074,-26.4036445]}},{"type":"Feature","properties":{"nome":"Gurtner","osm_id":4763219573,"osm_tipo":"node","tipo_lugar":"neighbourhood"},"geometry":{"type":"Point","coordinates":[-54.5839168,-26.4132805]}},{"type":"Feature","properties":{"nome":"29 de Septiembre","osm_id":4763219574,"osm_tipo":"node","tipo_lugar":"neighbourhood"},"geometry":{"type":"Point","coordinates":[-54.5845612,-26.4182513]}},{"type":"Feature","properties":{"nome":"San Miguel","osm_id":4763219579,"osm_tipo":"node","tipo_lugar":"neighbourhood"},"geometry":{"type":"Point","coordinates":[-54.5928725,-26.4100761]}},{"type":"Feature","properties":{"nome":"Las Lomas","osm_id":4763219580,"osm_tipo":"node","tipo_lugar":"neighbourhood"},"geometry":{"type":"Point","coordinates":[-54.6006026,-26.4095172]}},{"type":"Feature","properties":{"nome":"Ziegler","osm_id":4763219581,"osm_tipo":"node","tipo_lugar":"neighbourhood"},"geometry":{"type":"Point","coordinates":[-54.6040545,-26.4151242]}},{"type":"Feature","properties":{"nome":"El Ceibo","osm_id":4763219582,"osm_tipo":"node","tipo_lugar":"neighbourhood"},"geometry":{"type":"Point","coordinates":[-54.6070965,-26.4188053]}},{"type":"Feature","properties":{"nome":"Lomas Del Mirador","osm_id":4763219583,"osm_tipo":"node","tipo_lugar":"neighbourhood"},"geometry":{"type":"Point","coordinates":[-54.6177262,-26.4160197]}},{"type":"Feature","properties":{"nome":"Central","osm_id":4763219584,"osm_tipo":"node","tipo_lugar":"neighbourhood"},"geometry":{"type":"Point","coordinates":[-54.6166747,-26.4122306]}},{"type":"Feature","properties":{"nome":"Engwald","osm_id":4763219599,"osm_tipo":"node","tipo_lugar":"neighbourhood"},"geometry":{"type":"Point","coordinates":[-54.6124301,-26.4088085]}},{"type":"Feature","properties":{"nome":"9 de Julio","osm_id":4763219604,"osm_tipo":"node","tipo_lugar":"neighbourhood"},"geometry":{"type":"Point","coordinates":[-54.6854478,-26.4167468]}},{"type":"Feature","properties":{"nome":"Gardes","osm_id":4763219605,"osm_tipo":"node","tipo_lugar":"neighbourhood"},"geometry":{"type":"Point","coordinates":[-54.6834929,-26.4105165]}},{"type":"Feature","properties":{"nome":"Gildi","osm_id":4763219615,"osm_tipo":"node","tipo_lugar":"neighbourhood"},"geometry":{"type":"Point","coordinates":[-54.673872,-26.403979]}},{"type":"Feature","properties":{"nome":"El Porvenir","osm_id":4763219726,"osm_tipo":"node","tipo_lugar":"neighbourhood"},"geometry":{"type":"Point","coordinates":[-54.6759661,-26.4081354]}},{"type":"Feature","properties":{"nome":"Bernín","osm_id":4763219734,"osm_tipo":"node","tipo_lugar":"neighbourhood"},"geometry":{"type":"Point","coordinates":[-54.6775639,-26.4117444]}},{"type":"Feature","properties":{"nome":"Antigüo Centro","osm_id":4763219735,"osm_tipo":"node","tipo_lugar":"neighbourhood"},"geometry":{"type":"Point","coordinates":[-54.6738879,-26.4104711]}},{"type":"Feature","properties":{"nome":"Universitario","osm_id":4771956064,"osm_tipo":"node","tipo_lugar":"neighbourhood"},"geometry":{"type":"Point","coordinates":[-54.6632302,-26.4060621]}},{"type":"Feature","properties":{"nome":"San Martín","osm_id":4771956065,"osm_tipo":"node","tipo_lugar":"neighbourhood"},"geometry":{"type":"Point","coordinates":[-54.6590769,-26.4029383]}},{"type":"Feature","properties":{"nome":"Parque Residencial","osm_id":4771956066,"osm_tipo":"node","tipo_lugar":"neighbourhood"},"geometry":{"type":"Point","coordinates":[-54.6546032,-26.4049252]}},{"type":"Feature","properties":{"nome":"Los Lapachos","osm_id":4771956076,"osm_tipo":"node","tipo_lugar":"neighbourhood"},"geometry":{"type":"Point","coordinates":[-54.6490029,-26.3923534]}},{"type":"Feature","properties":{"nome":"Pionero Luis Nöller","osm_id":4771966813,"osm_tipo":"node","tipo_lugar":"neighbourhood"},"geometry":{"type":"Point","coordinates":[-54.6384839,-26.3902908]}},{"type":"Feature","properties":{"nome":"Eldorado II","osm_id":4823942736,"osm_tipo":"node","tipo_lugar":"neighbourhood"},"geometry":{"type":"Point","coordinates":[-54.5815173,-26.4057532]}},{"type":"Feature","properties":{"nome":"Eldorado III y IV","osm_id":4823942756,"osm_tipo":"node","tipo_lugar":"neighbourhood"},"geometry":{"type":"Point","coordinates":[-54.5896628,-26.4031858]}},{"type":"Feature","properties":{"nome":"Eldorado VI","osm_id":4823942757,"osm_tipo":"node","tipo_lugar":"neighbourhood"},"geometry":{"type":"Point","coordinates":[-54.5911865,-26.4040998]}},{"type":"Feature","properties":{"nome":"Eldorado IX","osm_id":4823942758,"osm_tipo":"node","tipo_lugar":"neighbourhood"},"geometry":{"type":"Point","coordinates":[-54.5900642,-26.4012634]}},{"type":"Feature","properties":{"nome":"Eldorado V","osm_id":4823942759,"osm_tipo":"node","tipo_lugar":"neighbourhood"},"geometry":{"type":"Point","coordinates":[-54.5912582,-26.4021746]}},{"type":"Feature","properties":{"nome":"Pionero Silvestre Zarza","osm_id":4823942760,"osm_tipo":"node","tipo_lugar":"neighbourhood"},"geometry":{"type":"Point","coordinates":[-54.5986585,-26.4015825]}},{"type":"Feature","properties":{"nome":"Polonia","osm_id":5039099132,"osm_tipo":"node","tipo_lugar":"neighbourhood"},"geometry":{"type":"Point","coordinates":[-54.6221207,-26.4067458]}},{"type":"Feature","properties":{"nome":"Koch","osm_id":5039099133,"osm_tipo":"node","tipo_lugar":"neighbourhood"},"geometry":{"type":"Point","coordinates":[-54.6245749,-26.3984663]}},{"type":"Feature","properties":{"nome":"Doglio","osm_id":5337917326,"osm_tipo":"node","tipo_lugar":"neighbourhood"},"geometry":{"type":"Point","coordinates":[-54.6242862,-26.4079617]}},{"type":"Feature","properties":{"nome":"20 de Junio","osm_id":5544924784,"osm_tipo":"node","tipo_lugar":"neighbourhood"},"geometry":{"type":"Point","coordinates":[-54.6575969,-26.4096904]}},{"type":"Feature","properties":{"nome":"Belgrano","osm_id":5555396386,"osm_tipo":"node","tipo_lugar":"neighbourhood"},"geometry":{"type":"Point","coordinates":[-54.6177521,-26.3987618]}},{"type":"Feature","properties":{"nome":"San Cayetano -  Santa Catalina","osm_id":6044089012,"osm_tipo":"node","tipo_lugar":"neighbourhood"},"geometry":{"type":"Point","coordinates":[-54.6501141,-26.3887693]}},{"type":"Feature","properties":{"nome":"Alvear","osm_id":6479080157,"osm_tipo":"node","tipo_lugar":"neighbourhood"},"geometry":{"type":"Point","coordinates":[-54.6113095,-26.4026552]}},{"type":"Feature","properties":{"nome":"Bairro Cristóvão","osm_id":7230999244,"osm_tipo":"node","tipo_lugar":"suburb"},"geometry":{"type":"Point","coordinates":[-48.0965614,-24.5488132]}},{"type":"Feature","properties":{"nome":"Bairro Entrada da Torre","osm_id":7230999245,"osm_tipo":"node","tipo_lugar":"suburb"},"geometry":{"type":"Point","coordinates":[-48.1071059,-24.5785893]}},{"type":"Feature","properties":{"nome":"Bairro Rancho Alegre","osm_id":7230999246,"osm_tipo":"node","tipo_lugar":"suburb"},"geometry":{"type":"Point","coordinates":[-48.101438,-24.570143]}},{"type":"Feature","properties":{"nome":"Bairro Maranduva","osm_id":7230999247,"osm_tipo":"node","tipo_lugar":"suburb"},"geometry":{"type":"Point","coordinates":[-48.1080662,-24.5510739]}},{"type":"Feature","properties":{"nome":"Bairro Bananal Pequeno","osm_id":7230999248,"osm_tipo":"node","tipo_lugar":"suburb"},"geometry":{"type":"Point","coordinates":[-48.0776938,-24.523512]}},{"type":"Feature","properties":{"nome":"Bairro Primeira Ilha","osm_id":7231005391,"osm_tipo":"node","tipo_lugar":"suburb"},"geometry":{"type":"Point","coordinates":[-48.0160581,-24.4658858]}},{"type":"Feature","properties":{"nome":"Bairro Fazenda Formosa","osm_id":7231040953,"osm_tipo":"node","tipo_lugar":"suburb"},"geometry":{"type":"Point","coordinates":[-48.1012582,-24.5400907]}},{"type":"Feature","properties":{"nome":"Bairro Ilha Rasa","osm_id":7231040954,"osm_tipo":"node","tipo_lugar":"suburb"},"geometry":{"type":"Point","coordinates":[-48.0352814,-24.4995395]}},{"type":"Feature","properties":{"nome":"Primero de Mayo","osm_id":7441629178,"osm_tipo":"node","tipo_lugar":"neighbourhood"},"geometry":{"type":"Point","coordinates":[-54.6717428,-26.3965075]}},{"type":"Feature","properties":{"nome":"Puerto Pinares","osm_id":7441646743,"osm_tipo":"node","tipo_lugar":"neighbourhood"},"geometry":{"type":"Point","coordinates":[-54.683313,-26.4265979]}},{"type":"Feature","properties":{"nome":"Georgias del Sur","osm_id":7441816090,"osm_tipo":"node","tipo_lugar":"neighbourhood"},"geometry":{"type":"Point","coordinates":[-54.6723444,-26.3991433]}},{"type":"Feature","properties":{"nome":"Pedro Giacchino","osm_id":7443828622,"osm_tipo":"node","tipo_lugar":"neighbourhood"},"geometry":{"type":"Point","coordinates":[-54.6611733,-26.4100139]}},{"type":"Feature","properties":{"nome":"Sauer","osm_id":7447407953,"osm_tipo":"node","tipo_lugar":"neighbourhood"},"geometry":{"type":"Point","coordinates":[-54.6422077,-26.4108091]}},{"type":"Feature","properties":{"nome":"Primavera","osm_id":7459112424,"osm_tipo":"node","tipo_lugar":"neighbourhood"},"geometry":{"type":"Point","coordinates":[-54.6682255,-26.413454]}},{"type":"Feature","properties":{"nome":"Avanti","osm_id":7459280356,"osm_tipo":"node","tipo_lugar":"neighbourhood"},"geometry":{"type":"Point","coordinates":[-54.6542791,-26.4138694]}},{"type":"Feature","properties":{"nome":"Bompadre","osm_id":7459295455,"osm_tipo":"node","tipo_lugar":"neighbourhood"},"geometry":{"type":"Point","coordinates":[-54.6517093,-26.410991]}},{"type":"Feature","properties":{"nome":"Iberia","osm_id":7459440919,"osm_tipo":"node","tipo_lugar":"neighbourhood"},"geometry":{"type":"Point","coordinates":[-54.6491324,-26.4110373]}},{"type":"Feature","properties":{"nome":"6 de Noviembre","osm_id":7463178991,"osm_tipo":"node","tipo_lugar":"neighbourhood"},"geometry":{"type":"Point","coordinates":[-54.6376276,-26.4057111]}},{"type":"Feature","properties":{"nome":"Sarmiento","osm_id":7470297644,"osm_tipo":"node","tipo_lugar":"neighbourhood"},"geometry":{"type":"Point","coordinates":[-54.6326311,-26.4190116]}},{"type":"Feature","properties":{"nome":"Riedl","osm_id":7470353563,"osm_tipo":"node","tipo_lugar":"neighbourhood"},"geometry":{"type":"Point","coordinates":[-54.6278071,-26.4095801]}},{"type":"Feature","properties":{"nome":"Natch","osm_id":7470381493,"osm_tipo":"node","tipo_lugar":"neighbourhood"},"geometry":{"type":"Point","coordinates":[-54.6288761,-26.3987493]}},{"type":"Feature","properties":{"nome":"Santo Domingo","osm_id":7470497378,"osm_tipo":"node","tipo_lugar":"neighbourhood"},"geometry":{"type":"Point","coordinates":[-54.6258328,-26.4152132]}},{"type":"Feature","properties":{"nome":"Caffetti","osm_id":7470588891,"osm_tipo":"node","tipo_lugar":"neighbourhood"},"geometry":{"type":"Point","coordinates":[-54.6211012,-26.4076872]}},{"type":"Feature","properties":{"nome":"Scholler","osm_id":7470603480,"osm_tipo":"node","tipo_lugar":"neighbourhood"},"geometry":{"type":"Point","coordinates":[-54.6156123,-26.3967809]}},{"type":"Feature","properties":{"nome":"Jardín","osm_id":7470631129,"osm_tipo":"node","tipo_lugar":"neighbourhood"},"geometry":{"type":"Point","coordinates":[-54.6155153,-26.4029896]}},{"type":"Feature","properties":{"nome":"Eldorado I","osm_id":7470712560,"osm_tipo":"node","tipo_lugar":"neighbourhood"},"geometry":{"type":"Point","coordinates":[-54.6093025,-26.4135436]}},{"type":"Feature","properties":{"nome":"Las Rosas","osm_id":7470937302,"osm_tipo":"node","tipo_lugar":"neighbourhood"},"geometry":{"type":"Point","coordinates":[-54.5999002,-26.4067272]}},{"type":"Feature","properties":{"nome":"San Ignacio","osm_id":7472295171,"osm_tipo":"node","tipo_lugar":"neighbourhood"},"geometry":{"type":"Point","coordinates":[-54.5934225,-26.4057999]}},{"type":"Feature","properties":{"nome":"Durian","osm_id":7479903648,"osm_tipo":"node","tipo_lugar":"neighbourhood"},"geometry":{"type":"Point","coordinates":[-54.6445743,-26.4109641]}},{"type":"Feature","properties":{"nome":"Autódromo","osm_id":7480330736,"osm_tipo":"node","tipo_lugar":"neighbourhood"},"geometry":{"type":"Point","coordinates":[-54.649494,-26.4034196]}},{"type":"Feature","properties":{"nome":"Sarquis","osm_id":7480397057,"osm_tipo":"node","tipo_lugar":"neighbourhood"},"geometry":{"type":"Point","coordinates":[-54.5876355,-26.4113383]}},{"type":"Feature","properties":{"nome":"San Juan","osm_id":7480413232,"osm_tipo":"node","tipo_lugar":"neighbourhood"},"geometry":{"type":"Point","coordinates":[-54.595585,-26.4197335]}},{"type":"Feature","properties":{"nome":"Andres Guacurari","osm_id":7480459717,"osm_tipo":"node","tipo_lugar":"neighbourhood"},"geometry":{"type":"Point","coordinates":[-54.6106473,-26.4131957]}},{"type":"Feature","properties":{"nome":"La Amistad","osm_id":7480533642,"osm_tipo":"node","tipo_lugar":"neighbourhood"},"geometry":{"type":"Point","coordinates":[-54.6466366,-26.4114623]}},{"type":"Feature","properties":{"nome":"8 de Diciembre","osm_id":7480651924,"osm_tipo":"node","tipo_lugar":"neighbourhood"},"geometry":{"type":"Point","coordinates":[-54.6248022,-26.419764]}},{"type":"Feature","properties":{"nome":"Vírgen del Rosario","osm_id":7480825132,"osm_tipo":"node","tipo_lugar":"neighbourhood"},"geometry":{"type":"Point","coordinates":[-54.6187756,-26.4083394]}},{"type":"Feature","properties":{"nome":"25 de Mayo","osm_id":7482887025,"osm_tipo":"node","tipo_lugar":"neighbourhood"},"geometry":{"type":"Point","coordinates":[-54.6406704,-26.4100649]}},{"type":"Feature","properties":{"nome":"Las Araucarias","osm_id":7482977933,"osm_tipo":"node","tipo_lugar":"neighbourhood"},"geometry":{"type":"Point","coordinates":[-54.6398689,-26.4025655]}},{"type":"Feature","properties":{"nome":"Santa Rosa","osm_id":7483003147,"osm_tipo":"node","tipo_lugar":"neighbourhood"},"geometry":{"type":"Point","coordinates":[-54.6475004,-26.4038377]}},{"type":"Feature","properties":{"nome":"Pasos del Salto","osm_id":7483010889,"osm_tipo":"node","tipo_lugar":"neighbourhood"},"geometry":{"type":"Point","coordinates":[-54.6127808,-26.3971712]}},{"type":"Feature","properties":{"nome":"Eliseo Ingustinus Christiansen","osm_id":7483023378,"osm_tipo":"node","tipo_lugar":"neighbourhood"},"geometry":{"type":"Point","coordinates":[-54.6639113,-26.4101432]}},{"type":"Feature","properties":{"nome":"Nuestra Señora de Fátima","osm_id":7483180384,"osm_tipo":"node","tipo_lugar":"neighbourhood"},"geometry":{"type":"Point","coordinates":[-54.6343448,-26.3975745]}},{"type":"Feature","properties":{"nome":"Pablo Johansen","osm_id":7483197863,"osm_tipo":"node","tipo_lugar":"neighbourhood"},"geometry":{"type":"Point","coordinates":[-54.6380678,-26.4193225]}},{"type":"Feature","properties":{"nome":"Itatí","osm_id":7483199040,"osm_tipo":"node","tipo_lugar":"neighbourhood"},"geometry":{"type":"Point","coordinates":[-54.6631949,-26.4231188]}},{"type":"Feature","properties":{"nome":"El Paraíso","osm_id":7483216683,"osm_tipo":"node","tipo_lugar":"neighbourhood"},"geometry":{"type":"Point","coordinates":[-54.6087536,-26.3975512]}},{"type":"Feature","properties":{"nome":"Gruber","osm_id":7483253363,"osm_tipo":"node","tipo_lugar":"neighbourhood"},"geometry":{"type":"Point","coordinates":[-54.6574193,-26.4160914]}},{"type":"Feature","properties":{"nome":"Nuestra Señora de Belén","osm_id":7483419684,"osm_tipo":"node","tipo_lugar":"neighbourhood"},"geometry":{"type":"Point","coordinates":[-54.5910259,-26.3904901]}},{"type":"Feature","properties":{"nome":"Las Orquídeas","osm_id":7483433203,"osm_tipo":"node","tipo_lugar":"neighbourhood"},"geometry":{"type":"Point","coordinates":[-54.5970425,-26.4126764]}},{"type":"Feature","properties":{"nome":"San Onofre","osm_id":7483434226,"osm_tipo":"node","tipo_lugar":"neighbourhood"},"geometry":{"type":"Point","coordinates":[-54.5851003,-26.3962596]}},{"type":"Feature","properties":{"nome":"Autódromo","osm_id":8568450579,"osm_tipo":"node","tipo_lugar":"neighbourhood"},"geometry":{"type":"Point","coordinates":[-54.6497235,-26.4050957]}},{"type":"Feature","properties":{"nome":"Barra do Batatal","osm_id":10814462516,"osm_tipo":"node","tipo_lugar":"suburb"},"geometry":{"type":"Point","coordinates":[-48.2705355,-24.5858416]}},{"type":"Feature","properties":{"nome":"Los Pinos","osm_id":13808379819,"osm_tipo":"node","tipo_lugar":"neighbourhood"},"geometry":{"type":"Point","coordinates":[-54.649261,-26.3979564]}},{"type":"Feature","properties":{"nome":"Vila Jaguari","osm_id":15727111,"osm_tipo":"relation","tipo_lugar":"neighbourhood"},"geometry":{"type":"Polygon","coordinates":[[[-48.215103,-24.5956782],[-48.2158949,-24.5955536],[-48.2160076,-24.5934635],[-48.215103,-24.5956782]]]}}]}