{"type":"FeatureCollection","features":[{"type":"Feature","properties":{"nome":"Chácaras de Recreio Bela Vista","osm_id":5300223323,"osm_tipo":"node","tipo_lugar":"suburb"},"geometry":{"type":"Point","coordinates":[-47.3770939,-23.0260508]}},{"type":"Feature","properties":{"nome":"Centro","osm_id":5300236721,"osm_tipo":"node","tipo_lugar":"suburb"},"geometry":{"type":"Point","coordinates":[-47.3794675,-23.0458556]}},{"type":"Feature","properties":{"nome":"Vila Camatari","osm_id":5300735905,"osm_tipo":"node","tipo_lugar":"suburb"},"geometry":{"type":"Point","coordinates":[-47.3703249,-23.0275759]}},{"type":"Feature","properties":{"nome":"Vila Anchieta","osm_id":5300755042,"osm_tipo":"node","tipo_lugar":"suburb"},"geometry":{"type":"Point","coordinates":[-47.3692362,-23.0460479]}},{"type":"Feature","properties":{"nome":"Jardim Tornatore","osm_id":5300768514,"osm_tipo":"node","tipo_lugar":"suburb"},"geometry":{"type":"Point","coordinates":[-47.3673226,-23.0355986]}},{"type":"Feature","properties":{"nome":"Vila Alvorada","osm_id":5554877218,"osm_tipo":"node","tipo_lugar":"suburb"},"geometry":{"type":"Point","coordinates":[-47.3705039,-23.0478477]}},{"type":"Feature","properties":{"nome":"Jardim Belvedere","osm_id":13732681452,"osm_tipo":"node","tipo_lugar":"neighbourhood"},"geometry":{"type":"Point","coordinates":[-47.3106249,-23.0627745]}},{"type":"Feature","properties":{"nome":"Jardim América","osm_id":13796260026,"osm_tipo":"node","tipo_lugar":"neighbourhood"},"geometry":{"type":"Point","coordinates":[-47.3002401,-23.0659406]}}]}