{"type":"FeatureCollection","features":[{"type":"Feature","properties":{"nome":"Parque Pirajussara","osm_id":4199080896,"osm_tipo":"node","tipo_lugar":"suburb"},"geometry":{"type":"Point","coordinates":[-46.8187528,-23.648979]}},{"type":"Feature","properties":{"nome":"Jardim Taima","osm_id":4199278489,"osm_tipo":"node","tipo_lugar":"suburb"},"geometry":{"type":"Point","coordinates":[-46.8045961,-23.6657739]}},{"type":"Feature","properties":{"nome":"Centro Histórico","osm_id":4320484907,"osm_tipo":"node","tipo_lugar":"suburb"},"geometry":{"type":"Point","coordinates":[-46.8513567,-23.648982]}},{"type":"Feature","properties":{"nome":"Jardim Tomé","osm_id":4325997031,"osm_tipo":"node","tipo_lugar":"suburb"},"geometry":{"type":"Point","coordinates":[-46.851166,-23.6235067]}},{"type":"Feature","properties":{"nome":"Itatuba","osm_id":4343360182,"osm_tipo":"node","tipo_lugar":"suburb"},"geometry":{"type":"Point","coordinates":[-46.8955012,-23.6436337]}},{"type":"Feature","properties":{"nome":"Jardim Olimpia","osm_id":4343360184,"osm_tipo":"node","tipo_lugar":"suburb"},"geometry":{"type":"Point","coordinates":[-46.9056722,-23.6419826]}},{"type":"Feature","properties":{"nome":"Jardim dos Morais","osm_id":4375012618,"osm_tipo":"node","tipo_lugar":"suburb"},"geometry":{"type":"Point","coordinates":[-46.8188442,-23.6613909]}},{"type":"Feature","properties":{"nome":"Jardim Santa Barbara","osm_id":5104259074,"osm_tipo":"node","tipo_lugar":"suburb"},"geometry":{"type":"Point","coordinates":[-46.8239066,-23.6348541]}},{"type":"Feature","properties":{"nome":"Jardim São Marcos","osm_id":5766125776,"osm_tipo":"node","tipo_lugar":"suburb"},"geometry":{"type":"Point","coordinates":[-46.8135317,-23.660262]}},{"type":"Feature","properties":{"nome":"Jardim São Vicente","osm_id":5847682689,"osm_tipo":"node","tipo_lugar":"suburb"},"geometry":{"type":"Point","coordinates":[-46.8050105,-23.6591985]}},{"type":"Feature","properties":{"nome":"Jardim Vazame","osm_id":5847682723,"osm_tipo":"node","tipo_lugar":"suburb"},"geometry":{"type":"Point","coordinates":[-46.8038391,-23.6571934]}},{"type":"Feature","properties":{"nome":"Parque Industrial Ramos de Freitas","osm_id":5869827565,"osm_tipo":"node","tipo_lugar":"suburb"},"geometry":{"type":"Point","coordinates":[-46.8350743,-23.6426468]}},{"type":"Feature","properties":{"nome":"Tingidor","osm_id":6153507808,"osm_tipo":"node","tipo_lugar":"suburb"},"geometry":{"type":"Point","coordinates":[-46.8518055,-23.6578494]}},{"type":"Feature","properties":{"nome":"Vila Regina","osm_id":6367635287,"osm_tipo":"node","tipo_lugar":"suburb"},"geometry":{"type":"Point","coordinates":[-46.7999499,-23.6502907]}},{"type":"Feature","properties":{"nome":"Chácaras Embu Colonial","osm_id":7644755940,"osm_tipo":"node","tipo_lugar":"suburb"},"geometry":{"type":"Point","coordinates":[-46.8761735,-23.6658096]}},{"type":"Feature","properties":{"nome":"Jardim Itatiaia","osm_id":8873680097,"osm_tipo":"node","tipo_lugar":"suburb"},"geometry":{"type":"Point","coordinates":[-46.8948212,-23.6641111]}},{"type":"Feature","properties":{"nome":"Jardim Pinheirinho","osm_id":8923981812,"osm_tipo":"node","tipo_lugar":"suburb"},"geometry":{"type":"Point","coordinates":[-46.855378,-23.6804387]}},{"type":"Feature","properties":{"nome":"Jardim Dom José","osm_id":8925137945,"osm_tipo":"node","tipo_lugar":"suburb"},"geometry":{"type":"Point","coordinates":[-46.8021084,-23.6766354]}},{"type":"Feature","properties":{"nome":"Vila Casa Branca","osm_id":253716740,"osm_tipo":"way","tipo_lugar":"neighbourhood"},"geometry":{"type":"Polygon","coordinates":[[[-46.7979823,-23.6475778],[-46.7969714,-23.6454146],[-46.7976983,-23.6451311],[-46.7979823,-23.6475778]]]}},{"type":"Feature","properties":{"nome":"Vila Guaiçara","osm_id":253717153,"osm_tipo":"way","tipo_lugar":"neighbourhood"},"geometry":{"type":"Polygon","coordinates":[[[-46.7989255,-23.6469682],[-46.798889,-23.6456321],[-46.7997523,-23.645456],[-46.7989255,-23.6469682]]]}},{"type":"Feature","properties":{"nome":"Vila Jardim Santa Cruz","osm_id":253717855,"osm_tipo":"way","tipo_lugar":"neighbourhood"},"geometry":{"type":"Polygon","coordinates":[[[-46.8033347,-23.6430342],[-46.8041328,-23.6421227],[-46.8045585,-23.6426147],[-46.8033347,-23.6430342]]]}}]}