{"type":"FeatureCollection","features":[{"type":"Feature","properties":{"nome":"Parque Residencial Groot","osm_id":10569074713,"osm_tipo":"node","tipo_lugar":"neighbourhood"},"geometry":{"type":"Point","coordinates":[-47.0538587,-22.644143]}},{"type":"Feature","properties":{"nome":"Jardim das Tulipas","osm_id":10569074714,"osm_tipo":"node","tipo_lugar":"neighbourhood"},"geometry":{"type":"Point","coordinates":[-47.0499319,-22.6441727]}},{"type":"Feature","properties":{"nome":"Jardim Holanda","osm_id":10569074715,"osm_tipo":"node","tipo_lugar":"neighbourhood"},"geometry":{"type":"Point","coordinates":[-47.0473516,-22.6408308]}},{"type":"Feature","properties":{"nome":"Morada das Flores","osm_id":10569074716,"osm_tipo":"node","tipo_lugar":"neighbourhood"},"geometry":{"type":"Point","coordinates":[-47.0512623,-22.6402367]}},{"type":"Feature","properties":{"nome":"Jardim Flamboyant","osm_id":10569074717,"osm_tipo":"node","tipo_lugar":"neighbourhood"},"geometry":{"type":"Point","coordinates":[-47.0547706,-22.6398505]}},{"type":"Feature","properties":{"nome":"Parque Ipês","osm_id":10569074718,"osm_tipo":"node","tipo_lugar":"neighbourhood"},"geometry":{"type":"Point","coordinates":[-47.0570237,-22.6408259]}},{"type":"Feature","properties":{"nome":"Centro","osm_id":10569074719,"osm_tipo":"node","tipo_lugar":"suburb"},"geometry":{"type":"Point","coordinates":[-47.056219,-22.633518]}}]}