{"type":"FeatureCollection","features":[{"type":"Feature","properties":{"nome":"Bairro dos Abreus","osm_id":4422114862,"osm_tipo":"node","tipo_lugar":"suburb"},"geometry":{"type":"Point","coordinates":[-46.9261173,-23.5419736]}},{"type":"Feature","properties":{"nome":"Parque Suburbano","osm_id":4422220110,"osm_tipo":"node","tipo_lugar":"suburb"},"geometry":{"type":"Point","coordinates":[-46.937675,-23.5631252]}},{"type":"Feature","properties":{"nome":"Jardim Julieta","osm_id":4502621094,"osm_tipo":"node","tipo_lugar":"suburb"},"geometry":{"type":"Point","coordinates":[-46.9244594,-23.5490196]}},{"type":"Feature","properties":{"nome":"Jardim Bela Vista","osm_id":4797024754,"osm_tipo":"node","tipo_lugar":"suburb"},"geometry":{"type":"Point","coordinates":[-46.9220328,-23.5565644]}},{"type":"Feature","properties":{"nome":"Vila Doutor Cardoso","osm_id":5195202359,"osm_tipo":"node","tipo_lugar":"suburb"},"geometry":{"type":"Point","coordinates":[-46.9204649,-23.5347458]}},{"type":"Feature","properties":{"nome":"Jardim Nova Itapevi","osm_id":5195230283,"osm_tipo":"node","tipo_lugar":"suburb"},"geometry":{"type":"Point","coordinates":[-46.9436553,-23.5377321]}},{"type":"Feature","properties":{"nome":"Jardim Sorocabana","osm_id":5773911374,"osm_tipo":"node","tipo_lugar":"suburb"},"geometry":{"type":"Point","coordinates":[-46.9539838,-23.5407552]}},{"type":"Feature","properties":{"nome":"Estância São Francisco","osm_id":6532607502,"osm_tipo":"node","tipo_lugar":"suburb"},"geometry":{"type":"Point","coordinates":[-46.9642022,-23.5269835]}},{"type":"Feature","properties":{"nome":"Jardim Rosemary","osm_id":6534381769,"osm_tipo":"node","tipo_lugar":"suburb"},"geometry":{"type":"Point","coordinates":[-46.9302689,-23.5566246]}},{"type":"Feature","properties":{"nome":"Jardim Maristela","osm_id":6535783885,"osm_tipo":"node","tipo_lugar":"suburb"},"geometry":{"type":"Point","coordinates":[-46.943323,-23.5555024]}},{"type":"Feature","properties":{"nome":"Vitápolis","osm_id":6535898472,"osm_tipo":"node","tipo_lugar":"suburb"},"geometry":{"type":"Point","coordinates":[-46.9274315,-23.5344248]}},{"type":"Feature","properties":{"nome":"Jardim Marina","osm_id":6535926490,"osm_tipo":"node","tipo_lugar":"suburb"},"geometry":{"type":"Point","coordinates":[-46.9553192,-23.5450301]}},{"type":"Feature","properties":{"nome":"Parque Miraflores","osm_id":6535979163,"osm_tipo":"node","tipo_lugar":"suburb"},"geometry":{"type":"Point","coordinates":[-46.9813566,-23.5377487]}},{"type":"Feature","properties":{"nome":"Parque Suburbano","osm_id":6538448560,"osm_tipo":"node","tipo_lugar":"suburb"},"geometry":{"type":"Point","coordinates":[-46.9367869,-23.5556967]}},{"type":"Feature","properties":{"nome":"Residencial das Flores","osm_id":6543131420,"osm_tipo":"node","tipo_lugar":"suburb"},"geometry":{"type":"Point","coordinates":[-46.9721903,-23.5490591]}},{"type":"Feature","properties":{"nome":"Recanto Paulistano","osm_id":6545682040,"osm_tipo":"node","tipo_lugar":"suburb"},"geometry":{"type":"Point","coordinates":[-46.9535973,-23.5588165]}},{"type":"Feature","properties":{"nome":"Jardim Briquet","osm_id":6548470655,"osm_tipo":"node","tipo_lugar":"suburb"},"geometry":{"type":"Point","coordinates":[-46.909479,-23.5544187]}},{"type":"Feature","properties":{"nome":"Vale do Sol","osm_id":6793816426,"osm_tipo":"node","tipo_lugar":"suburb"},"geometry":{"type":"Point","coordinates":[-46.92582,-23.5540571]}},{"type":"Feature","properties":{"nome":"Jardim Rainha","osm_id":6793816428,"osm_tipo":"node","tipo_lugar":"suburb"},"geometry":{"type":"Point","coordinates":[-46.9308685,-23.5513205]}},{"type":"Feature","properties":{"nome":"Parque Wey","osm_id":6793816429,"osm_tipo":"node","tipo_lugar":"suburb"},"geometry":{"type":"Point","coordinates":[-46.9245873,-23.5561012]}},{"type":"Feature","properties":{"nome":"Conjunto Habitacional - Setor B","osm_id":6793816430,"osm_tipo":"node","tipo_lugar":"suburb"},"geometry":{"type":"Point","coordinates":[-46.9544215,-23.5694125]}},{"type":"Feature","properties":{"nome":"Conjunto Habitacional - Setor A","osm_id":6793816431,"osm_tipo":"node","tipo_lugar":"suburb"},"geometry":{"type":"Point","coordinates":[-46.9483652,-23.5605572]}},{"type":"Feature","properties":{"nome":"Centro","osm_id":6904403516,"osm_tipo":"node","tipo_lugar":"suburb"},"geometry":{"type":"Point","coordinates":[-46.9328152,-23.545789]}},{"type":"Feature","properties":{"nome":"Vila Belmira","osm_id":8082797870,"osm_tipo":"node","tipo_lugar":"suburb"},"geometry":{"type":"Point","coordinates":[-46.9727286,-23.5679012]}},{"type":"Feature","properties":{"nome":"Parque Boa Esperança","osm_id":8805523397,"osm_tipo":"node","tipo_lugar":"suburb"},"geometry":{"type":"Point","coordinates":[-46.9226473,-23.5436779]}},{"type":"Feature","properties":{"nome":"Vila Santa Rita","osm_id":8822807288,"osm_tipo":"node","tipo_lugar":"suburb"},"geometry":{"type":"Point","coordinates":[-46.961109,-23.5454968]}},{"type":"Feature","properties":{"nome":"Chácaras Monte Serrat","osm_id":9120793894,"osm_tipo":"node","tipo_lugar":"suburb"},"geometry":{"type":"Point","coordinates":[-47.0084737,-23.5401386]}},{"type":"Feature","properties":{"nome":"Chácaras Mont Serrat","osm_id":9334473460,"osm_tipo":"node","tipo_lugar":"neighbourhood"},"geometry":{"type":"Point","coordinates":[-47.0027967,-23.5358964]}},{"type":"Feature","properties":{"nome":"Vila Gióia","osm_id":10778890986,"osm_tipo":"node","tipo_lugar":"suburb"},"geometry":{"type":"Point","coordinates":[-46.9691079,-23.539172]}},{"type":"Feature","properties":{"nome":"Vila Nova Itapevi","osm_id":12883687420,"osm_tipo":"node","tipo_lugar":"suburb"},"geometry":{"type":"Point","coordinates":[-46.9402642,-23.5402303]}},{"type":"Feature","properties":{"nome":"Conjunto Habitacional - Setor D","osm_id":12884005347,"osm_tipo":"node","tipo_lugar":"suburb"},"geometry":{"type":"Point","coordinates":[-46.9421734,-23.5576754]}},{"type":"Feature","properties":{"nome":"Parque Mira Flores","osm_id":12884411892,"osm_tipo":"node","tipo_lugar":"suburb"},"geometry":{"type":"Point","coordinates":[-46.979909,-23.5418494]}}]}