{"type":"FeatureCollection","features":[{"type":"Feature","properties":{"nome":"Barão Ataliba Nogueira","osm_id":368179836,"osm_tipo":"node","tipo_lugar":"suburb"},"geometry":{"type":"Point","coordinates":[-46.7462855,-22.3907348]}},{"type":"Feature","properties":{"nome":"Centro","osm_id":5807782162,"osm_tipo":"node","tipo_lugar":"suburb"},"geometry":{"type":"Point","coordinates":[-46.8233123,-22.4358803]}},{"type":"Feature","properties":{"nome":"Santa Cruz","osm_id":5808101219,"osm_tipo":"node","tipo_lugar":"suburb"},"geometry":{"type":"Point","coordinates":[-46.8289464,-22.4358404]}},{"type":"Feature","properties":{"nome":"São Vicente","osm_id":5808279568,"osm_tipo":"node","tipo_lugar":"suburb"},"geometry":{"type":"Point","coordinates":[-46.8262292,-22.4455829]}},{"type":"Feature","properties":{"nome":"Jardim Rachel","osm_id":5808281948,"osm_tipo":"node","tipo_lugar":"suburb"},"geometry":{"type":"Point","coordinates":[-46.809002,-22.4321955]}},{"type":"Feature","properties":{"nome":"Prados","osm_id":5808315392,"osm_tipo":"node","tipo_lugar":"suburb"},"geometry":{"type":"Point","coordinates":[-46.8087756,-22.4480555]}},{"type":"Feature","properties":{"nome":"Vila Ilze","osm_id":5808332033,"osm_tipo":"node","tipo_lugar":"suburb"},"geometry":{"type":"Point","coordinates":[-46.8118237,-22.4263196]}},{"type":"Feature","properties":{"nome":"Jardim Ivete","osm_id":5809709441,"osm_tipo":"node","tipo_lugar":"suburb"},"geometry":{"type":"Point","coordinates":[-46.8178634,-22.4325798]}},{"type":"Feature","properties":{"nome":"São Benedito","osm_id":5809710582,"osm_tipo":"node","tipo_lugar":"suburb"},"geometry":{"type":"Point","coordinates":[-46.8260878,-22.4333465]}},{"type":"Feature","properties":{"nome":"Jardim Soares","osm_id":5809716192,"osm_tipo":"node","tipo_lugar":"suburb"},"geometry":{"type":"Point","coordinates":[-46.8246697,-22.4303989]}},{"type":"Feature","properties":{"nome":"Conjunto Habitacional General Euclides Figueiredo","osm_id":5813810397,"osm_tipo":"node","tipo_lugar":"suburb"},"geometry":{"type":"Point","coordinates":[-46.8209507,-22.417728]}},{"type":"Feature","properties":{"nome":"Vila Bazani","osm_id":5821814805,"osm_tipo":"node","tipo_lugar":"suburb"},"geometry":{"type":"Point","coordinates":[-46.8244273,-22.4483811]}},{"type":"Feature","properties":{"nome":"Istor Luppi","osm_id":5821849238,"osm_tipo":"node","tipo_lugar":"suburb"},"geometry":{"type":"Point","coordinates":[-46.7898115,-22.4571292]}},{"type":"Feature","properties":{"nome":"Parque São Lucas","osm_id":5833811924,"osm_tipo":"node","tipo_lugar":"suburb"},"geometry":{"type":"Point","coordinates":[-46.8300939,-22.4265344]}},{"type":"Feature","properties":{"nome":"Assad Alcici","osm_id":5835604685,"osm_tipo":"node","tipo_lugar":"suburb"},"geometry":{"type":"Point","coordinates":[-46.8321058,-22.4211281]}},{"type":"Feature","properties":{"nome":"Cubatão","osm_id":5835609267,"osm_tipo":"node","tipo_lugar":"suburb"},"geometry":{"type":"Point","coordinates":[-46.818103,-22.4421179]}},{"type":"Feature","properties":{"nome":"Jardim Tropical","osm_id":5835611169,"osm_tipo":"node","tipo_lugar":"suburb"},"geometry":{"type":"Point","coordinates":[-46.8106492,-22.4309683]}},{"type":"Feature","properties":{"nome":"Vila Doutor José Secchi","osm_id":5846486831,"osm_tipo":"node","tipo_lugar":"suburb"},"geometry":{"type":"Point","coordinates":[-46.7996588,-22.4465]}},{"type":"Feature","properties":{"nome":"Jardim Camboriú","osm_id":5846494900,"osm_tipo":"node","tipo_lugar":"suburb"},"geometry":{"type":"Point","coordinates":[-46.810754,-22.4553238]}},{"type":"Feature","properties":{"nome":"Morada do Sol","osm_id":8014531228,"osm_tipo":"node","tipo_lugar":"suburb"},"geometry":{"type":"Point","coordinates":[-46.8436662,-22.409685]}},{"type":"Feature","properties":{"nome":"Braz Cavenaghi","osm_id":8014531229,"osm_tipo":"node","tipo_lugar":"suburb"},"geometry":{"type":"Point","coordinates":[-46.8393425,-22.4122143]}},{"type":"Feature","properties":{"nome":"Hélio Nicolai","osm_id":8014531230,"osm_tipo":"node","tipo_lugar":"suburb"},"geometry":{"type":"Point","coordinates":[-46.8408124,-22.4088618]}},{"type":"Feature","properties":{"nome":"Mário Cêga","osm_id":8014531231,"osm_tipo":"node","tipo_lugar":"suburb"},"geometry":{"type":"Point","coordinates":[-46.8414239,-22.4174709]}},{"type":"Feature","properties":{"nome":"Santa Marta","osm_id":8014531232,"osm_tipo":"node","tipo_lugar":"suburb"},"geometry":{"type":"Point","coordinates":[-46.8386451,-22.4268729]}},{"type":"Feature","properties":{"nome":"Chácara Santa Fé","osm_id":8014531233,"osm_tipo":"node","tipo_lugar":"suburb"},"geometry":{"type":"Point","coordinates":[-46.8413488,-22.4296299]}},{"type":"Feature","properties":{"nome":"Salgados","osm_id":8041118745,"osm_tipo":"node","tipo_lugar":"suburb"},"geometry":{"type":"Point","coordinates":[-46.8367927,-22.43939]}},{"type":"Feature","properties":{"nome":"Nova Itapira","osm_id":8041118746,"osm_tipo":"node","tipo_lugar":"suburb"},"geometry":{"type":"Point","coordinates":[-46.8356984,-22.4336383]}},{"type":"Feature","properties":{"nome":"Jardim Esmeralda","osm_id":8041118747,"osm_tipo":"node","tipo_lugar":"suburb"},"geometry":{"type":"Point","coordinates":[-46.8352478,-22.4144379]}},{"type":"Feature","properties":{"nome":"Della Rocha","osm_id":8041118748,"osm_tipo":"node","tipo_lugar":"suburb"},"geometry":{"type":"Point","coordinates":[-46.8292182,-22.4143585]}},{"type":"Feature","properties":{"nome":"Parque Santa Bárbara","osm_id":8048813437,"osm_tipo":"node","tipo_lugar":"suburb"},"geometry":{"type":"Point","coordinates":[-46.8362907,-22.4454992]}},{"type":"Feature","properties":{"nome":"Distrito Industrial Juvenal Leite","osm_id":8048813438,"osm_tipo":"node","tipo_lugar":"suburb"},"geometry":{"type":"Point","coordinates":[-46.843985,-22.4523968]}},{"type":"Feature","properties":{"nome":"Loteamento Residencial Campo Belo","osm_id":8048813439,"osm_tipo":"node","tipo_lugar":"suburb"},"geometry":{"type":"Point","coordinates":[-46.8435932,-22.4409458]}},{"type":"Feature","properties":{"nome":"Vila Penha do Rio do Peixe","osm_id":8048813448,"osm_tipo":"node","tipo_lugar":"suburb"},"geometry":{"type":"Point","coordinates":[-46.8213115,-22.4210887]}},{"type":"Feature","properties":{"nome":"Loteamento José Casimiro Rodrigues","osm_id":8064049496,"osm_tipo":"node","tipo_lugar":"suburb"},"geometry":{"type":"Point","coordinates":[-46.8514511,-22.4211747]}},{"type":"Feature","properties":{"nome":"Residencial Villaggio di Verona","osm_id":8064049497,"osm_tipo":"node","tipo_lugar":"suburb"},"geometry":{"type":"Point","coordinates":[-46.8496916,-22.4199647]}},{"type":"Feature","properties":{"nome":"Residencial Antônio Tellini","osm_id":8064049509,"osm_tipo":"node","tipo_lugar":"suburb"},"geometry":{"type":"Point","coordinates":[-46.8468596,-22.4178424]}},{"type":"Feature","properties":{"nome":"Loteamento Residencial Rubens Ferian","osm_id":8064049510,"osm_tipo":"node","tipo_lugar":"suburb"},"geometry":{"type":"Point","coordinates":[-46.8437589,-22.4128535]}},{"type":"Feature","properties":{"nome":"Nenê Cêga","osm_id":8066981633,"osm_tipo":"node","tipo_lugar":"suburb"},"geometry":{"type":"Point","coordinates":[-46.8397584,-22.419191]}},{"type":"Feature","properties":{"nome":"Jardim Levatti","osm_id":8066981634,"osm_tipo":"node","tipo_lugar":"suburb"},"geometry":{"type":"Point","coordinates":[-46.8442431,-22.4074675]}},{"type":"Feature","properties":{"nome":"Jardim Galego","osm_id":8066981635,"osm_tipo":"node","tipo_lugar":"suburb"},"geometry":{"type":"Point","coordinates":[-46.8192663,-22.4158188]}},{"type":"Feature","properties":{"nome":"Conjunto Habitacional Humberto Carlos Passarela","osm_id":8066981636,"osm_tipo":"node","tipo_lugar":"suburb"},"geometry":{"type":"Point","coordinates":[-46.8246522,-22.4148865]}},{"type":"Feature","properties":{"nome":"Vila Izaura","osm_id":8066981637,"osm_tipo":"node","tipo_lugar":"suburb"},"geometry":{"type":"Point","coordinates":[-46.8131294,-22.4351183]}},{"type":"Feature","properties":{"nome":"Parque Felicidade","osm_id":8066981638,"osm_tipo":"node","tipo_lugar":"suburb"},"geometry":{"type":"Point","coordinates":[-46.8052974,-22.443111]}},{"type":"Feature","properties":{"nome":"Loteamento Residencial Alonso Carmona","osm_id":8072664868,"osm_tipo":"node","tipo_lugar":"suburb"},"geometry":{"type":"Point","coordinates":[-46.8351794,-22.4182867]}},{"type":"Feature","properties":{"nome":"Recanto da Mata","osm_id":8072664869,"osm_tipo":"node","tipo_lugar":"suburb"},"geometry":{"type":"Point","coordinates":[-46.8466914,-22.4382998]}},{"type":"Feature","properties":{"nome":"Jardim das Araucárias","osm_id":8072664870,"osm_tipo":"node","tipo_lugar":"suburb"},"geometry":{"type":"Point","coordinates":[-46.7875111,-22.4554643]}},{"type":"Feature","properties":{"nome":"Recanto do Gravi","osm_id":8335566246,"osm_tipo":"node","tipo_lugar":"suburb"},"geometry":{"type":"Point","coordinates":[-46.8632334,-22.4243978]}},{"type":"Feature","properties":{"nome":"Recreio Santa Fé","osm_id":8345213141,"osm_tipo":"node","tipo_lugar":"suburb"},"geometry":{"type":"Point","coordinates":[-46.8429506,-22.4381768]}},{"type":"Feature","properties":{"nome":"Jardim Teixeira","osm_id":9191736378,"osm_tipo":"node","tipo_lugar":"suburb"},"geometry":{"type":"Point","coordinates":[-46.8329447,-22.414414]}},{"type":"Feature","properties":{"nome":"Residencial dos Lagos","osm_id":9308801193,"osm_tipo":"node","tipo_lugar":"suburb"},"geometry":{"type":"Point","coordinates":[-46.8163233,-22.415785]}},{"type":"Feature","properties":{"nome":"Centro","osm_id":10134081667,"osm_tipo":"node","tipo_lugar":"suburb"},"geometry":{"type":"Point","coordinates":[-46.8308702,-22.4418263]}}]}