{"type":"FeatureCollection","features":[{"type":"Feature","properties":{"nome":"Parque Meia Lua","osm_id":368179693,"osm_tipo":"node","tipo_lugar":"suburb"},"geometry":{"type":"Point","coordinates":[-45.9648321,-23.2621834]}},{"type":"Feature","properties":{"nome":"Urbanova IV A","osm_id":1514293521,"osm_tipo":"node","tipo_lugar":"suburb"},"geometry":{"type":"Point","coordinates":[-45.9539141,-23.206397]}},{"type":"Feature","properties":{"nome":"Jardim Altos de Santana","osm_id":2832449886,"osm_tipo":"node","tipo_lugar":"neighbourhood"},"geometry":{"type":"Point","coordinates":[-45.9477771,-23.2872131]}},{"type":"Feature","properties":{"nome":"Jardim América","osm_id":6228598448,"osm_tipo":"node","tipo_lugar":"suburb"},"geometry":{"type":"Point","coordinates":[-45.9840069,-23.3164259]}},{"type":"Feature","properties":{"nome":"Parque dos Sinos","osm_id":7184491407,"osm_tipo":"node","tipo_lugar":"suburb"},"geometry":{"type":"Point","coordinates":[-45.9617326,-23.2795324]}},{"type":"Feature","properties":{"nome":"Jardim Santa Maria","osm_id":7184491408,"osm_tipo":"node","tipo_lugar":"suburb"},"geometry":{"type":"Point","coordinates":[-45.9615395,-23.2885991]}},{"type":"Feature","properties":{"nome":"Conjunto São Benedito","osm_id":7184491409,"osm_tipo":"node","tipo_lugar":"suburb"},"geometry":{"type":"Point","coordinates":[-45.942013,-23.2937037]}},{"type":"Feature","properties":{"nome":"Jardim Paraiso","osm_id":7184491410,"osm_tipo":"node","tipo_lugar":"suburb"},"geometry":{"type":"Point","coordinates":[-45.9369373,-23.317473]}},{"type":"Feature","properties":{"nome":"Jardim Yolanda","osm_id":7184491412,"osm_tipo":"node","tipo_lugar":"suburb"},"geometry":{"type":"Point","coordinates":[-45.9427645,-23.3151856]}},{"type":"Feature","properties":{"nome":"Jardim Colônia","osm_id":7184491413,"osm_tipo":"node","tipo_lugar":"suburb"},"geometry":{"type":"Point","coordinates":[-45.9220424,-23.3185044]}},{"type":"Feature","properties":{"nome":"Jardim Novo Amanhecer","osm_id":7184491414,"osm_tipo":"node","tipo_lugar":"suburb"},"geometry":{"type":"Point","coordinates":[-45.9426882,-23.3116318]}},{"type":"Feature","properties":{"nome":"Jardim Liberdade","osm_id":7184491416,"osm_tipo":"node","tipo_lugar":"suburb"},"geometry":{"type":"Point","coordinates":[-45.9708941,-23.3097495]}},{"type":"Feature","properties":{"nome":"Cidade Salvador","osm_id":7184491421,"osm_tipo":"node","tipo_lugar":"suburb"},"geometry":{"type":"Point","coordinates":[-45.9325016,-23.3031003]}},{"type":"Feature","properties":{"nome":"Jardim do Marquês","osm_id":7184491423,"osm_tipo":"node","tipo_lugar":"suburb"},"geometry":{"type":"Point","coordinates":[-45.9431352,-23.3031073]}},{"type":"Feature","properties":{"nome":"Vila Branca","osm_id":7184522669,"osm_tipo":"node","tipo_lugar":"suburb"},"geometry":{"type":"Point","coordinates":[-45.9414623,-23.266816]}},{"type":"Feature","properties":{"nome":"Parque Califôrnia","osm_id":7184522670,"osm_tipo":"node","tipo_lugar":"suburb"},"geometry":{"type":"Point","coordinates":[-45.9407079,-23.2818004]}},{"type":"Feature","properties":{"nome":"Jardim California","osm_id":7184522671,"osm_tipo":"node","tipo_lugar":"suburb"},"geometry":{"type":"Point","coordinates":[-45.9482291,-23.278735]}},{"type":"Feature","properties":{"nome":"Parque Imperial","osm_id":7184522672,"osm_tipo":"node","tipo_lugar":"suburb"},"geometry":{"type":"Point","coordinates":[-46.0170524,-23.3179231]}},{"type":"Feature","properties":{"nome":"Jardim Pedramar","osm_id":7184522673,"osm_tipo":"node","tipo_lugar":"suburb"},"geometry":{"type":"Point","coordinates":[-46.0306692,-23.3208483]}},{"type":"Feature","properties":{"nome":"Veraneio Ijal","osm_id":7184522674,"osm_tipo":"node","tipo_lugar":"suburb"},"geometry":{"type":"Point","coordinates":[-46.0370632,-23.308945]}},{"type":"Feature","properties":{"nome":"Chácaras Reunidas Igarapés","osm_id":7184522675,"osm_tipo":"node","tipo_lugar":"suburb"},"geometry":{"type":"Point","coordinates":[-46.0409953,-23.2979378]}},{"type":"Feature","properties":{"nome":"Portal Alvorada","osm_id":7184522676,"osm_tipo":"node","tipo_lugar":"suburb"},"geometry":{"type":"Point","coordinates":[-46.0313478,-23.2899063]}},{"type":"Feature","properties":{"nome":"Conjunto Primeiro de Maio","osm_id":7184522677,"osm_tipo":"node","tipo_lugar":"suburb"},"geometry":{"type":"Point","coordinates":[-46.0378959,-23.2857748]}},{"type":"Feature","properties":{"nome":"Conjunto 22 de Abril","osm_id":7184522678,"osm_tipo":"node","tipo_lugar":"suburb"},"geometry":{"type":"Point","coordinates":[-46.067164,-23.2657781]}},{"type":"Feature","properties":{"nome":"Recanto dos Pássaros","osm_id":7184522679,"osm_tipo":"node","tipo_lugar":"suburb"},"geometry":{"type":"Point","coordinates":[-46.0715504,-23.2325314]}},{"type":"Feature","properties":{"nome":"Bandeira Branca","osm_id":7184522680,"osm_tipo":"node","tipo_lugar":"suburb"},"geometry":{"type":"Point","coordinates":[-45.9978129,-23.3306001]}},{"type":"Feature","properties":{"nome":"Vila Garcia","osm_id":7184522681,"osm_tipo":"node","tipo_lugar":"suburb"},"geometry":{"type":"Point","coordinates":[-46.0193002,-23.3617668]}},{"type":"Feature","properties":{"nome":"Vila Zezé","osm_id":7187610394,"osm_tipo":"node","tipo_lugar":"suburb"},"geometry":{"type":"Point","coordinates":[-45.9452724,-23.2966948]}},{"type":"Feature","properties":{"nome":"Jardim das Indústrias","osm_id":7187610395,"osm_tipo":"node","tipo_lugar":"suburb"},"geometry":{"type":"Point","coordinates":[-45.9474497,-23.2930902]}},{"type":"Feature","properties":{"nome":"Jardim Real","osm_id":7187610407,"osm_tipo":"node","tipo_lugar":"suburb"},"geometry":{"type":"Point","coordinates":[-45.9285481,-23.3065116]}},{"type":"Feature","properties":{"nome":"Jardim Pitoresco","osm_id":7187610408,"osm_tipo":"node","tipo_lugar":"suburb"},"geometry":{"type":"Point","coordinates":[-45.9383052,-23.3082665]}},{"type":"Feature","properties":{"nome":"Vila São Judas Tadeu","osm_id":7187610452,"osm_tipo":"node","tipo_lugar":"suburb"},"geometry":{"type":"Point","coordinates":[-46.0092917,-23.3073665]}},{"type":"Feature","properties":{"nome":"Jardim do Portal","osm_id":7187610454,"osm_tipo":"node","tipo_lugar":"suburb"},"geometry":{"type":"Point","coordinates":[-46.0043806,-23.309995]}},{"type":"Feature","properties":{"nome":"Jardim Esperança","osm_id":7187610455,"osm_tipo":"node","tipo_lugar":"suburb"},"geometry":{"type":"Point","coordinates":[-45.9999086,-23.3114138]}},{"type":"Feature","properties":{"nome":"Jardim São Luiz","osm_id":7187610456,"osm_tipo":"node","tipo_lugar":"suburb"},"geometry":{"type":"Point","coordinates":[-45.9999086,-23.3138033]}},{"type":"Feature","properties":{"nome":"Santa Cruz dos Lázaros","osm_id":7187610457,"osm_tipo":"node","tipo_lugar":"suburb"},"geometry":{"type":"Point","coordinates":[-45.9937941,-23.3107418]}},{"type":"Feature","properties":{"nome":"Jardim Paulistano","osm_id":7187610458,"osm_tipo":"node","tipo_lugar":"suburb"},"geometry":{"type":"Point","coordinates":[-45.9886879,-23.3095769]}},{"type":"Feature","properties":{"nome":"Jardim Terras de São João","osm_id":7187610459,"osm_tipo":"node","tipo_lugar":"suburb"},"geometry":{"type":"Point","coordinates":[-45.9991606,-23.3157746]}},{"type":"Feature","properties":{"nome":"Jardim Terras de Santa Helena","osm_id":7187610460,"osm_tipo":"node","tipo_lugar":"suburb"},"geometry":{"type":"Point","coordinates":[-45.9957618,-23.3212253]}},{"type":"Feature","properties":{"nome":"Vila Santa Tereza","osm_id":7187610461,"osm_tipo":"node","tipo_lugar":"suburb"},"geometry":{"type":"Point","coordinates":[-45.9900268,-23.3125688]}},{"type":"Feature","properties":{"nome":"Estância Porto Velho","osm_id":7187610462,"osm_tipo":"node","tipo_lugar":"suburb"},"geometry":{"type":"Point","coordinates":[-45.9848826,-23.3253618]}},{"type":"Feature","properties":{"nome":"Jardim São José","osm_id":7187707351,"osm_tipo":"node","tipo_lugar":"suburb"},"geometry":{"type":"Point","coordinates":[-45.974894,-23.2988287]}},{"type":"Feature","properties":{"nome":"Vila Pinheiro","osm_id":7187707352,"osm_tipo":"node","tipo_lugar":"suburb"},"geometry":{"type":"Point","coordinates":[-45.9570796,-23.2932129]}},{"type":"Feature","properties":{"nome":"Parque Itamaraty","osm_id":7187707353,"osm_tipo":"node","tipo_lugar":"suburb"},"geometry":{"type":"Point","coordinates":[-45.9559003,-23.2972932]}},{"type":"Feature","properties":{"nome":"Vila Martinez","osm_id":7187707354,"osm_tipo":"node","tipo_lugar":"suburb"},"geometry":{"type":"Point","coordinates":[-45.9548224,-23.292858]}},{"type":"Feature","properties":{"nome":"Vila Natália","osm_id":7187707355,"osm_tipo":"node","tipo_lugar":"suburb"},"geometry":{"type":"Point","coordinates":[-45.9584982,-23.2948813]}},{"type":"Feature","properties":{"nome":"Jardim Esper","osm_id":7187707356,"osm_tipo":"node","tipo_lugar":"suburb"},"geometry":{"type":"Point","coordinates":[-45.9602678,-23.2959345]}},{"type":"Feature","properties":{"nome":"Vila Aprazível","osm_id":7187707359,"osm_tipo":"node","tipo_lugar":"suburb"},"geometry":{"type":"Point","coordinates":[-45.9572018,-23.3022163]}},{"type":"Feature","properties":{"nome":"Vila Nova Aliança","osm_id":7187707361,"osm_tipo":"node","tipo_lugar":"suburb"},"geometry":{"type":"Point","coordinates":[-45.9534043,-23.3068288]}},{"type":"Feature","properties":{"nome":"Vila Bento Guedes","osm_id":7187707363,"osm_tipo":"node","tipo_lugar":"suburb"},"geometry":{"type":"Point","coordinates":[-45.9537058,-23.3032069]}},{"type":"Feature","properties":{"nome":"Parque dos Príncipes","osm_id":7187707364,"osm_tipo":"node","tipo_lugar":"suburb"},"geometry":{"type":"Point","coordinates":[-45.9427604,-23.2985242]}},{"type":"Feature","properties":{"nome":"São João","osm_id":7187707365,"osm_tipo":"node","tipo_lugar":"suburb"},"geometry":{"type":"Point","coordinates":[-45.9799919,-23.3102152]}},{"type":"Feature","properties":{"nome":"Jardim Didinha","osm_id":7187707366,"osm_tipo":"node","tipo_lugar":"suburb"},"geometry":{"type":"Point","coordinates":[-45.9809989,-23.3144148]}},{"type":"Feature","properties":{"nome":"Jardim Jacinto","osm_id":7187707367,"osm_tipo":"node","tipo_lugar":"suburb"},"geometry":{"type":"Point","coordinates":[-45.9852036,-23.3056835]}},{"type":"Feature","properties":{"nome":"Jardim Marister","osm_id":7187707368,"osm_tipo":"node","tipo_lugar":"suburb"},"geometry":{"type":"Point","coordinates":[-45.9810688,-23.305681]}},{"type":"Feature","properties":{"nome":"Jardim Leonidia","osm_id":7187707370,"osm_tipo":"node","tipo_lugar":"suburb"},"geometry":{"type":"Point","coordinates":[-45.9765909,-23.3065994]}},{"type":"Feature","properties":{"nome":"Jardim Flórida","osm_id":7187707371,"osm_tipo":"node","tipo_lugar":"suburb"},"geometry":{"type":"Point","coordinates":[-45.9822079,-23.2989687]}},{"type":"Feature","properties":{"nome":"Jardim Arice","osm_id":7187707372,"osm_tipo":"node","tipo_lugar":"suburb"},"geometry":{"type":"Point","coordinates":[-45.9834598,-23.2959932]}},{"type":"Feature","properties":{"nome":"Jardim Terras de Conceição","osm_id":7187707375,"osm_tipo":"node","tipo_lugar":"suburb"},"geometry":{"type":"Point","coordinates":[-45.9881708,-23.2918354]}},{"type":"Feature","properties":{"nome":"Jardim Emília","osm_id":7187707376,"osm_tipo":"node","tipo_lugar":"suburb"},"geometry":{"type":"Point","coordinates":[-45.9912754,-23.2943669]}},{"type":"Feature","properties":{"nome":"Bela Vista","osm_id":7187745990,"osm_tipo":"node","tipo_lugar":"suburb"},"geometry":{"type":"Point","coordinates":[-46.0267007,-23.2970182]}},{"type":"Feature","properties":{"nome":"Chacarás Reunidas Bela Vista","osm_id":7187745991,"osm_tipo":"node","tipo_lugar":"suburb"},"geometry":{"type":"Point","coordinates":[-46.0274373,-23.2949976]}},{"type":"Feature","properties":{"nome":"Chacaras Santa Maria","osm_id":7187745992,"osm_tipo":"node","tipo_lugar":"suburb"},"geometry":{"type":"Point","coordinates":[-46.0524055,-23.305051]}},{"type":"Feature","properties":{"nome":"Veraneio Irajá","osm_id":7187745993,"osm_tipo":"node","tipo_lugar":"suburb"},"geometry":{"type":"Point","coordinates":[-46.05391,-23.3092464]}},{"type":"Feature","properties":{"nome":"Residencial Lago Dourado","osm_id":7187745994,"osm_tipo":"node","tipo_lugar":"suburb"},"geometry":{"type":"Point","coordinates":[-46.0527104,-23.3286286]}},{"type":"Feature","properties":{"nome":"Chacaras Reunidas Guararema","osm_id":7187745995,"osm_tipo":"node","tipo_lugar":"suburb"},"geometry":{"type":"Point","coordinates":[-46.0497807,-23.3367021]}},{"type":"Feature","properties":{"nome":"São Sebastião","osm_id":7187745996,"osm_tipo":"node","tipo_lugar":"suburb"},"geometry":{"type":"Point","coordinates":[-46.0253021,-23.3608441]}},{"type":"Feature","properties":{"nome":"Jardim São Gabriel","osm_id":7187745997,"osm_tipo":"node","tipo_lugar":"suburb"},"geometry":{"type":"Point","coordinates":[-46.0266331,-23.3638422]}},{"type":"Feature","properties":{"nome":"Chacara Marília","osm_id":7187745998,"osm_tipo":"node","tipo_lugar":"suburb"},"geometry":{"type":"Point","coordinates":[-46.0263373,-23.3665122]}},{"type":"Feature","properties":{"nome":"Jardim Boa Vista","osm_id":7187745999,"osm_tipo":"node","tipo_lugar":"suburb"},"geometry":{"type":"Point","coordinates":[-46.028568,-23.3695782]}},{"type":"Feature","properties":{"nome":"Vila Garcia","osm_id":7187746000,"osm_tipo":"node","tipo_lugar":"suburb"},"geometry":{"type":"Point","coordinates":[-46.0168847,-23.3640006]}},{"type":"Feature","properties":{"nome":"Jardim Dora","osm_id":7187746007,"osm_tipo":"node","tipo_lugar":"suburb"},"geometry":{"type":"Point","coordinates":[-45.9495745,-23.2689524]}},{"type":"Feature","properties":{"nome":"Jardim Marcondes","osm_id":7187746009,"osm_tipo":"node","tipo_lugar":"suburb"},"geometry":{"type":"Point","coordinates":[-45.9544999,-23.2745141]}},{"type":"Feature","properties":{"nome":"Jardim Primavera","osm_id":7188506070,"osm_tipo":"node","tipo_lugar":"suburb"},"geometry":{"type":"Point","coordinates":[-45.951262,-23.2842728]}},{"type":"Feature","properties":{"nome":"Vila Lopes","osm_id":7188506071,"osm_tipo":"node","tipo_lugar":"suburb"},"geometry":{"type":"Point","coordinates":[-45.9475928,-23.2827157]}},{"type":"Feature","properties":{"nome":"Jardim Vera Lucia","osm_id":7188506072,"osm_tipo":"node","tipo_lugar":"suburb"},"geometry":{"type":"Point","coordinates":[-45.9495056,-23.2803793]}},{"type":"Feature","properties":{"nome":"Residencial Santa Paula","osm_id":7188506074,"osm_tipo":"node","tipo_lugar":"suburb"},"geometry":{"type":"Point","coordinates":[-45.9243804,-23.2656797]}},{"type":"Feature","properties":{"nome":"Rio Comprido","osm_id":7188506075,"osm_tipo":"node","tipo_lugar":"suburb"},"geometry":{"type":"Point","coordinates":[-45.9316195,-23.2602028]}},{"type":"Feature","properties":{"nome":"Parque Mirante do Vale","osm_id":7188506076,"osm_tipo":"node","tipo_lugar":"suburb"},"geometry":{"type":"Point","coordinates":[-45.924058,-23.2748918]}},{"type":"Feature","properties":{"nome":"Prolongamento Santa Maria","osm_id":7188506081,"osm_tipo":"node","tipo_lugar":"suburb"},"geometry":{"type":"Point","coordinates":[-45.964177,-23.2838272]}},{"type":"Feature","properties":{"nome":"Avarey","osm_id":7188506082,"osm_tipo":"node","tipo_lugar":"suburb"},"geometry":{"type":"Point","coordinates":[-45.9668927,-23.2958364]}},{"type":"Feature","properties":{"nome":"Vila Guedes","osm_id":7188506083,"osm_tipo":"node","tipo_lugar":"suburb"},"geometry":{"type":"Point","coordinates":[-45.9705028,-23.3112346]}},{"type":"Feature","properties":{"nome":"Jardim Boa Vista","osm_id":7188506084,"osm_tipo":"node","tipo_lugar":"suburb"},"geometry":{"type":"Point","coordinates":[-45.9665593,-23.3106298]}},{"type":"Feature","properties":{"nome":"Jardim do Cruzeiro","osm_id":7188522985,"osm_tipo":"node","tipo_lugar":"suburb"},"geometry":{"type":"Point","coordinates":[-45.9644372,-23.3121531]}},{"type":"Feature","properties":{"nome":"Vila Denise","osm_id":7188522986,"osm_tipo":"node","tipo_lugar":"suburb"},"geometry":{"type":"Point","coordinates":[-45.9642583,-23.3082104]}},{"type":"Feature","properties":{"nome":"Parque Santo Antônio","osm_id":7188522989,"osm_tipo":"node","tipo_lugar":"suburb"},"geometry":{"type":"Point","coordinates":[-45.9571534,-23.3078748]}},{"type":"Feature","properties":{"nome":"Jardim Maria Améla","osm_id":7188522990,"osm_tipo":"node","tipo_lugar":"suburb"},"geometry":{"type":"Point","coordinates":[-45.956826,-23.3169319]}},{"type":"Feature","properties":{"nome":"Jardim Colinas","osm_id":7188522992,"osm_tipo":"node","tipo_lugar":"suburb"},"geometry":{"type":"Point","coordinates":[-45.9644482,-23.3256814]}},{"type":"Feature","properties":{"nome":"Vila Santa Rita","osm_id":7188522993,"osm_tipo":"node","tipo_lugar":"suburb"},"geometry":{"type":"Point","coordinates":[-45.9653264,-23.3206477]}},{"type":"Feature","properties":{"nome":"Parque Brasil","osm_id":7188522994,"osm_tipo":"node","tipo_lugar":"suburb"},"geometry":{"type":"Point","coordinates":[-45.9571748,-23.290867]}},{"type":"Feature","properties":{"nome":"Jardim do Vale","osm_id":7683200359,"osm_tipo":"node","tipo_lugar":"suburb"},"geometry":{"type":"Point","coordinates":[-45.9701172,-23.3245083]}},{"type":"Feature","properties":{"nome":"Cidade Nova Jacareí","osm_id":7683322830,"osm_tipo":"node","tipo_lugar":"suburb"},"geometry":{"type":"Point","coordinates":[-46.0151945,-23.3068429]}},{"type":"Feature","properties":{"nome":"Parque Santo Antônio","osm_id":7683341758,"osm_tipo":"node","tipo_lugar":"suburb"},"geometry":{"type":"Point","coordinates":[-45.958625,-23.3142164]}},{"type":"Feature","properties":{"nome":"Jardim Primavera","osm_id":7683363805,"osm_tipo":"node","tipo_lugar":"suburb"},"geometry":{"type":"Point","coordinates":[-45.9488406,-23.2848366]}},{"type":"Feature","properties":{"nome":"Loteamento Chácaras Reunidas Ygarapés","osm_id":7683391485,"osm_tipo":"node","tipo_lugar":"suburb"},"geometry":{"type":"Point","coordinates":[-46.0303342,-23.2986996]}},{"type":"Feature","properties":{"nome":"Jardim das Indústrias","osm_id":7684133243,"osm_tipo":"node","tipo_lugar":"suburb"},"geometry":{"type":"Point","coordinates":[-45.9400771,-23.2856283]}},{"type":"Feature","properties":{"nome":"Centro","osm_id":7711297589,"osm_tipo":"node","tipo_lugar":"suburb"},"geometry":{"type":"Point","coordinates":[-45.9589762,-23.3019635]}},{"type":"Feature","properties":{"nome":"Bandeira Branca I","osm_id":7729599997,"osm_tipo":"node","tipo_lugar":"suburb"},"geometry":{"type":"Point","coordinates":[-45.9938608,-23.3255141]}},{"type":"Feature","properties":{"nome":"Jardim Nova Esperança","osm_id":7755145634,"osm_tipo":"node","tipo_lugar":"suburb"},"geometry":{"type":"Point","coordinates":[-46.0086933,-23.3117358]}},{"type":"Feature","properties":{"nome":"Jardim Califórnia","osm_id":7775803319,"osm_tipo":"node","tipo_lugar":"suburb"},"geometry":{"type":"Point","coordinates":[-45.9451848,-23.2774058]}},{"type":"Feature","properties":{"nome":"Bandeira Branca II","osm_id":7781466333,"osm_tipo":"node","tipo_lugar":"suburb"},"geometry":{"type":"Point","coordinates":[-45.9983309,-23.3333554]}},{"type":"Feature","properties":{"nome":"Pagador Andrade","osm_id":7824536309,"osm_tipo":"node","tipo_lugar":"suburb"},"geometry":{"type":"Point","coordinates":[-46.0037095,-23.2163303]}},{"type":"Feature","properties":{"nome":"Jardim Santana","osm_id":7830855455,"osm_tipo":"node","tipo_lugar":"suburb"},"geometry":{"type":"Point","coordinates":[-46.05386,-23.2915348]}},{"type":"Feature","properties":{"nome":"Chácara Itapoã","osm_id":7830855462,"osm_tipo":"node","tipo_lugar":"suburb"},"geometry":{"type":"Point","coordinates":[-46.0620246,-23.3031522]}},{"type":"Feature","properties":{"nome":"Parque Residencial Jequitibá","osm_id":7832837886,"osm_tipo":"node","tipo_lugar":"suburb"},"geometry":{"type":"Point","coordinates":[-46.065046,-23.3433531]}},{"type":"Feature","properties":{"nome":"mandi","osm_id":7833233718,"osm_tipo":"node","tipo_lugar":"suburb"},"geometry":{"type":"Point","coordinates":[-46.0363543,-23.3353212]}},{"type":"Feature","properties":{"nome":"Remédios","osm_id":7833233861,"osm_tipo":"node","tipo_lugar":"suburb"},"geometry":{"type":"Point","coordinates":[-46.0770867,-23.3179642]}},{"type":"Feature","properties":{"nome":"Rio Bonito","osm_id":8255890575,"osm_tipo":"node","tipo_lugar":"suburb"},"geometry":{"type":"Point","coordinates":[-45.9265693,-23.2615329]}},{"type":"Feature","properties":{"nome":"Condominio Lagoinha","osm_id":8257960942,"osm_tipo":"node","tipo_lugar":"suburb"},"geometry":{"type":"Point","coordinates":[-46.0324708,-23.2586398]}},{"type":"Feature","properties":{"nome":"Copinho","osm_id":8615996735,"osm_tipo":"node","tipo_lugar":"suburb"},"geometry":{"type":"Point","coordinates":[-45.981351,-23.2714597]}},{"type":"Feature","properties":{"nome":"Campo Grande","osm_id":8618623756,"osm_tipo":"node","tipo_lugar":"suburb"},"geometry":{"type":"Point","coordinates":[-45.9542124,-23.3225604]}},{"type":"Feature","properties":{"nome":"Balneário Paraiba","osm_id":11427624653,"osm_tipo":"node","tipo_lugar":"suburb"},"geometry":{"type":"Point","coordinates":[-45.9721529,-23.3176375]}},{"type":"Feature","properties":{"nome":"Cidade Jardim","osm_id":11427624654,"osm_tipo":"node","tipo_lugar":"suburb"},"geometry":{"type":"Point","coordinates":[-45.9752346,-23.3147969]}},{"type":"Feature","properties":{"nome":"Residencial Fogaça","osm_id":11453003903,"osm_tipo":"node","tipo_lugar":"suburb"},"geometry":{"type":"Point","coordinates":[-45.9864521,-23.3187351]}},{"type":"Feature","properties":{"nome":"Lagoa Azul","osm_id":253718017,"osm_tipo":"way","tipo_lugar":"neighbourhood"},"geometry":{"type":"Polygon","coordinates":[[[-45.9729793,-23.2556915],[-45.9702247,-23.2531113],[-45.9728426,-23.2512729],[-45.9749873,-23.253124],[-45.9729793,-23.2556915]]]}},{"type":"Feature","properties":{"nome":"Cidade Jardim","osm_id":1231716893,"osm_tipo":"way","tipo_lugar":"suburb"},"geometry":{"type":"Polygon","coordinates":[[[-45.970385,-23.3145275],[-45.9732382,-23.3101743],[-45.9800537,-23.3164198],[-45.9759673,-23.3188879],[-45.970385,-23.3145275]]]}},{"type":"Feature","properties":{"nome":"Balneário Paraiba","osm_id":1232045872,"osm_tipo":"way","tipo_lugar":"suburb"},"geometry":{"type":"Polygon","coordinates":[[[-45.9720303,-23.3195745],[-45.9693753,-23.3166533],[-45.970385,-23.3145275],[-45.9743036,-23.3176672],[-45.9720303,-23.3195745]]]}},{"type":"Feature","properties":{"nome":"Jardim Didinha","osm_id":1232052587,"osm_tipo":"way","tipo_lugar":"suburb"},"geometry":{"type":"Polygon","coordinates":[[[-45.9821887,-23.3178666],[-45.9784702,-23.314146],[-45.9818598,-23.3108971],[-45.9821887,-23.3178666]]]}},{"type":"Feature","properties":{"nome":"Jardim Vista Verde","osm_id":1234031640,"osm_tipo":"way","tipo_lugar":"suburb"},"geometry":{"type":"Polygon","coordinates":[[[-45.9803397,-23.3171176],[-45.9768044,-23.3212554],[-45.9736935,-23.3212924],[-45.9803397,-23.3171176]]]}},{"type":"Feature","properties":{"nome":"Jardim Panorama","osm_id":1234073377,"osm_tipo":"way","tipo_lugar":"suburb"},"geometry":{"type":"Polygon","coordinates":[[[-45.9814426,-23.3186178],[-45.9871884,-23.323117],[-45.9817478,-23.3236923],[-45.9827875,-23.3207758],[-45.976823,-23.3228411],[-45.9800736,-23.3178328],[-45.9814426,-23.3186178]]]}},{"type":"Feature","properties":{"nome":"Bandeira Branca I","osm_id":1234318767,"osm_tipo":"way","tipo_lugar":"suburb"},"geometry":{"type":"Polygon","coordinates":[[[-45.9905372,-23.3207065],[-45.9892486,-23.3205035],[-45.9970518,-23.3308543],[-45.995169,-23.3253528],[-45.9905372,-23.3207065]]]}},{"type":"Feature","properties":{"nome":"Bandeira Branca II","osm_id":1234360191,"osm_tipo":"way","tipo_lugar":"suburb"},"geometry":{"type":"Polygon","coordinates":[[[-45.9892486,-23.3205035],[-45.9880592,-23.3202036],[-45.995722,-23.3301606],[-45.9953606,-23.3326903],[-45.9991593,-23.3363055],[-46.0008272,-23.3333573],[-45.9980342,-23.3300766],[-45.9970518,-23.3308543],[-45.9892486,-23.3205035]]]}},{"type":"Feature","properties":{"nome":"Urbanova IV","osm_id":11268879,"osm_tipo":"relation","tipo_lugar":"suburb"},"geometry":{"type":"Polygon","coordinates":[[[-45.9524101,-23.2064286],[-45.9535322,-23.2050395],[-45.9500578,-23.2027997],[-45.9510661,-23.20205],[-45.9484596,-23.2006334],[-45.9459768,-23.2014917],[-45.9456699,-23.2028842],[-45.9524101,-23.2064286]]]}},{"type":"Feature","properties":{"nome":"Floradas da Serra","osm_id":20328159,"osm_tipo":"relation","tipo_lugar":"neighbourhood"},"geometry":{"type":"MultiPolygon","coordinates":[[[[-45.9606835,-23.2030655],[-45.9620055,-23.2043635],[-45.9592704,-23.2057467],[-45.9544944,-23.2040432],[-45.9606835,-23.2030655]]],[[[-45.9569402,-23.2031918],[-45.9585923,-23.2041197],[-45.9606835,-23.2030655],[-45.9569402,-23.2031918]]]]}}]}