{"type":"FeatureCollection","features":[{"type":"Feature","properties":{"nome":"Alto do Ipê","osm_id":6898756584,"osm_tipo":"node","tipo_lugar":"suburb"},"geometry":{"type":"Point","coordinates":[-50.5605358,-20.2746771]}},{"type":"Feature","properties":{"nome":"Jardim Pires de Andrade","osm_id":6898776885,"osm_tipo":"node","tipo_lugar":"suburb"},"geometry":{"type":"Point","coordinates":[-50.5601549,-20.2758445]}},{"type":"Feature","properties":{"nome":"Jardim Brasília","osm_id":7188538033,"osm_tipo":"node","tipo_lugar":"suburb"},"geometry":{"type":"Point","coordinates":[-50.5528808,-20.2598495]}},{"type":"Feature","properties":{"nome":"Jardim Novo Mundo","osm_id":7188538034,"osm_tipo":"node","tipo_lugar":"suburb"},"geometry":{"type":"Point","coordinates":[-50.5542594,-20.2600583]}},{"type":"Feature","properties":{"nome":"Vila Maria","osm_id":7188538040,"osm_tipo":"node","tipo_lugar":"suburb"},"geometry":{"type":"Point","coordinates":[-50.5537471,-20.2634074]}},{"type":"Feature","properties":{"nome":"Jardim Paulo Sexto","osm_id":7188538041,"osm_tipo":"node","tipo_lugar":"suburb"},"geometry":{"type":"Point","coordinates":[-50.5519635,-20.2620487]}},{"type":"Feature","properties":{"nome":"Jardim Euphly Jalles","osm_id":7191834410,"osm_tipo":"node","tipo_lugar":"suburb"},"geometry":{"type":"Point","coordinates":[-50.536986,-20.2563241]}},{"type":"Feature","properties":{"nome":"Parque Industrial Valentim Paulo Viola","osm_id":7191834411,"osm_tipo":"node","tipo_lugar":"suburb"},"geometry":{"type":"Point","coordinates":[-50.5358434,-20.2615026]}},{"type":"Feature","properties":{"nome":"Conjunto Habitacional Doutor Pedro Nogueira","osm_id":7191834418,"osm_tipo":"node","tipo_lugar":"suburb"},"geometry":{"type":"Point","coordinates":[-50.5459017,-20.2495601]}},{"type":"Feature","properties":{"nome":"Loteamento João Batista Colodetti","osm_id":7191834419,"osm_tipo":"node","tipo_lugar":"suburb"},"geometry":{"type":"Point","coordinates":[-50.5486375,-20.2501188]}},{"type":"Feature","properties":{"nome":"Parque Industrial José Carlos Guisso","osm_id":7196052588,"osm_tipo":"node","tipo_lugar":"suburb"},"geometry":{"type":"Point","coordinates":[-50.5099386,-20.2704451]}},{"type":"Feature","properties":{"nome":"Jardim Paulista","osm_id":7196052589,"osm_tipo":"node","tipo_lugar":"suburb"},"geometry":{"type":"Point","coordinates":[-50.5306023,-20.2708854]}},{"type":"Feature","properties":{"nome":"Jardim São Gabriel","osm_id":7196052593,"osm_tipo":"node","tipo_lugar":"suburb"},"geometry":{"type":"Point","coordinates":[-50.5239826,-20.2682913]}},{"type":"Feature","properties":{"nome":"Conjunto Habitacional Roque Viola","osm_id":7196052594,"osm_tipo":"node","tipo_lugar":"suburb"},"geometry":{"type":"Point","coordinates":[-50.527432,-20.2713358]}},{"type":"Feature","properties":{"nome":"Conjunto Habitacional Vereador Dercílio Joaquim Carvalho","osm_id":7196052595,"osm_tipo":"node","tipo_lugar":"suburb"},"geometry":{"type":"Point","coordinates":[-50.5293632,-20.2747979]}},{"type":"Feature","properties":{"nome":"Conjunto Habitacional Santo Hernandes Argentina","osm_id":7196052598,"osm_tipo":"node","tipo_lugar":"suburb"},"geometry":{"type":"Point","coordinates":[-50.5302322,-20.2768409]}},{"type":"Feature","properties":{"nome":"Residencial Big Plaza","osm_id":7196052599,"osm_tipo":"node","tipo_lugar":"suburb"},"geometry":{"type":"Point","coordinates":[-50.5261016,-20.2755426]}},{"type":"Feature","properties":{"nome":"Residencial Maione","osm_id":8362015605,"osm_tipo":"node","tipo_lugar":"suburb"},"geometry":{"type":"Point","coordinates":[-50.5618072,-20.2620361]}},{"type":"Feature","properties":{"nome":"Residencial Green Valley","osm_id":8362015606,"osm_tipo":"node","tipo_lugar":"suburb"},"geometry":{"type":"Point","coordinates":[-50.569784,-20.2768836]}},{"type":"Feature","properties":{"nome":"Residencial Gran Plaza","osm_id":8362028732,"osm_tipo":"node","tipo_lugar":"suburb"},"geometry":{"type":"Point","coordinates":[-50.519793,-20.2693229]}},{"type":"Feature","properties":{"nome":"Residencial Novo Horizonte","osm_id":8362028733,"osm_tipo":"node","tipo_lugar":"suburb"},"geometry":{"type":"Point","coordinates":[-50.5146325,-20.272307]}},{"type":"Feature","properties":{"nome":"Residencial Monte Líbano","osm_id":10542247987,"osm_tipo":"node","tipo_lugar":"neighbourhood"},"geometry":{"type":"Point","coordinates":[-50.5556381,-20.2440943]}},{"type":"Feature","properties":{"nome":"Residencial Nova Jales","osm_id":11013872318,"osm_tipo":"node","tipo_lugar":"suburb"},"geometry":{"type":"Point","coordinates":[-50.5521166,-20.2426131]}},{"type":"Feature","properties":{"nome":"Residencial Nova Jales II","osm_id":11013872319,"osm_tipo":"node","tipo_lugar":"suburb"},"geometry":{"type":"Point","coordinates":[-50.5515375,-20.24554]}},{"type":"Feature","properties":{"nome":"Jardim Residencial Alvorada","osm_id":11013872320,"osm_tipo":"node","tipo_lugar":"suburb"},"geometry":{"type":"Point","coordinates":[-50.5510892,-20.2474328]}}]}