{"type":"FeatureCollection","features":[{"type":"Feature","properties":{"nome":"Eloy Chaves","osm_id":364186882,"osm_tipo":"node","tipo_lugar":"suburb"},"geometry":{"type":"Point","coordinates":[-46.9618752,-23.1852276]}},{"type":"Feature","properties":{"nome":"Traviú","osm_id":2353780847,"osm_tipo":"node","tipo_lugar":"suburb"},"geometry":{"type":"Point","coordinates":[-46.9647029,-23.1156982]}},{"type":"Feature","properties":{"nome":"Recanto Champirra","osm_id":2572652181,"osm_tipo":"node","tipo_lugar":"neighbourhood"},"geometry":{"type":"Point","coordinates":[-46.8492888,-23.0940094]}},{"type":"Feature","properties":{"nome":"Anhangabaú","osm_id":3347077227,"osm_tipo":"node","tipo_lugar":"suburb"},"geometry":{"type":"Point","coordinates":[-46.8937772,-23.1931207]}},{"type":"Feature","properties":{"nome":"Casa Branca","osm_id":3356561896,"osm_tipo":"node","tipo_lugar":"suburb"},"geometry":{"type":"Point","coordinates":[-46.9262999,-23.1766259]}},{"type":"Feature","properties":{"nome":"Hortolândia","osm_id":3443971270,"osm_tipo":"node","tipo_lugar":"suburb"},"geometry":{"type":"Point","coordinates":[-46.9108625,-23.167161]}},{"type":"Feature","properties":{"nome":"Torres de São José","osm_id":3443971299,"osm_tipo":"node","tipo_lugar":"suburb"},"geometry":{"type":"Point","coordinates":[-46.9145649,-23.1592132]}},{"type":"Feature","properties":{"nome":"Jardim Botânico","osm_id":3443973161,"osm_tipo":"node","tipo_lugar":"suburb"},"geometry":{"type":"Point","coordinates":[-46.9046367,-23.16634]}},{"type":"Feature","properties":{"nome":"Vila Arens","osm_id":3445384784,"osm_tipo":"node","tipo_lugar":"suburb"},"geometry":{"type":"Point","coordinates":[-46.8774198,-23.1989846]}},{"type":"Feature","properties":{"nome":"Vila Progresso","osm_id":3445720213,"osm_tipo":"node","tipo_lugar":"suburb"},"geometry":{"type":"Point","coordinates":[-46.8720963,-23.2052977]}},{"type":"Feature","properties":{"nome":"Jardim Santa Gertrudes","osm_id":3447641030,"osm_tipo":"node","tipo_lugar":"suburb"},"geometry":{"type":"Point","coordinates":[-46.8544198,-23.2467873]}},{"type":"Feature","properties":{"nome":"Agapeama","osm_id":3448593189,"osm_tipo":"node","tipo_lugar":"suburb"},"geometry":{"type":"Point","coordinates":[-46.85905,-23.2078249]}},{"type":"Feature","properties":{"nome":"Jardim do Lago","osm_id":3448697924,"osm_tipo":"node","tipo_lugar":"suburb"},"geometry":{"type":"Point","coordinates":[-46.8623716,-23.2146195]}},{"type":"Feature","properties":{"nome":"Vila Rami","osm_id":3449950010,"osm_tipo":"node","tipo_lugar":"suburb"},"geometry":{"type":"Point","coordinates":[-46.8800377,-23.213797]}},{"type":"Feature","properties":{"nome":"Ponte São João","osm_id":3450884587,"osm_tipo":"node","tipo_lugar":"suburb"},"geometry":{"type":"Point","coordinates":[-46.8755208,-23.1844748]}},{"type":"Feature","properties":{"nome":"Aeroporto","osm_id":3455772169,"osm_tipo":"node","tipo_lugar":"suburb"},"geometry":{"type":"Point","coordinates":[-46.9411477,-23.1785421]}},{"type":"Feature","properties":{"nome":"Vianelo","osm_id":3456367950,"osm_tipo":"node","tipo_lugar":"suburb"},"geometry":{"type":"Point","coordinates":[-46.8830616,-23.1979198]}},{"type":"Feature","properties":{"nome":"Tijuco Preto","osm_id":3475995668,"osm_tipo":"node","tipo_lugar":"suburb"},"geometry":{"type":"Point","coordinates":[-46.8415388,-23.2592764]}},{"type":"Feature","properties":{"nome":"Cristais","osm_id":3475996834,"osm_tipo":"node","tipo_lugar":"suburb"},"geometry":{"type":"Point","coordinates":[-46.8365788,-23.262573]}},{"type":"Feature","properties":{"nome":"Maringá","osm_id":3476051047,"osm_tipo":"node","tipo_lugar":"suburb"},"geometry":{"type":"Point","coordinates":[-46.8797287,-23.2275113]}},{"type":"Feature","properties":{"nome":"Pracatú","osm_id":3477644195,"osm_tipo":"node","tipo_lugar":"suburb"},"geometry":{"type":"Point","coordinates":[-46.8929718,-23.2294925]}},{"type":"Feature","properties":{"nome":"Castanho","osm_id":3485512007,"osm_tipo":"node","tipo_lugar":"suburb"},"geometry":{"type":"Point","coordinates":[-46.8545791,-23.2385443]}},{"type":"Feature","properties":{"nome":"Jardim Pacaembú","osm_id":3500229305,"osm_tipo":"node","tipo_lugar":"suburb"},"geometry":{"type":"Point","coordinates":[-46.8621033,-23.1864728]}},{"type":"Feature","properties":{"nome":"Colônia","osm_id":3502191600,"osm_tipo":"node","tipo_lugar":"suburb"},"geometry":{"type":"Point","coordinates":[-46.8533869,-23.1809923]}},{"type":"Feature","properties":{"nome":"Água Doce","osm_id":3513880182,"osm_tipo":"node","tipo_lugar":"suburb"},"geometry":{"type":"Point","coordinates":[-46.9516848,-23.1500297]}},{"type":"Feature","properties":{"nome":"Tulipas","osm_id":3513880320,"osm_tipo":"node","tipo_lugar":"suburb"},"geometry":{"type":"Point","coordinates":[-46.9591897,-23.1554258]}},{"type":"Feature","properties":{"nome":"Distrito Industrial","osm_id":3513886992,"osm_tipo":"node","tipo_lugar":"suburb"},"geometry":{"type":"Point","coordinates":[-46.9408058,-23.1545379]}},{"type":"Feature","properties":{"nome":"Ermida","osm_id":3513894784,"osm_tipo":"node","tipo_lugar":"suburb"},"geometry":{"type":"Point","coordinates":[-46.9801935,-23.1908844]}},{"type":"Feature","properties":{"nome":"Retiro","osm_id":3519932813,"osm_tipo":"node","tipo_lugar":"suburb"},"geometry":{"type":"Point","coordinates":[-46.9096353,-23.1778694]}},{"type":"Feature","properties":{"nome":"Parque Centenário","osm_id":3528558907,"osm_tipo":"node","tipo_lugar":"suburb"},"geometry":{"type":"Point","coordinates":[-46.915923,-23.137623]}},{"type":"Feature","properties":{"nome":"Cecap","osm_id":3528571847,"osm_tipo":"node","tipo_lugar":"suburb"},"geometry":{"type":"Point","coordinates":[-46.9227251,-23.141076]}},{"type":"Feature","properties":{"nome":"Vila Municipal","osm_id":3567481095,"osm_tipo":"node","tipo_lugar":"suburb"},"geometry":{"type":"Point","coordinates":[-46.8934692,-23.1788672]}},{"type":"Feature","properties":{"nome":"Chácara Urbana","osm_id":3567490850,"osm_tipo":"node","tipo_lugar":"suburb"},"geometry":{"type":"Point","coordinates":[-46.9013328,-23.1788005]}},{"type":"Feature","properties":{"nome":"Nambi","osm_id":3586772281,"osm_tipo":"node","tipo_lugar":"suburb"},"geometry":{"type":"Point","coordinates":[-46.8649885,-23.1918723]}},{"type":"Feature","properties":{"nome":"Jardim Tamoio","osm_id":3586975640,"osm_tipo":"node","tipo_lugar":"suburb"},"geometry":{"type":"Point","coordinates":[-46.849775,-23.1898173]}},{"type":"Feature","properties":{"nome":"Vila Rio Branco","osm_id":3586982938,"osm_tipo":"node","tipo_lugar":"suburb"},"geometry":{"type":"Point","coordinates":[-46.8864952,-23.1726244]}},{"type":"Feature","properties":{"nome":"Marco Leite","osm_id":3586987572,"osm_tipo":"node","tipo_lugar":"suburb"},"geometry":{"type":"Point","coordinates":[-46.8840397,-23.1657961]}},{"type":"Feature","properties":{"nome":"Tarumã","osm_id":3586994439,"osm_tipo":"node","tipo_lugar":"suburb"},"geometry":{"type":"Point","coordinates":[-46.8695017,-23.1685498]}},{"type":"Feature","properties":{"nome":"Caxambu","osm_id":3587021494,"osm_tipo":"node","tipo_lugar":"suburb"},"geometry":{"type":"Point","coordinates":[-46.8488021,-23.1528322]}},{"type":"Feature","properties":{"nome":"Vale Azul","osm_id":3620879004,"osm_tipo":"node","tipo_lugar":"suburb"},"geometry":{"type":"Point","coordinates":[-46.8615837,-23.1564961]}},{"type":"Feature","properties":{"nome":"Jundiaí-Mirim","osm_id":3620910968,"osm_tipo":"node","tipo_lugar":"suburb"},"geometry":{"type":"Point","coordinates":[-46.8723583,-23.1528727]}},{"type":"Feature","properties":{"nome":"Currupira","osm_id":3627239055,"osm_tipo":"node","tipo_lugar":"suburb"},"geometry":{"type":"Point","coordinates":[-46.9240157,-23.1228264]}},{"type":"Feature","properties":{"nome":"Fernandes","osm_id":3627251817,"osm_tipo":"node","tipo_lugar":"suburb"},"geometry":{"type":"Point","coordinates":[-46.9295893,-23.1285097]}},{"type":"Feature","properties":{"nome":"Engordadouro","osm_id":3627338709,"osm_tipo":"node","tipo_lugar":"suburb"},"geometry":{"type":"Point","coordinates":[-46.9290274,-23.1529987]}},{"type":"Feature","properties":{"nome":"Ponte Alta","osm_id":3641694279,"osm_tipo":"node","tipo_lugar":"suburb"},"geometry":{"type":"Point","coordinates":[-46.8316456,-23.1726789]}},{"type":"Feature","properties":{"nome":"Ivoturucaia","osm_id":3641700959,"osm_tipo":"node","tipo_lugar":"suburb"},"geometry":{"type":"Point","coordinates":[-46.8087897,-23.1827568]}},{"type":"Feature","properties":{"nome":"Toca","osm_id":3643522634,"osm_tipo":"node","tipo_lugar":"suburb"},"geometry":{"type":"Point","coordinates":[-46.8276241,-23.1369499]}},{"type":"Feature","properties":{"nome":"Mato Dentro","osm_id":3649797408,"osm_tipo":"node","tipo_lugar":"suburb"},"geometry":{"type":"Point","coordinates":[-46.8525887,-23.1246683]}},{"type":"Feature","properties":{"nome":"Champirra","osm_id":3649828433,"osm_tipo":"node","tipo_lugar":"suburb"},"geometry":{"type":"Point","coordinates":[-46.8715487,-23.1009556]}},{"type":"Feature","properties":{"nome":"Rio Acima","osm_id":3649866999,"osm_tipo":"node","tipo_lugar":"suburb"},"geometry":{"type":"Point","coordinates":[-46.8840624,-23.1246461]}},{"type":"Feature","properties":{"nome":"Pinheirinho","osm_id":3660990477,"osm_tipo":"node","tipo_lugar":"suburb"},"geometry":{"type":"Point","coordinates":[-46.8983162,-23.1401565]}},{"type":"Feature","properties":{"nome":"Condomínio Residencial dos Metalúrgicos","osm_id":3661033185,"osm_tipo":"node","tipo_lugar":"neighbourhood"},"geometry":{"type":"Point","coordinates":[-46.9311501,-23.1850404]}},{"type":"Feature","properties":{"nome":"São Camilo","osm_id":3663775847,"osm_tipo":"node","tipo_lugar":"suburb"},"geometry":{"type":"Point","coordinates":[-46.8665906,-23.176542]}},{"type":"Feature","properties":{"nome":"Serra do Japi","osm_id":3663975484,"osm_tipo":"node","tipo_lugar":"suburb"},"geometry":{"type":"Point","coordinates":[-47.0097591,-23.2216284]}},{"type":"Feature","properties":{"nome":"Alvorada","osm_id":3667494209,"osm_tipo":"node","tipo_lugar":"suburb"},"geometry":{"type":"Point","coordinates":[-46.9163193,-23.1876167]}},{"type":"Feature","properties":{"nome":"Moisés","osm_id":3667501943,"osm_tipo":"node","tipo_lugar":"suburb"},"geometry":{"type":"Point","coordinates":[-46.9067277,-23.2011469]}},{"type":"Feature","properties":{"nome":"Gramadão","osm_id":3667502905,"osm_tipo":"node","tipo_lugar":"suburb"},"geometry":{"type":"Point","coordinates":[-46.926855,-23.1902795]}},{"type":"Feature","properties":{"nome":"Samambaia","osm_id":3667503869,"osm_tipo":"node","tipo_lugar":"suburb"},"geometry":{"type":"Point","coordinates":[-46.9150373,-23.1949628]}},{"type":"Feature","properties":{"nome":"Medeiros","osm_id":3715895189,"osm_tipo":"node","tipo_lugar":"suburb"},"geometry":{"type":"Point","coordinates":[-46.9977699,-23.183251]}},{"type":"Feature","properties":{"nome":"Bom Jardim","osm_id":3716006827,"osm_tipo":"node","tipo_lugar":"suburb"},"geometry":{"type":"Point","coordinates":[-47.0168813,-23.1391466]}},{"type":"Feature","properties":{"nome":"Malota","osm_id":3768456875,"osm_tipo":"node","tipo_lugar":"suburb"},"geometry":{"type":"Point","coordinates":[-46.912322,-23.209708]}},{"type":"Feature","properties":{"nome":"Jardim das Bandeiras","osm_id":3775887460,"osm_tipo":"node","tipo_lugar":"neighbourhood"},"geometry":{"type":"Point","coordinates":[-46.8710082,-23.1557867]}},{"type":"Feature","properties":{"nome":"São Domingos","osm_id":3776041254,"osm_tipo":"node","tipo_lugar":"neighbourhood"},"geometry":{"type":"Point","coordinates":[-46.8413707,-23.139306]}},{"type":"Feature","properties":{"nome":"Novo Horizonte","osm_id":3777694229,"osm_tipo":"node","tipo_lugar":"suburb"},"geometry":{"type":"Point","coordinates":[-46.9926562,-23.1484768]}},{"type":"Feature","properties":{"nome":"São José da Pedra Santa","osm_id":3792052277,"osm_tipo":"node","tipo_lugar":"suburb"},"geometry":{"type":"Point","coordinates":[-46.9075374,-23.1043831]}},{"type":"Feature","properties":{"nome":"Sítio Itália","osm_id":3972612094,"osm_tipo":"node","tipo_lugar":"neighbourhood"},"geometry":{"type":"Point","coordinates":[-46.818431,-23.1580564]}},{"type":"Feature","properties":{"nome":"Nova Odessa","osm_id":3972612095,"osm_tipo":"node","tipo_lugar":"suburb"},"geometry":{"type":"Point","coordinates":[-46.8231517,-23.1529663]}},{"type":"Feature","properties":{"nome":"Piemonte","osm_id":3980001249,"osm_tipo":"node","tipo_lugar":"neighbourhood"},"geometry":{"type":"Point","coordinates":[-46.8661043,-23.0987914]}},{"type":"Feature","properties":{"nome":"Loteamento Vivenda","osm_id":3980077199,"osm_tipo":"node","tipo_lugar":"neighbourhood"},"geometry":{"type":"Point","coordinates":[-46.8682481,-23.0883413]}},{"type":"Feature","properties":{"nome":"Parque Espelho D'Água","osm_id":3982455057,"osm_tipo":"node","tipo_lugar":"neighbourhood"},"geometry":{"type":"Point","coordinates":[-46.8564128,-23.1211707]}},{"type":"Feature","properties":{"nome":"Loteamento São Jorge","osm_id":3982489861,"osm_tipo":"node","tipo_lugar":"neighbourhood"},"geometry":{"type":"Point","coordinates":[-46.8487256,-23.11676]}},{"type":"Feature","properties":{"nome":"Chácaras Itamar","osm_id":3982506514,"osm_tipo":"node","tipo_lugar":"neighbourhood"},"geometry":{"type":"Point","coordinates":[-46.8676566,-23.122414]}},{"type":"Feature","properties":{"nome":"Loteamento Maltoni","osm_id":3982506515,"osm_tipo":"node","tipo_lugar":"neighbourhood"},"geometry":{"type":"Point","coordinates":[-46.8717443,-23.1291529]}},{"type":"Feature","properties":{"nome":"Parque Almerinda Pereira Chaves","osm_id":3984465853,"osm_tipo":"node","tipo_lugar":"neighbourhood"},"geometry":{"type":"Point","coordinates":[-46.9918293,-23.1449757]}},{"type":"Feature","properties":{"nome":"Parque Residencial Jundiaí I","osm_id":3984465854,"osm_tipo":"node","tipo_lugar":"neighbourhood"},"geometry":{"type":"Point","coordinates":[-47.0089523,-23.1471196]}},{"type":"Feature","properties":{"nome":"Parque Residencial Jundiaí II","osm_id":3984465855,"osm_tipo":"node","tipo_lugar":"neighbourhood"},"geometry":{"type":"Point","coordinates":[-47.0065956,-23.151959]}},{"type":"Feature","properties":{"nome":"Jardim Adélia","osm_id":4008432914,"osm_tipo":"node","tipo_lugar":"neighbourhood"},"geometry":{"type":"Point","coordinates":[-46.9458465,-23.1498672]}},{"type":"Feature","properties":{"nome":"Loteamento Santa Giovana (ZEIS)","osm_id":4133977962,"osm_tipo":"node","tipo_lugar":"neighbourhood"},"geometry":{"type":"Point","coordinates":[-46.9601453,-23.1597665]}},{"type":"Feature","properties":{"nome":"Vila Jundiainópois","osm_id":4270447414,"osm_tipo":"node","tipo_lugar":"neighbourhood"},"geometry":{"type":"Point","coordinates":[-46.8869762,-23.216641]}},{"type":"Feature","properties":{"nome":"Jardim Cica","osm_id":4658559476,"osm_tipo":"node","tipo_lugar":"neighbourhood"},"geometry":{"type":"Point","coordinates":[-46.8829448,-23.2039214]}},{"type":"Feature","properties":{"nome":"Parque Kneubil","osm_id":5525006932,"osm_tipo":"node","tipo_lugar":"neighbourhood"},"geometry":{"type":"Point","coordinates":[-46.8729507,-23.1519881]}},{"type":"Feature","properties":{"nome":"Parque São Luiz","osm_id":5525008937,"osm_tipo":"node","tipo_lugar":"neighbourhood"},"geometry":{"type":"Point","coordinates":[-46.8732778,-23.1486639]}},{"type":"Feature","properties":{"nome":"Jardim Califórnia","osm_id":5525010356,"osm_tipo":"node","tipo_lugar":"neighbourhood"},"geometry":{"type":"Point","coordinates":[-46.8704025,-23.15842]}},{"type":"Feature","properties":{"nome":"Granja Jundiaí Mirim","osm_id":5525013217,"osm_tipo":"node","tipo_lugar":"neighbourhood"},"geometry":{"type":"Point","coordinates":[-46.8740181,-23.1562893]}},{"type":"Feature","properties":{"nome":"Jardim Santa Fé","osm_id":5525181630,"osm_tipo":"node","tipo_lugar":"neighbourhood"},"geometry":{"type":"Point","coordinates":[-46.8727896,-23.0861084]}},{"type":"Feature","properties":{"nome":"Recanto Florestal","osm_id":5525799621,"osm_tipo":"node","tipo_lugar":"neighbourhood"},"geometry":{"type":"Point","coordinates":[-46.8589059,-23.1093487]}},{"type":"Feature","properties":{"nome":"Loteamento Jardim Solar","osm_id":5525802532,"osm_tipo":"node","tipo_lugar":"neighbourhood"},"geometry":{"type":"Point","coordinates":[-46.8536273,-23.1212292]}},{"type":"Feature","properties":{"nome":"Jardim Rosaura","osm_id":5525803011,"osm_tipo":"node","tipo_lugar":"neighbourhood"},"geometry":{"type":"Point","coordinates":[-46.8449163,-23.1597558]}},{"type":"Feature","properties":{"nome":"Loteamento São Judas Tadeu","osm_id":5525806694,"osm_tipo":"node","tipo_lugar":"neighbourhood"},"geometry":{"type":"Point","coordinates":[-46.8467394,-23.1262415]}},{"type":"Feature","properties":{"nome":"Condomínio Vale das Videiras I e II","osm_id":5525807324,"osm_tipo":"node","tipo_lugar":"neighbourhood"},"geometry":{"type":"Point","coordinates":[-46.8475977,-23.1228868]}},{"type":"Feature","properties":{"nome":"Condomínio Dona Irene","osm_id":5525812891,"osm_tipo":"node","tipo_lugar":"neighbourhood"},"geometry":{"type":"Point","coordinates":[-46.8648068,-23.1363841]}},{"type":"Feature","properties":{"nome":"Sítio Beija Flor","osm_id":5525813351,"osm_tipo":"node","tipo_lugar":"neighbourhood"},"geometry":{"type":"Point","coordinates":[-46.8687335,-23.1417511]}},{"type":"Feature","properties":{"nome":"Munhoz Park","osm_id":5525814924,"osm_tipo":"node","tipo_lugar":"neighbourhood"},"geometry":{"type":"Point","coordinates":[-46.853799,-23.1451053]}},{"type":"Feature","properties":{"nome":"Jardim Caxambu","osm_id":5525819106,"osm_tipo":"node","tipo_lugar":"neighbourhood"},"geometry":{"type":"Point","coordinates":[-46.8503872,-23.1558581]}},{"type":"Feature","properties":{"nome":"Residencial Santa Esmeralda","osm_id":5525840989,"osm_tipo":"node","tipo_lugar":"neighbourhood"},"geometry":{"type":"Point","coordinates":[-46.8416744,-23.1596517]}},{"type":"Feature","properties":{"nome":"Jardim Vera Cruz","osm_id":5525841632,"osm_tipo":"node","tipo_lugar":"neighbourhood"},"geometry":{"type":"Point","coordinates":[-46.8377813,-23.1524537]}},{"type":"Feature","properties":{"nome":"Vila Morais","osm_id":5525842890,"osm_tipo":"node","tipo_lugar":"neighbourhood"},"geometry":{"type":"Point","coordinates":[-46.8395367,-23.1515425]}},{"type":"Feature","properties":{"nome":"Jardim Tarumã","osm_id":5525869978,"osm_tipo":"node","tipo_lugar":"neighbourhood"},"geometry":{"type":"Point","coordinates":[-46.8701012,-23.1664328]}},{"type":"Feature","properties":{"nome":"Portal do Sol","osm_id":5525871385,"osm_tipo":"node","tipo_lugar":"neighbourhood"},"geometry":{"type":"Point","coordinates":[-46.8618903,-23.1688796]}},{"type":"Feature","properties":{"nome":"Jardim São Camilo Novo","osm_id":5525871386,"osm_tipo":"node","tipo_lugar":"neighbourhood"},"geometry":{"type":"Point","coordinates":[-46.8668876,-23.1743068]}},{"type":"Feature","properties":{"nome":"Jardim São Marcus","osm_id":5525871387,"osm_tipo":"node","tipo_lugar":"neighbourhood"},"geometry":{"type":"Point","coordinates":[-46.8644385,-23.17363]}},{"type":"Feature","properties":{"nome":"Jardim São Camilo","osm_id":5525876539,"osm_tipo":"node","tipo_lugar":"neighbourhood"},"geometry":{"type":"Point","coordinates":[-46.8641608,-23.178116]}},{"type":"Feature","properties":{"nome":"Parque Carolina","osm_id":5525876540,"osm_tipo":"node","tipo_lugar":"neighbourhood"},"geometry":{"type":"Point","coordinates":[-46.8611825,-23.1761809]}},{"type":"Feature","properties":{"nome":"Vila Rossi","osm_id":5525876541,"osm_tipo":"node","tipo_lugar":"neighbourhood"},"geometry":{"type":"Point","coordinates":[-46.8618761,-23.1772741]}},{"type":"Feature","properties":{"nome":"Jardim Roma","osm_id":5525885464,"osm_tipo":"node","tipo_lugar":"neighbourhood"},"geometry":{"type":"Point","coordinates":[-46.8581954,-23.1796296]}},{"type":"Feature","properties":{"nome":"Jardim Angela","osm_id":5525896922,"osm_tipo":"node","tipo_lugar":"neighbourhood"},"geometry":{"type":"Point","coordinates":[-46.8656084,-23.1798045]}},{"type":"Feature","properties":{"nome":"Vila Nossa Senhora Aparecida","osm_id":5525896923,"osm_tipo":"node","tipo_lugar":"neighbourhood"},"geometry":{"type":"Point","coordinates":[-46.8686997,-23.180892]}},{"type":"Feature","properties":{"nome":"Vila Leme","osm_id":5525896924,"osm_tipo":"node","tipo_lugar":"neighbourhood"},"geometry":{"type":"Point","coordinates":[-46.8704976,-23.1811002]}},{"type":"Feature","properties":{"nome":"Jardim Boa Vista","osm_id":5525896925,"osm_tipo":"node","tipo_lugar":"neighbourhood"},"geometry":{"type":"Point","coordinates":[-46.8682042,-23.1830262]}},{"type":"Feature","properties":{"nome":"Vila São João Batista","osm_id":5525896926,"osm_tipo":"node","tipo_lugar":"neighbourhood"},"geometry":{"type":"Point","coordinates":[-46.8660524,-23.1835988]}},{"type":"Feature","properties":{"nome":"Jardim São Miguel","osm_id":5525896927,"osm_tipo":"node","tipo_lugar":"neighbourhood"},"geometry":{"type":"Point","coordinates":[-46.869903,-23.1852906]}},{"type":"Feature","properties":{"nome":"Vila Joana","osm_id":5525896928,"osm_tipo":"node","tipo_lugar":"neighbourhood"},"geometry":{"type":"Point","coordinates":[-46.8730175,-23.1830392]}},{"type":"Feature","properties":{"nome":"Jardim Santana","osm_id":5525896929,"osm_tipo":"node","tipo_lugar":"neighbourhood"},"geometry":{"type":"Point","coordinates":[-46.8683175,-23.186657]}},{"type":"Feature","properties":{"nome":"Jardim Pacaembu","osm_id":5525896930,"osm_tipo":"node","tipo_lugar":"neighbourhood"},"geometry":{"type":"Point","coordinates":[-46.8631219,-23.186683]}},{"type":"Feature","properties":{"nome":"Jardim Adélia","osm_id":5525896931,"osm_tipo":"node","tipo_lugar":"neighbourhood"},"geometry":{"type":"Point","coordinates":[-46.8570628,-23.1850043]}},{"type":"Feature","properties":{"nome":"Jardim Dona Donata de Jesus","osm_id":5525896933,"osm_tipo":"node","tipo_lugar":"neighbourhood"},"geometry":{"type":"Point","coordinates":[-46.8586767,-23.1822194]}},{"type":"Feature","properties":{"nome":"Ilha Verde","osm_id":5525948069,"osm_tipo":"node","tipo_lugar":"neighbourhood"},"geometry":{"type":"Point","coordinates":[-46.8747588,-23.1728622]}},{"type":"Feature","properties":{"nome":"Chácaras Alvorada","osm_id":5525948070,"osm_tipo":"node","tipo_lugar":"neighbourhood"},"geometry":{"type":"Point","coordinates":[-46.8719558,-23.1740725]}},{"type":"Feature","properties":{"nome":"Jardim Vila Rica","osm_id":5525948071,"osm_tipo":"node","tipo_lugar":"neighbourhood"},"geometry":{"type":"Point","coordinates":[-46.8739802,-23.1744369]}},{"type":"Feature","properties":{"nome":"Jardim da Fonte","osm_id":5525948072,"osm_tipo":"node","tipo_lugar":"neighbourhood"},"geometry":{"type":"Point","coordinates":[-46.8729326,-23.1762329]}},{"type":"Feature","properties":{"nome":"Jardim Carlos Gomes","osm_id":5525948073,"osm_tipo":"node","tipo_lugar":"neighbourhood"},"geometry":{"type":"Point","coordinates":[-46.8776609,-23.1740205]}},{"type":"Feature","properties":{"nome":"Vila Caodaglio","osm_id":5525948074,"osm_tipo":"node","tipo_lugar":"neighbourhood"},"geometry":{"type":"Point","coordinates":[-46.8775194,-23.1775083]}},{"type":"Feature","properties":{"nome":"Vila Guilherme","osm_id":5525948075,"osm_tipo":"node","tipo_lugar":"neighbourhood"},"geometry":{"type":"Point","coordinates":[-46.8757073,-23.1786405]}},{"type":"Feature","properties":{"nome":"Vila Agostinho Zambon","osm_id":5525948076,"osm_tipo":"node","tipo_lugar":"neighbourhood"},"geometry":{"type":"Point","coordinates":[-46.8783688,-23.1799159]}},{"type":"Feature","properties":{"nome":"Vila Palma","osm_id":5525954285,"osm_tipo":"node","tipo_lugar":"neighbourhood"},"geometry":{"type":"Point","coordinates":[-46.8810161,-23.1711052]}},{"type":"Feature","properties":{"nome":"Vila Savieto","osm_id":5525954286,"osm_tipo":"node","tipo_lugar":"neighbourhood"},"geometry":{"type":"Point","coordinates":[-46.8821486,-23.1714045]}},{"type":"Feature","properties":{"nome":"Jardim Danúbio","osm_id":5525954287,"osm_tipo":"node","tipo_lugar":"neighbourhood"},"geometry":{"type":"Point","coordinates":[-46.8833803,-23.172693]}},{"type":"Feature","properties":{"nome":"Vila Margarida","osm_id":5525954288,"osm_tipo":"node","tipo_lugar":"neighbourhood"},"geometry":{"type":"Point","coordinates":[-46.8910816,-23.1718861]}},{"type":"Feature","properties":{"nome":"Jardim Liberdade","osm_id":5525954289,"osm_tipo":"node","tipo_lugar":"neighbourhood"},"geometry":{"type":"Point","coordinates":[-46.8885617,-23.1699078]}},{"type":"Feature","properties":{"nome":"Jardim Marco Leite","osm_id":5525954290,"osm_tipo":"node","tipo_lugar":"neighbourhood"},"geometry":{"type":"Point","coordinates":[-46.8876132,-23.1690228]}},{"type":"Feature","properties":{"nome":"Jardim Rio Branco","osm_id":5525954291,"osm_tipo":"node","tipo_lugar":"neighbourhood"},"geometry":{"type":"Point","coordinates":[-46.888225,-23.1711844]}},{"type":"Feature","properties":{"nome":"Vila Liberdade","osm_id":5525955215,"osm_tipo":"node","tipo_lugar":"neighbourhood"},"geometry":{"type":"Point","coordinates":[-46.8840217,-23.1760852]}},{"type":"Feature","properties":{"nome":"Canterucci","osm_id":5525955216,"osm_tipo":"node","tipo_lugar":"neighbourhood"},"geometry":{"type":"Point","coordinates":[-46.8885609,-23.1777939]}},{"type":"Feature","properties":{"nome":"Jardim Tiradentes","osm_id":5525963210,"osm_tipo":"node","tipo_lugar":"neighbourhood"},"geometry":{"type":"Point","coordinates":[-46.8945385,-23.1718435]}},{"type":"Feature","properties":{"nome":"Jardim Fepasa","osm_id":5525963211,"osm_tipo":"node","tipo_lugar":"neighbourhood"},"geometry":{"type":"Point","coordinates":[-46.8975068,-23.1718981]}},{"type":"Feature","properties":{"nome":"Vila Galvão","osm_id":5525963212,"osm_tipo":"node","tipo_lugar":"neighbourhood"},"geometry":{"type":"Point","coordinates":[-46.8959899,-23.1680829]}},{"type":"Feature","properties":{"nome":"Jardim Florestal","osm_id":5525963213,"osm_tipo":"node","tipo_lugar":"neighbourhood"},"geometry":{"type":"Point","coordinates":[-46.8994768,-23.1647193]}},{"type":"Feature","properties":{"nome":"Residencial H","osm_id":5525963214,"osm_tipo":"node","tipo_lugar":"neighbourhood"},"geometry":{"type":"Point","coordinates":[-46.8972086,-23.1657342]}},{"type":"Feature","properties":{"nome":"Horto Florestal","osm_id":5525963215,"osm_tipo":"node","tipo_lugar":"neighbourhood"},"geometry":{"type":"Point","coordinates":[-46.8915451,-23.1657467]}},{"type":"Feature","properties":{"nome":"Vila Nambi","osm_id":5525969977,"osm_tipo":"node","tipo_lugar":"neighbourhood"},"geometry":{"type":"Point","coordinates":[-46.8634217,-23.1940532]}},{"type":"Feature","properties":{"nome":"Recanto Parrilo","osm_id":5525969978,"osm_tipo":"node","tipo_lugar":"neighbourhood"},"geometry":{"type":"Point","coordinates":[-46.8626997,-23.1915158]}},{"type":"Feature","properties":{"nome":"Parque Residencial República","osm_id":5525969979,"osm_tipo":"node","tipo_lugar":"neighbourhood"},"geometry":{"type":"Point","coordinates":[-46.860562,-23.1958229]}},{"type":"Feature","properties":{"nome":"Vila Ruy Barbosa","osm_id":5525969980,"osm_tipo":"node","tipo_lugar":"neighbourhood"},"geometry":{"type":"Point","coordinates":[-46.8566689,-23.1956928]}},{"type":"Feature","properties":{"nome":"Jardim Santa Rita de Cássia","osm_id":5525969981,"osm_tipo":"node","tipo_lugar":"neighbourhood"},"geometry":{"type":"Point","coordinates":[-46.8539366,-23.1889782]}},{"type":"Feature","properties":{"nome":"Jardim São Judas Tadeu","osm_id":5525969982,"osm_tipo":"node","tipo_lugar":"neighbourhood"},"geometry":{"type":"Point","coordinates":[-46.8523369,-23.1876769]}},{"type":"Feature","properties":{"nome":"Jardim Tamoio","osm_id":5525969983,"osm_tipo":"node","tipo_lugar":"neighbourhood"},"geometry":{"type":"Point","coordinates":[-46.85153,-23.1905918]}},{"type":"Feature","properties":{"nome":"Jardim Colonial","osm_id":5525975477,"osm_tipo":"node","tipo_lugar":"neighbourhood"},"geometry":{"type":"Point","coordinates":[-46.8538517,-23.178229]}},{"type":"Feature","properties":{"nome":"Jardim do Lírio","osm_id":5525975478,"osm_tipo":"node","tipo_lugar":"neighbourhood"},"geometry":{"type":"Point","coordinates":[-46.8528403,-23.1731545]}},{"type":"Feature","properties":{"nome":"Portal dos Imigrantes","osm_id":5525975479,"osm_tipo":"node","tipo_lugar":"neighbourhood"},"geometry":{"type":"Point","coordinates":[-46.8542764,-23.1732835]}},{"type":"Feature","properties":{"nome":"Parque Residencial Sabiá","osm_id":5525975480,"osm_tipo":"node","tipo_lugar":"neighbourhood"},"geometry":{"type":"Point","coordinates":[-46.8536393,-23.1746891]}},{"type":"Feature","properties":{"nome":"Jardim Caçula","osm_id":5525975481,"osm_tipo":"node","tipo_lugar":"neighbourhood"},"geometry":{"type":"Point","coordinates":[-46.8561734,-23.1737911]}},{"type":"Feature","properties":{"nome":"Jardim Neide Eliana","osm_id":5525979722,"osm_tipo":"node","tipo_lugar":"neighbourhood"},"geometry":{"type":"Point","coordinates":[-46.8523652,-23.1854907]}},{"type":"Feature","properties":{"nome":"Jardim das Verduras","osm_id":5525979723,"osm_tipo":"node","tipo_lugar":"neighbourhood"},"geometry":{"type":"Point","coordinates":[-46.8464771,-23.1828647]}},{"type":"Feature","properties":{"nome":"Jardim Itália","osm_id":5525979724,"osm_tipo":"node","tipo_lugar":"neighbourhood"},"geometry":{"type":"Point","coordinates":[-46.8443808,-23.1802332]}},{"type":"Feature","properties":{"nome":"Jardim das Carpas","osm_id":5525979725,"osm_tipo":"node","tipo_lugar":"neighbourhood"},"geometry":{"type":"Point","coordinates":[-46.846745,-23.1808578]}},{"type":"Feature","properties":{"nome":"Vila Joaquina","osm_id":5525979726,"osm_tipo":"node","tipo_lugar":"neighbourhood"},"geometry":{"type":"Point","coordinates":[-46.849548,-23.1806886]}},{"type":"Feature","properties":{"nome":"Jardim Sagrado Coração de Jesus","osm_id":5525979727,"osm_tipo":"node","tipo_lugar":"neighbourhood"},"geometry":{"type":"Point","coordinates":[-46.8498878,-23.1822633]}},{"type":"Feature","properties":{"nome":"Jardim Dom Bosco","osm_id":5525979728,"osm_tipo":"node","tipo_lugar":"neighbourhood"},"geometry":{"type":"Point","coordinates":[-46.8510486,-23.1808058]}},{"type":"Feature","properties":{"nome":"Loteamento Clorotilde Carvalho (Condomínio Nalini)","osm_id":5526002001,"osm_tipo":"node","tipo_lugar":"neighbourhood"},"geometry":{"type":"Point","coordinates":[-46.8462589,-23.1711124]}},{"type":"Feature","properties":{"nome":"Recanto das Palmeiras","osm_id":5526002002,"osm_tipo":"node","tipo_lugar":"neighbourhood"},"geometry":{"type":"Point","coordinates":[-46.8404209,-23.171232]}},{"type":"Feature","properties":{"nome":"Condomínio Quinta das Paineiras","osm_id":5526002005,"osm_tipo":"node","tipo_lugar":"neighbourhood"},"geometry":{"type":"Point","coordinates":[-46.8429903,-23.166119]}},{"type":"Feature","properties":{"nome":"Recanto Bardi","osm_id":5526002006,"osm_tipo":"node","tipo_lugar":"neighbourhood"},"geometry":{"type":"Point","coordinates":[-46.8415743,-23.1647749]}},{"type":"Feature","properties":{"nome":"Nami Azém","osm_id":5526002007,"osm_tipo":"node","tipo_lugar":"neighbourhood"},"geometry":{"type":"Point","coordinates":[-46.838437,-23.1670459]}},{"type":"Feature","properties":{"nome":"Núcleo Residencial Nami Azem","osm_id":5526002008,"osm_tipo":"node","tipo_lugar":"neighbourhood"},"geometry":{"type":"Point","coordinates":[-46.8398843,-23.1674496]}},{"type":"Feature","properties":{"nome":"Fazenda Granja Marajoara","osm_id":5526018173,"osm_tipo":"node","tipo_lugar":"neighbourhood"},"geometry":{"type":"Point","coordinates":[-46.7939657,-23.1857681]}},{"type":"Feature","properties":{"nome":"Jardim Marajoara","osm_id":5526018174,"osm_tipo":"node","tipo_lugar":"neighbourhood"},"geometry":{"type":"Point","coordinates":[-46.7925925,-23.181685]}},{"type":"Feature","properties":{"nome":"Recanto São Vicente II","osm_id":5526018175,"osm_tipo":"node","tipo_lugar":"neighbourhood"},"geometry":{"type":"Point","coordinates":[-46.799931,-23.1841506]}},{"type":"Feature","properties":{"nome":"Condomínio Recanto da Prata","osm_id":5526018176,"osm_tipo":"node","tipo_lugar":"neighbourhood"},"geometry":{"type":"Point","coordinates":[-46.7985362,-23.1810933]}},{"type":"Feature","properties":{"nome":"Parque dos Manacás","osm_id":5526018177,"osm_tipo":"node","tipo_lugar":"neighbourhood"},"geometry":{"type":"Point","coordinates":[-46.7957212,-23.1756094]}},{"type":"Feature","properties":{"nome":"Loteamento Romano","osm_id":5526018178,"osm_tipo":"node","tipo_lugar":"neighbourhood"},"geometry":{"type":"Point","coordinates":[-46.8050258,-23.189323]}},{"type":"Feature","properties":{"nome":"Estância Suiça","osm_id":5526022031,"osm_tipo":"node","tipo_lugar":"neighbourhood"},"geometry":{"type":"Point","coordinates":[-46.8102615,-23.184175]}},{"type":"Feature","properties":{"nome":"Estância Alpina","osm_id":5526022032,"osm_tipo":"node","tipo_lugar":"neighbourhood"},"geometry":{"type":"Point","coordinates":[-46.8070858,-23.1868575]}},{"type":"Feature","properties":{"nome":"Fazenda Santa Isabel","osm_id":5526034666,"osm_tipo":"node","tipo_lugar":"neighbourhood"},"geometry":{"type":"Point","coordinates":[-46.8052833,-23.1666384]}},{"type":"Feature","properties":{"nome":"Condomínio Terra de Santa Cruz","osm_id":5526034667,"osm_tipo":"node","tipo_lugar":"neighbourhood"},"geometry":{"type":"Point","coordinates":[-46.8076437,-23.1728327]}},{"type":"Feature","properties":{"nome":"Sítio Barbosa e Costa","osm_id":5526034668,"osm_tipo":"node","tipo_lugar":"neighbourhood"},"geometry":{"type":"Point","coordinates":[-46.8120639,-23.175693]}},{"type":"Feature","properties":{"nome":"Chácara Bom Jesus","osm_id":5526034669,"osm_tipo":"node","tipo_lugar":"neighbourhood"},"geometry":{"type":"Point","coordinates":[-46.8190806,-23.1730102]}},{"type":"Feature","properties":{"nome":"Terras de Santa Cruz","osm_id":5526035901,"osm_tipo":"node","tipo_lugar":"neighbourhood"},"geometry":{"type":"Point","coordinates":[-46.828522,-23.1727538]}},{"type":"Feature","properties":{"nome":"Loteamento Chácara São Vicente I","osm_id":5526035902,"osm_tipo":"node","tipo_lugar":"neighbourhood"},"geometry":{"type":"Point","coordinates":[-46.8248098,-23.1650405]}},{"type":"Feature","properties":{"nome":"Chácara São Vicente II","osm_id":5526035903,"osm_tipo":"node","tipo_lugar":"neighbourhood"},"geometry":{"type":"Point","coordinates":[-46.8238227,-23.1635412]}},{"type":"Feature","properties":{"nome":"Vale Verde","osm_id":5526035904,"osm_tipo":"node","tipo_lugar":"neighbourhood"},"geometry":{"type":"Point","coordinates":[-46.8180506,-23.1635017]}},{"type":"Feature","properties":{"nome":"Fazenda Campo Verde","osm_id":5526041238,"osm_tipo":"node","tipo_lugar":"neighbourhood"},"geometry":{"type":"Point","coordinates":[-46.8013995,-23.1527693]}},{"type":"Feature","properties":{"nome":"Chácaras São Sebastião","osm_id":5526047855,"osm_tipo":"node","tipo_lugar":"neighbourhood"},"geometry":{"type":"Point","coordinates":[-46.8200247,-23.1409903]}},{"type":"Feature","properties":{"nome":"Loteamento Guilhen","osm_id":5526047856,"osm_tipo":"node","tipo_lugar":"neighbourhood"},"geometry":{"type":"Point","coordinates":[-46.8156045,-23.1385634]}},{"type":"Feature","properties":{"nome":"Loteamento das Roseiras","osm_id":5526047857,"osm_tipo":"node","tipo_lugar":"neighbourhood"},"geometry":{"type":"Point","coordinates":[-46.8135874,-23.1363337]}},{"type":"Feature","properties":{"nome":"Loteamento Fazendinha","osm_id":5526047858,"osm_tipo":"node","tipo_lugar":"neighbourhood"},"geometry":{"type":"Point","coordinates":[-46.8096607,-23.1336106]}},{"type":"Feature","properties":{"nome":"Residencial Primavera","osm_id":5526047859,"osm_tipo":"node","tipo_lugar":"neighbourhood"},"geometry":{"type":"Point","coordinates":[-46.8096178,-23.1320321]}},{"type":"Feature","properties":{"nome":"Chácara da Mata","osm_id":5526047860,"osm_tipo":"node","tipo_lugar":"neighbourhood"},"geometry":{"type":"Point","coordinates":[-46.8117421,-23.129526]}},{"type":"Feature","properties":{"nome":"Loteamento Santa Rosa II","osm_id":5526047861,"osm_tipo":"node","tipo_lugar":"neighbourhood"},"geometry":{"type":"Point","coordinates":[-46.81127,-23.1312428]}},{"type":"Feature","properties":{"nome":"Loteamento Adelina","osm_id":5526055034,"osm_tipo":"node","tipo_lugar":"neighbourhood"},"geometry":{"type":"Point","coordinates":[-46.807751,-23.1203302]}},{"type":"Feature","properties":{"nome":"Chácaras Bosque dos Pinheirinhos","osm_id":5526059571,"osm_tipo":"node","tipo_lugar":"neighbourhood"},"geometry":{"type":"Point","coordinates":[-46.8916323,-23.1323769]}},{"type":"Feature","properties":{"nome":"Chácara Betinha","osm_id":5526059572,"osm_tipo":"node","tipo_lugar":"neighbourhood"},"geometry":{"type":"Point","coordinates":[-46.8875216,-23.1123154]}},{"type":"Feature","properties":{"nome":"Chácaras Monterey","osm_id":5526059573,"osm_tipo":"node","tipo_lugar":"neighbourhood"},"geometry":{"type":"Point","coordinates":[-46.8918989,-23.1126904]}},{"type":"Feature","properties":{"nome":"Loteamento Ponderosa","osm_id":5526059574,"osm_tipo":"node","tipo_lugar":"neighbourhood"},"geometry":{"type":"Point","coordinates":[-46.8988491,-23.1121461]}},{"type":"Feature","properties":{"nome":"Sítio dos Companheiros","osm_id":5526059575,"osm_tipo":"node","tipo_lugar":"neighbourhood"},"geometry":{"type":"Point","coordinates":[-46.90236,-23.1142554]}},{"type":"Feature","properties":{"nome":"Vila Ponte de Campinas","osm_id":5526113124,"osm_tipo":"node","tipo_lugar":"neighbourhood"},"geometry":{"type":"Point","coordinates":[-46.8973144,-23.1766651]}},{"type":"Feature","properties":{"nome":"Vila Bandeirantes","osm_id":5526113125,"osm_tipo":"node","tipo_lugar":"neighbourhood"},"geometry":{"type":"Point","coordinates":[-46.9031184,-23.1692576]}},{"type":"Feature","properties":{"nome":"Cidade Luiza","osm_id":5526113126,"osm_tipo":"node","tipo_lugar":"neighbourhood"},"geometry":{"type":"Point","coordinates":[-46.9043869,-23.1722476]}},{"type":"Feature","properties":{"nome":"Jardim Shangai","osm_id":5526137691,"osm_tipo":"node","tipo_lugar":"neighbourhood"},"geometry":{"type":"Point","coordinates":[-46.9133472,-23.17304]}},{"type":"Feature","properties":{"nome":"Cidade Jardim","osm_id":5526137692,"osm_tipo":"node","tipo_lugar":"neighbourhood"},"geometry":{"type":"Point","coordinates":[-46.9106314,-23.1725616]}},{"type":"Feature","properties":{"nome":"Jardim Eldorado","osm_id":5526137693,"osm_tipo":"node","tipo_lugar":"neighbourhood"},"geometry":{"type":"Point","coordinates":[-46.9091028,-23.1731297]}},{"type":"Feature","properties":{"nome":"Jardim Hortulania","osm_id":5526137694,"osm_tipo":"node","tipo_lugar":"neighbourhood"},"geometry":{"type":"Point","coordinates":[-46.9087613,-23.1699902]}},{"type":"Feature","properties":{"nome":"Vila Suzana","osm_id":5526137695,"osm_tipo":"node","tipo_lugar":"neighbourhood"},"geometry":{"type":"Point","coordinates":[-46.9136887,-23.1691829]}},{"type":"Feature","properties":{"nome":"Cidade Santos Dumont","osm_id":5526137696,"osm_tipo":"node","tipo_lugar":"neighbourhood"},"geometry":{"type":"Point","coordinates":[-46.9103875,-23.1671048]}},{"type":"Feature","properties":{"nome":"Chácaras das Vivendas","osm_id":5527626217,"osm_tipo":"node","tipo_lugar":"neighbourhood"},"geometry":{"type":"Point","coordinates":[-46.9402601,-23.1123683]}},{"type":"Feature","properties":{"nome":"Residencial Vista Alegre","osm_id":5527642705,"osm_tipo":"node","tipo_lugar":"neighbourhood"},"geometry":{"type":"Point","coordinates":[-46.9387581,-23.1158614]}},{"type":"Feature","properties":{"nome":"Loteamento Portal dos Fernandes","osm_id":5527642706,"osm_tipo":"node","tipo_lugar":"neighbourhood"},"geometry":{"type":"Point","coordinates":[-46.9454958,-23.123321]}},{"type":"Feature","properties":{"nome":"Jardim Celeste","osm_id":5527642707,"osm_tipo":"node","tipo_lugar":"neighbourhood"},"geometry":{"type":"Point","coordinates":[-46.9321277,-23.1202228]}},{"type":"Feature","properties":{"nome":"Condomínio Corrupira I","osm_id":5527642708,"osm_tipo":"node","tipo_lugar":"neighbourhood"},"geometry":{"type":"Point","coordinates":[-46.9268062,-23.1176376]}},{"type":"Feature","properties":{"nome":"Reserva da Mata","osm_id":5527642709,"osm_tipo":"node","tipo_lugar":"neighbourhood"},"geometry":{"type":"Point","coordinates":[-46.9188843,-23.1193791]}},{"type":"Feature","properties":{"nome":"Loteamento Bosques do Currupira","osm_id":5527642710,"osm_tipo":"node","tipo_lugar":"neighbourhood"},"geometry":{"type":"Point","coordinates":[-46.9225361,-23.1205977]}},{"type":"Feature","properties":{"nome":"Bella Vittá","osm_id":5527642711,"osm_tipo":"node","tipo_lugar":"neighbourhood"},"geometry":{"type":"Point","coordinates":[-46.9259264,-23.1235183]}},{"type":"Feature","properties":{"nome":"Jardim Corrupira","osm_id":5527642712,"osm_tipo":"node","tipo_lugar":"neighbourhood"},"geometry":{"type":"Point","coordinates":[-46.9342234,-23.1258442]}},{"type":"Feature","properties":{"nome":"Vista Alegre","osm_id":5527642713,"osm_tipo":"node","tipo_lugar":"neighbourhood"},"geometry":{"type":"Point","coordinates":[-46.9219996,-23.1310762]}},{"type":"Feature","properties":{"nome":"Loteamento Santa Rosa","osm_id":5527642714,"osm_tipo":"node","tipo_lugar":"neighbourhood"},"geometry":{"type":"Point","coordinates":[-46.9195749,-23.1271098]}},{"type":"Feature","properties":{"nome":"Loteamento Boliviano","osm_id":5527642715,"osm_tipo":"node","tipo_lugar":"neighbourhood"},"geometry":{"type":"Point","coordinates":[-46.9126012,-23.1154273]}},{"type":"Feature","properties":{"nome":"Loteamento Kaip (Chácara da Ponta)","osm_id":5527751951,"osm_tipo":"node","tipo_lugar":"neighbourhood"},"geometry":{"type":"Point","coordinates":[-46.9167687,-23.1121386]}},{"type":"Feature","properties":{"nome":"Loteamento Kaip - Gleba B-2","osm_id":5527751952,"osm_tipo":"node","tipo_lugar":"neighbourhood"},"geometry":{"type":"Point","coordinates":[-46.9170518,-23.1103288]}},{"type":"Feature","properties":{"nome":"Loteamento Kaip (Associação de Moradores do Bairro Currupira)","osm_id":5527751953,"osm_tipo":"node","tipo_lugar":"neighbourhood"},"geometry":{"type":"Point","coordinates":[-46.9187062,-23.1090599]}},{"type":"Feature","properties":{"nome":"Loteamento Kaip (Área A e B)","osm_id":5527751954,"osm_tipo":"node","tipo_lugar":"neighbourhood"},"geometry":{"type":"Point","coordinates":[-46.9175582,-23.1086652]}},{"type":"Feature","properties":{"nome":"Loteamento Kaip B2 (Parque Romano)","osm_id":5527751955,"osm_tipo":"node","tipo_lugar":"neighbourhood"},"geometry":{"type":"Point","coordinates":[-46.9188886,-23.1075501]}},{"type":"Feature","properties":{"nome":"Sítio Fernandes (Pedra Branca)","osm_id":5527772645,"osm_tipo":"node","tipo_lugar":"neighbourhood"},"geometry":{"type":"Point","coordinates":[-46.9515674,-23.1259479]}},{"type":"Feature","properties":{"nome":"Vila Condini","osm_id":5527772646,"osm_tipo":"node","tipo_lugar":"neighbourhood"},"geometry":{"type":"Point","coordinates":[-46.9646374,-23.1185456]}},{"type":"Feature","properties":{"nome":"Loteamento Érica","osm_id":5527772647,"osm_tipo":"node","tipo_lugar":"neighbourhood"},"geometry":{"type":"Point","coordinates":[-46.9733538,-23.1266515]}},{"type":"Feature","properties":{"nome":"Chácara São Luiz I","osm_id":5527795635,"osm_tipo":"node","tipo_lugar":"neighbourhood"},"geometry":{"type":"Point","coordinates":[-46.9811269,-23.1361626]}},{"type":"Feature","properties":{"nome":"Loteamento Santa Maria","osm_id":5527823338,"osm_tipo":"node","tipo_lugar":"neighbourhood"},"geometry":{"type":"Point","coordinates":[-46.9691609,-23.1481183]}},{"type":"Feature","properties":{"nome":"Loteamento Jardim Ritoni","osm_id":5527823339,"osm_tipo":"node","tipo_lugar":"neighbourhood"},"geometry":{"type":"Point","coordinates":[-46.9686378,-23.1496813]}},{"type":"Feature","properties":{"nome":"Jardim das Tulipas","osm_id":5527823340,"osm_tipo":"node","tipo_lugar":"neighbourhood"},"geometry":{"type":"Point","coordinates":[-46.9641173,-23.1525325]}},{"type":"Feature","properties":{"nome":"Chácaras de Recreio Santa Camila","osm_id":5527823341,"osm_tipo":"node","tipo_lugar":"neighbourhood"},"geometry":{"type":"Point","coordinates":[-46.9618196,-23.1576164]}},{"type":"Feature","properties":{"nome":"Villaggio de San Gimignano","osm_id":5528370407,"osm_tipo":"node","tipo_lugar":"neighbourhood"},"geometry":{"type":"Point","coordinates":[-46.9514588,-23.1418006]}},{"type":"Feature","properties":{"nome":"Loteamento Residencial Água Doce (Avenida da Uva)","osm_id":5528384300,"osm_tipo":"node","tipo_lugar":"neighbourhood"},"geometry":{"type":"Point","coordinates":[-46.950118,-23.1370338]}},{"type":"Feature","properties":{"nome":"Condomínio Água Doce \"Loteamento Pilon\"","osm_id":5528384301,"osm_tipo":"node","tipo_lugar":"neighbourhood"},"geometry":{"type":"Point","coordinates":[-46.9506843,-23.1384137]}},{"type":"Feature","properties":{"nome":"Núcleo Residencial Água Doce","osm_id":5528384302,"osm_tipo":"node","tipo_lugar":"neighbourhood"},"geometry":{"type":"Point","coordinates":[-46.9464514,-23.1397546]}},{"type":"Feature","properties":{"nome":"Água Doce","osm_id":5528384303,"osm_tipo":"node","tipo_lugar":"neighbourhood"},"geometry":{"type":"Point","coordinates":[-46.9496509,-23.1409392]}},{"type":"Feature","properties":{"nome":"Água Doce 1-D","osm_id":5528384304,"osm_tipo":"node","tipo_lugar":"neighbourhood"},"geometry":{"type":"Point","coordinates":[-46.9488439,-23.1398457]}},{"type":"Feature","properties":{"nome":"Água Doce 1-C","osm_id":5528384305,"osm_tipo":"node","tipo_lugar":"neighbourhood"},"geometry":{"type":"Point","coordinates":[-46.9465081,-23.140835]}},{"type":"Feature","properties":{"nome":"Loteamento Água Doce 1 A","osm_id":5528384306,"osm_tipo":"node","tipo_lugar":"neighbourhood"},"geometry":{"type":"Point","coordinates":[-46.9473716,-23.141538]}},{"type":"Feature","properties":{"nome":"Residencial Serra Azul","osm_id":5528421630,"osm_tipo":"node","tipo_lugar":"neighbourhood"},"geometry":{"type":"Point","coordinates":[-46.9556675,-23.1402232]}},{"type":"Feature","properties":{"nome":"Residencial Água Viva","osm_id":5528421631,"osm_tipo":"node","tipo_lugar":"neighbourhood"},"geometry":{"type":"Point","coordinates":[-46.9566585,-23.1388303]}},{"type":"Feature","properties":{"nome":"Loteamento Pellizari I","osm_id":5528421632,"osm_tipo":"node","tipo_lugar":"neighbourhood"},"geometry":{"type":"Point","coordinates":[-46.9573238,-23.1442066]}},{"type":"Feature","properties":{"nome":"Chácara Santa Maria","osm_id":5528421633,"osm_tipo":"node","tipo_lugar":"neighbourhood"},"geometry":{"type":"Point","coordinates":[-46.9586263,-23.1451699]}},{"type":"Feature","properties":{"nome":"Loteamento Mangelini","osm_id":5528421634,"osm_tipo":"node","tipo_lugar":"neighbourhood"},"geometry":{"type":"Point","coordinates":[-46.9591925,-23.1476952]}},{"type":"Feature","properties":{"nome":"Conjunto Habitacional Jundiaí L","osm_id":5528426340,"osm_tipo":"node","tipo_lugar":"neighbourhood"},"geometry":{"type":"Point","coordinates":[-46.9689254,-23.1663379]}},{"type":"Feature","properties":{"nome":"Parque Residencial Eloy Chaves","osm_id":5528437896,"osm_tipo":"node","tipo_lugar":"neighbourhood"},"geometry":{"type":"Point","coordinates":[-46.9639153,-23.1850879]}},{"type":"Feature","properties":{"nome":"Jardim Tannus","osm_id":5528437897,"osm_tipo":"node","tipo_lugar":"neighbourhood"},"geometry":{"type":"Point","coordinates":[-46.9584508,-23.1832269]}},{"type":"Feature","properties":{"nome":"Jardim Ermida I","osm_id":5528437898,"osm_tipo":"node","tipo_lugar":"neighbourhood"},"geometry":{"type":"Point","coordinates":[-46.9678934,-23.187183]}},{"type":"Feature","properties":{"nome":"Jardim Ermida II","osm_id":5528437899,"osm_tipo":"node","tipo_lugar":"neighbourhood"},"geometry":{"type":"Point","coordinates":[-46.963165,-23.1892781]}},{"type":"Feature","properties":{"nome":"Reserva da Ermida","osm_id":5528437901,"osm_tipo":"node","tipo_lugar":"neighbourhood"},"geometry":{"type":"Point","coordinates":[-46.9672684,-23.1957701]}},{"type":"Feature","properties":{"nome":"Multivias I","osm_id":5528437902,"osm_tipo":"node","tipo_lugar":"neighbourhood"},"geometry":{"type":"Point","coordinates":[-46.9756493,-23.190461]}},{"type":"Feature","properties":{"nome":"Multivias II","osm_id":5528437903,"osm_tipo":"node","tipo_lugar":"neighbourhood"},"geometry":{"type":"Point","coordinates":[-46.9742053,-23.1974097]}},{"type":"Feature","properties":{"nome":"Chácaras Três Corações","osm_id":5528444395,"osm_tipo":"node","tipo_lugar":"neighbourhood"},"geometry":{"type":"Point","coordinates":[-46.9961139,-23.1894391]}},{"type":"Feature","properties":{"nome":"Jardim Flora","osm_id":5528444396,"osm_tipo":"node","tipo_lugar":"neighbourhood"},"geometry":{"type":"Point","coordinates":[-46.9997808,-23.1858728]}},{"type":"Feature","properties":{"nome":"Chácara das Palmeiras","osm_id":5528444397,"osm_tipo":"node","tipo_lugar":"neighbourhood"},"geometry":{"type":"Point","coordinates":[-46.9995694,-23.1825393]}},{"type":"Feature","properties":{"nome":"Vila Pires","osm_id":5528449872,"osm_tipo":"node","tipo_lugar":"neighbourhood"},"geometry":{"type":"Point","coordinates":[-46.9907121,-23.1900576]}},{"type":"Feature","properties":{"nome":"Jardim São Paulo","osm_id":5528449873,"osm_tipo":"node","tipo_lugar":"neighbourhood"},"geometry":{"type":"Point","coordinates":[-46.9862654,-23.1879706]}},{"type":"Feature","properties":{"nome":"Chácaras Planalto","osm_id":5528449874,"osm_tipo":"node","tipo_lugar":"neighbourhood"},"geometry":{"type":"Point","coordinates":[-46.9853963,-23.1880396]}},{"type":"Feature","properties":{"nome":"Arraial dos Souzas","osm_id":5528449875,"osm_tipo":"node","tipo_lugar":"neighbourhood"},"geometry":{"type":"Point","coordinates":[-46.9838943,-23.1876155]}},{"type":"Feature","properties":{"nome":"Vila Nova Medeiros","osm_id":5528460242,"osm_tipo":"node","tipo_lugar":"neighbourhood"},"geometry":{"type":"Point","coordinates":[-46.9886902,-23.1829429]}},{"type":"Feature","properties":{"nome":"Chácara Nossa Senhora de Fátima","osm_id":5528460244,"osm_tipo":"node","tipo_lugar":"neighbourhood"},"geometry":{"type":"Point","coordinates":[-46.990853,-23.1866352]}},{"type":"Feature","properties":{"nome":"Jardim Tereza Cristina","osm_id":5528479314,"osm_tipo":"node","tipo_lugar":"neighbourhood"},"geometry":{"type":"Point","coordinates":[-47.0007588,-23.1780835]}},{"type":"Feature","properties":{"nome":"Chácaras Segre","osm_id":5528479315,"osm_tipo":"node","tipo_lugar":"neighbourhood"},"geometry":{"type":"Point","coordinates":[-46.993284,-23.1809856]}},{"type":"Feature","properties":{"nome":"Condomínio Portal dos Medeiros","osm_id":5528486936,"osm_tipo":"node","tipo_lugar":"neighbourhood"},"geometry":{"type":"Point","coordinates":[-47.0091821,-23.2003098]}},{"type":"Feature","properties":{"nome":"Loteamento Recanto Cambaiúva","osm_id":5528486937,"osm_tipo":"node","tipo_lugar":"neighbourhood"},"geometry":{"type":"Point","coordinates":[-47.0060393,-23.2035498]}},{"type":"Feature","properties":{"nome":"Vale dos Cebrantes","osm_id":5528486938,"osm_tipo":"node","tipo_lugar":"neighbourhood"},"geometry":{"type":"Point","coordinates":[-47.0032362,-23.2058528]}},{"type":"Feature","properties":{"nome":"Loteamento Barcaro","osm_id":5528549638,"osm_tipo":"node","tipo_lugar":"neighbourhood"},"geometry":{"type":"Point","coordinates":[-46.8406782,-23.2705834]}},{"type":"Feature","properties":{"nome":"Cristal Parque","osm_id":5528549639,"osm_tipo":"node","tipo_lugar":"neighbourhood"},"geometry":{"type":"Point","coordinates":[-46.8394765,-23.2634277]}},{"type":"Feature","properties":{"nome":"Viveiro dos Pássaros","osm_id":5528549640,"osm_tipo":"node","tipo_lugar":"neighbourhood"},"geometry":{"type":"Point","coordinates":[-46.8535313,-23.2601947]}},{"type":"Feature","properties":{"nome":"Condomínio Portal da Paineira","osm_id":5528549641,"osm_tipo":"node","tipo_lugar":"neighbourhood"},"geometry":{"type":"Point","coordinates":[-46.8472013,-23.2523879]}},{"type":"Feature","properties":{"nome":"Jardim Vale Verde","osm_id":5528549644,"osm_tipo":"node","tipo_lugar":"neighbourhood"},"geometry":{"type":"Point","coordinates":[-46.8595452,-23.2477274]}},{"type":"Feature","properties":{"nome":"Loteamento Bola Branca","osm_id":5528600045,"osm_tipo":"node","tipo_lugar":"neighbourhood"},"geometry":{"type":"Point","coordinates":[-46.8738517,-23.247124]}},{"type":"Feature","properties":{"nome":"Condomínio Santo Antônio I","osm_id":5528600047,"osm_tipo":"node","tipo_lugar":"neighbourhood"},"geometry":{"type":"Point","coordinates":[-46.8901381,-23.2534328]}},{"type":"Feature","properties":{"nome":"Condomínio Santo Antônio II","osm_id":5528600048,"osm_tipo":"node","tipo_lugar":"neighbourhood"},"geometry":{"type":"Point","coordinates":[-46.8920908,-23.2532751]}},{"type":"Feature","properties":{"nome":"Jardim Ipanema","osm_id":5528610060,"osm_tipo":"node","tipo_lugar":"neighbourhood"},"geometry":{"type":"Point","coordinates":[-46.8861899,-23.232928]}},{"type":"Feature","properties":{"nome":"Jardim Copacabana","osm_id":5528610061,"osm_tipo":"node","tipo_lugar":"neighbourhood"},"geometry":{"type":"Point","coordinates":[-46.8877992,-23.2311534]}},{"type":"Feature","properties":{"nome":"Residencial Paracatu","osm_id":5528610062,"osm_tipo":"node","tipo_lugar":"neighbourhood"},"geometry":{"type":"Point","coordinates":[-46.8861255,-23.2298915]}},{"type":"Feature","properties":{"nome":"Colina dos Cristais","osm_id":5528610063,"osm_tipo":"node","tipo_lugar":"neighbourhood"},"geometry":{"type":"Point","coordinates":[-46.8788514,-23.2292802]}},{"type":"Feature","properties":{"nome":"Jardim Martins","osm_id":5528610064,"osm_tipo":"node","tipo_lugar":"neighbourhood"},"geometry":{"type":"Point","coordinates":[-46.8813697,-23.2296959]}},{"type":"Feature","properties":{"nome":"Conjunto Dom Gabriel Paulino Bueno Couto","osm_id":5528610065,"osm_tipo":"node","tipo_lugar":"neighbourhood"},"geometry":{"type":"Point","coordinates":[-46.8783793,-23.227545]}},{"type":"Feature","properties":{"nome":"Jardim Nogueira","osm_id":5528610066,"osm_tipo":"node","tipo_lugar":"neighbourhood"},"geometry":{"type":"Point","coordinates":[-46.8816367,-23.2270031]}},{"type":"Feature","properties":{"nome":"Vila Maringá","osm_id":5528610067,"osm_tipo":"node","tipo_lugar":"neighbourhood"},"geometry":{"type":"Point","coordinates":[-46.8783149,-23.2256323]}},{"type":"Feature","properties":{"nome":"Vila Alati","osm_id":5528616763,"osm_tipo":"node","tipo_lugar":"neighbourhood"},"geometry":{"type":"Point","coordinates":[-46.8809757,-23.2248041]}},{"type":"Feature","properties":{"nome":"Vila Josefina","osm_id":5528616764,"osm_tipo":"node","tipo_lugar":"neighbourhood"},"geometry":{"type":"Point","coordinates":[-46.8842158,-23.2253759]}},{"type":"Feature","properties":{"nome":"Vila Comercial","osm_id":5528616765,"osm_tipo":"node","tipo_lugar":"neighbourhood"},"geometry":{"type":"Point","coordinates":[-46.8831644,-23.2222801]}},{"type":"Feature","properties":{"nome":"Vila Nova Jundiaí","osm_id":5528616766,"osm_tipo":"node","tipo_lugar":"neighbourhood"},"geometry":{"type":"Point","coordinates":[-46.8826708,-23.2195391]}},{"type":"Feature","properties":{"nome":"Parque Residencial das Flores I","osm_id":5528616767,"osm_tipo":"node","tipo_lugar":"neighbourhood"},"geometry":{"type":"Point","coordinates":[-46.8845055,-23.2205053]}},{"type":"Feature","properties":{"nome":"Jardim Palermo","osm_id":5528616768,"osm_tipo":"node","tipo_lugar":"neighbourhood"},"geometry":{"type":"Point","coordinates":[-46.8861899,-23.2239167]}},{"type":"Feature","properties":{"nome":"Vila Nova Jundiaínópolis","osm_id":5528616769,"osm_tipo":"node","tipo_lugar":"neighbourhood"},"geometry":{"type":"Point","coordinates":[-46.8850097,-23.2221815]}},{"type":"Feature","properties":{"nome":"Vila Pedra Bela","osm_id":5528616770,"osm_tipo":"node","tipo_lugar":"neighbourhood"},"geometry":{"type":"Point","coordinates":[-46.8878421,-23.2224181]}},{"type":"Feature","properties":{"nome":"Parque Residencial das Flores II","osm_id":5528616771,"osm_tipo":"node","tipo_lugar":"neighbourhood"},"geometry":{"type":"Point","coordinates":[-46.8839798,-23.2198349]}},{"type":"Feature","properties":{"nome":"Vila Jundiaínópolis","osm_id":5528631726,"osm_tipo":"node","tipo_lugar":"neighbourhood"},"geometry":{"type":"Point","coordinates":[-46.8851431,-23.2127522]}},{"type":"Feature","properties":{"nome":"Vila Edith","osm_id":5528631727,"osm_tipo":"node","tipo_lugar":"neighbourhood"},"geometry":{"type":"Point","coordinates":[-46.8838973,-23.2116593]}},{"type":"Feature","properties":{"nome":"Alice Toldi","osm_id":5528631728,"osm_tipo":"node","tipo_lugar":"neighbourhood"},"geometry":{"type":"Point","coordinates":[-46.8820003,-23.2118805]}},{"type":"Feature","properties":{"nome":"Vila Carolina","osm_id":5528631729,"osm_tipo":"node","tipo_lugar":"neighbourhood"},"geometry":{"type":"Point","coordinates":[-46.8813818,-23.2136772]}},{"type":"Feature","properties":{"nome":"Vila Aiello","osm_id":5528631730,"osm_tipo":"node","tipo_lugar":"neighbourhood"},"geometry":{"type":"Point","coordinates":[-46.8825666,-23.2142484]}},{"type":"Feature","properties":{"nome":"Vila Salerno","osm_id":5528631731,"osm_tipo":"node","tipo_lugar":"neighbourhood"},"geometry":{"type":"Point","coordinates":[-46.8801458,-23.2157707]}},{"type":"Feature","properties":{"nome":"Vila Garcia","osm_id":5528631732,"osm_tipo":"node","tipo_lugar":"neighbourhood"},"geometry":{"type":"Point","coordinates":[-46.8798679,-23.2120406]}},{"type":"Feature","properties":{"nome":"Jardim Sevilha","osm_id":5528635019,"osm_tipo":"node","tipo_lugar":"neighbourhood"},"geometry":{"type":"Point","coordinates":[-46.8806606,-23.2170106]}},{"type":"Feature","properties":{"nome":"Jardim Cidapel","osm_id":5528635020,"osm_tipo":"node","tipo_lugar":"neighbourhood"},"geometry":{"type":"Point","coordinates":[-46.877985,-23.2189231]}},{"type":"Feature","properties":{"nome":"Vila Guarani","osm_id":5528635521,"osm_tipo":"node","tipo_lugar":"neighbourhood"},"geometry":{"type":"Point","coordinates":[-46.8757225,-23.2164933]}},{"type":"Feature","properties":{"nome":"Chácaras de Recreio Fazenda Malota","osm_id":5528681465,"osm_tipo":"node","tipo_lugar":"neighbourhood"},"geometry":{"type":"Point","coordinates":[-46.9084326,-23.2116216]}},{"type":"Feature","properties":{"nome":"Parque Residencial Malota","osm_id":5528681466,"osm_tipo":"node","tipo_lugar":"neighbourhood"},"geometry":{"type":"Point","coordinates":[-46.9085682,-23.2092317]}},{"type":"Feature","properties":{"nome":"Loteamento Alto da Malota","osm_id":5528681467,"osm_tipo":"node","tipo_lugar":"neighbourhood"},"geometry":{"type":"Point","coordinates":[-46.9048093,-23.2075779]}},{"type":"Feature","properties":{"nome":"Jardim Itatiaia","osm_id":5528681468,"osm_tipo":"node","tipo_lugar":"neighbourhood"},"geometry":{"type":"Point","coordinates":[-46.9043286,-23.2063093]}},{"type":"Feature","properties":{"nome":"Vila Rosemary","osm_id":5528681469,"osm_tipo":"node","tipo_lugar":"neighbourhood"},"geometry":{"type":"Point","coordinates":[-46.9022089,-23.206264]}},{"type":"Feature","properties":{"nome":"Jardim Athenas","osm_id":5528683090,"osm_tipo":"node","tipo_lugar":"neighbourhood"},"geometry":{"type":"Point","coordinates":[-46.9090543,-23.2020969]}},{"type":"Feature","properties":{"nome":"Gran Village","osm_id":5528728420,"osm_tipo":"node","tipo_lugar":"neighbourhood"},"geometry":{"type":"Point","coordinates":[-46.9108974,-23.1983688]}},{"type":"Feature","properties":{"nome":"Jardim Europa","osm_id":5528728821,"osm_tipo":"node","tipo_lugar":"neighbourhood"},"geometry":{"type":"Point","coordinates":[-46.9169609,-23.1985161]}},{"type":"Feature","properties":{"nome":"Jardim Novo Mundo","osm_id":5528728822,"osm_tipo":"node","tipo_lugar":"neighbourhood"},"geometry":{"type":"Point","coordinates":[-46.915593,-23.1959446]}},{"type":"Feature","properties":{"nome":"Quinta da Boa Vista","osm_id":5528728823,"osm_tipo":"node","tipo_lugar":"neighbourhood"},"geometry":{"type":"Point","coordinates":[-46.919586,-23.1978704]}},{"type":"Feature","properties":{"nome":"Vilage das Flores","osm_id":5528728824,"osm_tipo":"node","tipo_lugar":"neighbourhood"},"geometry":{"type":"Point","coordinates":[-46.921829,-23.19855]}},{"type":"Feature","properties":{"nome":"Quintas do Lago","osm_id":5528728825,"osm_tipo":"node","tipo_lugar":"neighbourhood"},"geometry":{"type":"Point","coordinates":[-46.9220385,-23.1956841]}},{"type":"Feature","properties":{"nome":"Quinta das Videiras","osm_id":5528728826,"osm_tipo":"node","tipo_lugar":"neighbourhood"},"geometry":{"type":"Point","coordinates":[-46.9195244,-23.194472]}},{"type":"Feature","properties":{"nome":"Jardim Samambaia","osm_id":5528728827,"osm_tipo":"node","tipo_lugar":"neighbourhood"},"geometry":{"type":"Point","coordinates":[-46.91457,-23.1939396]}},{"type":"Feature","properties":{"nome":"Jardim Santa Teresa","osm_id":5528728828,"osm_tipo":"node","tipo_lugar":"neighbourhood"},"geometry":{"type":"Point","coordinates":[-46.9118218,-23.1913228]}},{"type":"Feature","properties":{"nome":"Loteamento Casa Branca","osm_id":5528800321,"osm_tipo":"node","tipo_lugar":"neighbourhood"},"geometry":{"type":"Point","coordinates":[-46.9329824,-23.1951404]}},{"type":"Feature","properties":{"nome":"Brisas da Mata","osm_id":5528800322,"osm_tipo":"node","tipo_lugar":"neighbourhood"},"geometry":{"type":"Point","coordinates":[-46.9262159,-23.1943548]}},{"type":"Feature","properties":{"nome":"Jardim Gramadão II","osm_id":5528800323,"osm_tipo":"node","tipo_lugar":"neighbourhood"},"geometry":{"type":"Point","coordinates":[-46.9215487,-23.1922472]}},{"type":"Feature","properties":{"nome":"Jardim Gramadão I","osm_id":5528800324,"osm_tipo":"node","tipo_lugar":"neighbourhood"},"geometry":{"type":"Point","coordinates":[-46.9193697,-23.191156]}},{"type":"Feature","properties":{"nome":"Villaggio de San Marco","osm_id":5528800325,"osm_tipo":"node","tipo_lugar":"neighbourhood"},"geometry":{"type":"Point","coordinates":[-46.9187842,-23.1895118]}},{"type":"Feature","properties":{"nome":"Jardim América","osm_id":5528800326,"osm_tipo":"node","tipo_lugar":"neighbourhood"},"geometry":{"type":"Point","coordinates":[-46.9134575,-23.1883842]}},{"type":"Feature","properties":{"nome":"Horto Santo Antônio","osm_id":5528800327,"osm_tipo":"node","tipo_lugar":"neighbourhood"},"geometry":{"type":"Point","coordinates":[-46.9180293,-23.1865544]}},{"type":"Feature","properties":{"nome":"Recanto IV Centenário","osm_id":5528800328,"osm_tipo":"node","tipo_lugar":"neighbourhood"},"geometry":{"type":"Point","coordinates":[-46.9204076,-23.1855524]}},{"type":"Feature","properties":{"nome":"Recanto Petená","osm_id":5528863445,"osm_tipo":"node","tipo_lugar":"neighbourhood"},"geometry":{"type":"Point","coordinates":[-47.0087367,-23.1685074]}},{"type":"Feature","properties":{"nome":"Loteamento Mantuanelli","osm_id":5528863446,"osm_tipo":"node","tipo_lugar":"neighbourhood"},"geometry":{"type":"Point","coordinates":[-47.0069341,-23.1676058]}},{"type":"Feature","properties":{"nome":"Chácaras São José das Palmeiras","osm_id":5528866126,"osm_tipo":"node","tipo_lugar":"neighbourhood"},"geometry":{"type":"Point","coordinates":[-47.0081527,-23.1335045]}},{"type":"Feature","properties":{"nome":"Chácaras São Ponciano","osm_id":5528866127,"osm_tipo":"node","tipo_lugar":"neighbourhood"},"geometry":{"type":"Point","coordinates":[-47.0020631,-23.12787]}},{"type":"Feature","properties":{"nome":"Torres de São José","osm_id":5531157720,"osm_tipo":"node","tipo_lugar":"neighbourhood"},"geometry":{"type":"Point","coordinates":[-46.9168287,-23.162894]}},{"type":"Feature","properties":{"nome":"Parque da Represa","osm_id":5531157921,"osm_tipo":"node","tipo_lugar":"neighbourhood"},"geometry":{"type":"Point","coordinates":[-46.9115931,-23.1616709]}},{"type":"Feature","properties":{"nome":"Parque Continental","osm_id":5531157922,"osm_tipo":"node","tipo_lugar":"neighbourhood"},"geometry":{"type":"Point","coordinates":[-46.9127303,-23.1575082]}},{"type":"Feature","properties":{"nome":"Residencial Casoni II","osm_id":5531157923,"osm_tipo":"node","tipo_lugar":"neighbourhood"},"geometry":{"type":"Point","coordinates":[-46.9203478,-23.15883]}},{"type":"Feature","properties":{"nome":"Jardim São Pedro","osm_id":5531157924,"osm_tipo":"node","tipo_lugar":"neighbourhood"},"geometry":{"type":"Point","coordinates":[-46.9241458,-23.157153]}},{"type":"Feature","properties":{"nome":"Jardim Sales","osm_id":5531157925,"osm_tipo":"node","tipo_lugar":"neighbourhood"},"geometry":{"type":"Point","coordinates":[-46.9170648,-23.1548053]}},{"type":"Feature","properties":{"nome":"Jardim São Vicente","osm_id":5531232140,"osm_tipo":"node","tipo_lugar":"neighbourhood"},"geometry":{"type":"Point","coordinates":[-46.9162728,-23.1462072]}},{"type":"Feature","properties":{"nome":"Flores do Paraíso","osm_id":5531239440,"osm_tipo":"node","tipo_lugar":"neighbourhood"},"geometry":{"type":"Point","coordinates":[-46.9193873,-23.1486674]}},{"type":"Feature","properties":{"nome":"Jardim Miramor","osm_id":5531239441,"osm_tipo":"node","tipo_lugar":"neighbourhood"},"geometry":{"type":"Point","coordinates":[-46.9220771,-23.1507241]}},{"type":"Feature","properties":{"nome":"Parque dos Eucalíptos","osm_id":5531239442,"osm_tipo":"node","tipo_lugar":"neighbourhood"},"geometry":{"type":"Point","coordinates":[-46.9217656,-23.1534836]}},{"type":"Feature","properties":{"nome":"Loteamento Santa Isabel","osm_id":5531239443,"osm_tipo":"node","tipo_lugar":"neighbourhood"},"geometry":{"type":"Point","coordinates":[-46.9206048,-23.1526896]}},{"type":"Feature","properties":{"nome":"Jardim Scala","osm_id":5531239444,"osm_tipo":"node","tipo_lugar":"neighbourhood"},"geometry":{"type":"Point","coordinates":[-46.9249934,-23.1482248]}},{"type":"Feature","properties":{"nome":"Residencial dos Ipês","osm_id":5531242330,"osm_tipo":"node","tipo_lugar":"neighbourhood"},"geometry":{"type":"Point","coordinates":[-46.9259419,-23.1453871]}},{"type":"Feature","properties":{"nome":"Mirante de Jundiaí","osm_id":5531242331,"osm_tipo":"node","tipo_lugar":"neighbourhood"},"geometry":{"type":"Point","coordinates":[-46.9318028,-23.144541]}},{"type":"Feature","properties":{"nome":"CECAP","osm_id":5531242332,"osm_tipo":"node","tipo_lugar":"neighbourhood"},"geometry":{"type":"Point","coordinates":[-46.9203924,-23.1426664]}},{"type":"Feature","properties":{"nome":"Terras de Gênova","osm_id":5531242333,"osm_tipo":"node","tipo_lugar":"neighbourhood"},"geometry":{"type":"Point","coordinates":[-46.9348748,-23.1397765]}},{"type":"Feature","properties":{"nome":"Bosque dos Jatobás","osm_id":5531263026,"osm_tipo":"node","tipo_lugar":"neighbourhood"},"geometry":{"type":"Point","coordinates":[-46.9327513,-23.1503206]}},{"type":"Feature","properties":{"nome":"Vila Santo Antonio","osm_id":5531263027,"osm_tipo":"node","tipo_lugar":"neighbourhood"},"geometry":{"type":"Point","coordinates":[-46.9359082,-23.1471314]}},{"type":"Feature","properties":{"nome":"Morada Mediterrânea","osm_id":5531263028,"osm_tipo":"node","tipo_lugar":"neighbourhood"},"geometry":{"type":"Point","coordinates":[-46.9383574,-23.1378499]}},{"type":"Feature","properties":{"nome":"Scalla Convivium Club","osm_id":5531263029,"osm_tipo":"node","tipo_lugar":"neighbourhood"},"geometry":{"type":"Point","coordinates":[-46.9321142,-23.1382925]}},{"type":"Feature","properties":{"nome":"Chácaras Pai Jacó","osm_id":5531263030,"osm_tipo":"node","tipo_lugar":"neighbourhood"},"geometry":{"type":"Point","coordinates":[-46.9249934,-23.1387481]}},{"type":"Feature","properties":{"nome":"Loteamento Parque dos Ingás","osm_id":5531263031,"osm_tipo":"node","tipo_lugar":"neighbourhood"},"geometry":{"type":"Point","coordinates":[-46.9232096,-23.138644]}},{"type":"Feature","properties":{"nome":"Conjunto Residencial Terra da Uva","osm_id":5531263032,"osm_tipo":"node","tipo_lugar":"neighbourhood"},"geometry":{"type":"Point","coordinates":[-46.9202508,-23.1403102]}},{"type":"Feature","properties":{"nome":"Condomínio Bem-te-vi (Chácara das Flores)","osm_id":5531275891,"osm_tipo":"node","tipo_lugar":"neighbourhood"},"geometry":{"type":"Point","coordinates":[-46.9318452,-23.132981]}},{"type":"Feature","properties":{"nome":"Loteamento Santo Antonio I","osm_id":5531275892,"osm_tipo":"node","tipo_lugar":"neighbourhood"},"geometry":{"type":"Point","coordinates":[-46.9353278,-23.1346344]}},{"type":"Feature","properties":{"nome":"Santo Antônio II (Associação dos Moradores Santo Antônio)","osm_id":5531275893,"osm_tipo":"node","tipo_lugar":"neighbourhood"},"geometry":{"type":"Point","coordinates":[-46.9370408,-23.1336319]}},{"type":"Feature","properties":{"nome":"Chácara Bosque dos Marrecos (Chácaras São Francisco)","osm_id":5531329329,"osm_tipo":"node","tipo_lugar":"neighbourhood"},"geometry":{"type":"Point","coordinates":[-46.914489,-23.1327727]}},{"type":"Feature","properties":{"nome":"Vila Padre Renato","osm_id":5531329330,"osm_tipo":"node","tipo_lugar":"neighbourhood"},"geometry":{"type":"Point","coordinates":[-46.920775,-23.1358178]}},{"type":"Feature","properties":{"nome":"Parque Centenário","osm_id":5531329331,"osm_tipo":"node","tipo_lugar":"neighbourhood"},"geometry":{"type":"Point","coordinates":[-46.916018,-23.1371729]}},{"type":"Feature","properties":{"nome":"Vivenda Centenário","osm_id":5531329332,"osm_tipo":"node","tipo_lugar":"neighbourhood"},"geometry":{"type":"Point","coordinates":[-46.9181132,-23.1370297]}},{"type":"Feature","properties":{"nome":"Chácaras Aeroporto","osm_id":5531329333,"osm_tipo":"node","tipo_lugar":"neighbourhood"},"geometry":{"type":"Point","coordinates":[-46.9346766,-23.1842121]}},{"type":"Feature","properties":{"nome":"Vila Santa Marina","osm_id":5531329334,"osm_tipo":"node","tipo_lugar":"neighbourhood"},"geometry":{"type":"Point","coordinates":[-46.9252623,-23.1799826]}},{"type":"Feature","properties":{"nome":"Jardim Guanabara","osm_id":5531329335,"osm_tipo":"node","tipo_lugar":"neighbourhood"},"geometry":{"type":"Point","coordinates":[-46.9283627,-23.1790326]}},{"type":"Feature","properties":{"nome":"Vila Espéria","osm_id":5531329336,"osm_tipo":"node","tipo_lugar":"neighbourhood"},"geometry":{"type":"Point","coordinates":[-46.9193165,-23.17941]}},{"type":"Feature","properties":{"nome":"Parque Brasília","osm_id":5531329337,"osm_tipo":"node","tipo_lugar":"neighbourhood"},"geometry":{"type":"Point","coordinates":[-46.9154942,-23.1805032]}},{"type":"Feature","properties":{"nome":"Jardim Planalto","osm_id":5531329338,"osm_tipo":"node","tipo_lugar":"neighbourhood"},"geometry":{"type":"Point","coordinates":[-46.912677,-23.1830149]}},{"type":"Feature","properties":{"nome":"Vila Alvorada","osm_id":5531329339,"osm_tipo":"node","tipo_lugar":"neighbourhood"},"geometry":{"type":"Point","coordinates":[-46.9109923,-23.1847457]}},{"type":"Feature","properties":{"nome":"Jardim Trevo","osm_id":5531329340,"osm_tipo":"node","tipo_lugar":"neighbourhood"},"geometry":{"type":"Point","coordinates":[-46.9091519,-23.1867757]}},{"type":"Feature","properties":{"nome":"Jardim Planalto","osm_id":5531329341,"osm_tipo":"node","tipo_lugar":"neighbourhood"},"geometry":{"type":"Point","coordinates":[-46.9079911,-23.1878298]}},{"type":"Feature","properties":{"nome":"Jardim das Hortências","osm_id":5531345244,"osm_tipo":"node","tipo_lugar":"neighbourhood"},"geometry":{"type":"Point","coordinates":[-46.9095045,-23.1772374]}},{"type":"Feature","properties":{"nome":"Vila Vioto","osm_id":5531345245,"osm_tipo":"node","tipo_lugar":"neighbourhood"},"geometry":{"type":"Point","coordinates":[-46.9097159,-23.1798237]}},{"type":"Feature","properties":{"nome":"Vila Bela 1","osm_id":5531345246,"osm_tipo":"node","tipo_lugar":"neighbourhood"},"geometry":{"type":"Point","coordinates":[-46.9082523,-23.1803319]}},{"type":"Feature","properties":{"nome":"Jardim das Orquídeas","osm_id":5531345247,"osm_tipo":"node","tipo_lugar":"neighbourhood"},"geometry":{"type":"Point","coordinates":[-46.9038453,-23.1785829]}},{"type":"Feature","properties":{"nome":"Vila Maria Luiza","osm_id":5531345248,"osm_tipo":"node","tipo_lugar":"neighbourhood"},"geometry":{"type":"Point","coordinates":[-46.9026907,-23.179435]}},{"type":"Feature","properties":{"nome":"Jardim Morumbi","osm_id":5531345249,"osm_tipo":"node","tipo_lugar":"neighbourhood"},"geometry":{"type":"Point","coordinates":[-46.9007556,-23.1789716]}},{"type":"Feature","properties":{"nome":"Jardim Paris","osm_id":5531345250,"osm_tipo":"node","tipo_lugar":"neighbourhood"},"geometry":{"type":"Point","coordinates":[-46.8998124,-23.1822155]}},{"type":"Feature","properties":{"nome":"Jardim Primavera","osm_id":5531345251,"osm_tipo":"node","tipo_lugar":"neighbourhood"},"geometry":{"type":"Point","coordinates":[-46.9023005,-23.1838748]}},{"type":"Feature","properties":{"nome":"Jardim Brasil","osm_id":5531345252,"osm_tipo":"node","tipo_lugar":"neighbourhood"},"geometry":{"type":"Point","coordinates":[-46.8962348,-23.1814232]}},{"type":"Feature","properties":{"nome":"Vila Cunha","osm_id":5531521194,"osm_tipo":"node","tipo_lugar":"neighbourhood"},"geometry":{"type":"Point","coordinates":[-46.8951452,-23.1783258]}},{"type":"Feature","properties":{"nome":"Vila Inhamupe","osm_id":5531521195,"osm_tipo":"node","tipo_lugar":"neighbourhood"},"geometry":{"type":"Point","coordinates":[-46.8916327,-23.1778952]}},{"type":"Feature","properties":{"nome":"Vila Della Nina","osm_id":5531521196,"osm_tipo":"node","tipo_lugar":"neighbourhood"},"geometry":{"type":"Point","coordinates":[-46.8956656,-23.1795695]}},{"type":"Feature","properties":{"nome":"Vila Operária","osm_id":5531521197,"osm_tipo":"node","tipo_lugar":"neighbourhood"},"geometry":{"type":"Point","coordinates":[-46.8891121,-23.180018]}},{"type":"Feature","properties":{"nome":"Vila Padre Nóbrega","osm_id":5531521198,"osm_tipo":"node","tipo_lugar":"neighbourhood"},"geometry":{"type":"Point","coordinates":[-46.8912912,-23.1818717]}},{"type":"Feature","properties":{"nome":"Parque do Colégio","osm_id":5531521199,"osm_tipo":"node","tipo_lugar":"neighbourhood"},"geometry":{"type":"Point","coordinates":[-46.8982187,-23.1835908]}},{"type":"Feature","properties":{"nome":"Vila Pacheco","osm_id":5531528809,"osm_tipo":"node","tipo_lugar":"neighbourhood"},"geometry":{"type":"Point","coordinates":[-46.8840059,-23.182933]}},{"type":"Feature","properties":{"nome":"Vila Maria Inês","osm_id":5531528810,"osm_tipo":"node","tipo_lugar":"neighbourhood"},"geometry":{"type":"Point","coordinates":[-46.8894373,-23.1863712]}},{"type":"Feature","properties":{"nome":"Vila Boaventura","osm_id":5531528811,"osm_tipo":"node","tipo_lugar":"neighbourhood"},"geometry":{"type":"Point","coordinates":[-46.890413,-23.1872382]}},{"type":"Feature","properties":{"nome":"Chácara Urbana","osm_id":5531528812,"osm_tipo":"node","tipo_lugar":"neighbourhood"},"geometry":{"type":"Point","coordinates":[-46.8946225,-23.1852514]}},{"type":"Feature","properties":{"nome":"Vila Virgínia","osm_id":5531528813,"osm_tipo":"node","tipo_lugar":"neighbourhood"},"geometry":{"type":"Point","coordinates":[-46.8962348,-23.1865506]}},{"type":"Feature","properties":{"nome":"Jardim Campos Elíseos","osm_id":5531535583,"osm_tipo":"node","tipo_lugar":"neighbourhood"},"geometry":{"type":"Point","coordinates":[-46.9030973,-23.1872681]}},{"type":"Feature","properties":{"nome":"Vila Wilma","osm_id":5531535584,"osm_tipo":"node","tipo_lugar":"neighbourhood"},"geometry":{"type":"Point","coordinates":[-46.9011133,-23.1888526]}},{"type":"Feature","properties":{"nome":"Jardim Ana Maria","osm_id":5531535585,"osm_tipo":"node","tipo_lugar":"neighbourhood"},"geometry":{"type":"Point","coordinates":[-46.9008532,-23.191902]}},{"type":"Feature","properties":{"nome":"Jardim Flórida","osm_id":5531535586,"osm_tipo":"node","tipo_lugar":"neighbourhood"},"geometry":{"type":"Point","coordinates":[-46.9032775,-23.1950303]}},{"type":"Feature","properties":{"nome":"Jardim Luciana","osm_id":5531535588,"osm_tipo":"node","tipo_lugar":"neighbourhood"},"geometry":{"type":"Point","coordinates":[-46.8988692,-23.1884191]}},{"type":"Feature","properties":{"nome":"Vila Iracema","osm_id":5531535589,"osm_tipo":"node","tipo_lugar":"neighbourhood"},"geometry":{"type":"Point","coordinates":[-46.8902016,-23.1945776]}},{"type":"Feature","properties":{"nome":"Vila Adolfo","osm_id":5531547597,"osm_tipo":"node","tipo_lugar":"neighbourhood"},"geometry":{"type":"Point","coordinates":[-46.8892259,-23.192201]}},{"type":"Feature","properties":{"nome":"Jardim da Serra","osm_id":5531547598,"osm_tipo":"node","tipo_lugar":"neighbourhood"},"geometry":{"type":"Point","coordinates":[-46.899601,-23.1960574]}},{"type":"Feature","properties":{"nome":"Vila Moutran","osm_id":5531547599,"osm_tipo":"node","tipo_lugar":"neighbourhood"},"geometry":{"type":"Point","coordinates":[-46.8871769,-23.1954595]}},{"type":"Feature","properties":{"nome":"Vila Loyola","osm_id":5531547600,"osm_tipo":"node","tipo_lugar":"neighbourhood"},"geometry":{"type":"Point","coordinates":[-46.8919091,-23.1984041]}},{"type":"Feature","properties":{"nome":"Vila Cacilda","osm_id":5531547601,"osm_tipo":"node","tipo_lugar":"neighbourhood"},"geometry":{"type":"Point","coordinates":[-46.8948688,-23.1965058]}},{"type":"Feature","properties":{"nome":"Jardim Santa Adelaide","osm_id":5531547602,"osm_tipo":"node","tipo_lugar":"neighbourhood"},"geometry":{"type":"Point","coordinates":[-46.8986741,-23.1981949]}},{"type":"Feature","properties":{"nome":"Vila Japi","osm_id":5531547603,"osm_tipo":"node","tipo_lugar":"neighbourhood"},"geometry":{"type":"Point","coordinates":[-46.9014548,-23.200123]}},{"type":"Feature","properties":{"nome":"Jardim Paulista","osm_id":5531547604,"osm_tipo":"node","tipo_lugar":"neighbourhood"},"geometry":{"type":"Point","coordinates":[-46.8964665,-23.2007655]}},{"type":"Feature","properties":{"nome":"Vila Ana","osm_id":5531547605,"osm_tipo":"node","tipo_lugar":"neighbourhood"},"geometry":{"type":"Point","coordinates":[-46.8961047,-23.2041437]}},{"type":"Feature","properties":{"nome":"Jardim Anhanguera","osm_id":5531547606,"osm_tipo":"node","tipo_lugar":"neighbourhood"},"geometry":{"type":"Point","coordinates":[-46.8980399,-23.2056084]}},{"type":"Feature","properties":{"nome":"Jardim Petrópolis","osm_id":5540039565,"osm_tipo":"node","tipo_lugar":"neighbourhood"},"geometry":{"type":"Point","coordinates":[-46.8901406,-23.201638]}},{"type":"Feature","properties":{"nome":"Vila Pirapora","osm_id":5540039566,"osm_tipo":"node","tipo_lugar":"neighbourhood"},"geometry":{"type":"Point","coordinates":[-46.8885138,-23.2006072]}},{"type":"Feature","properties":{"nome":"Jardim Messina","osm_id":5540039567,"osm_tipo":"node","tipo_lugar":"neighbourhood"},"geometry":{"type":"Point","coordinates":[-46.8904364,-23.2045378]}},{"type":"Feature","properties":{"nome":"Jardim Bizarro","osm_id":5540039568,"osm_tipo":"node","tipo_lugar":"neighbourhood"},"geometry":{"type":"Point","coordinates":[-46.8872814,-23.2045039]}},{"type":"Feature","properties":{"nome":"Jardim Cristina","osm_id":5540039569,"osm_tipo":"node","tipo_lugar":"neighbourhood"},"geometry":{"type":"Point","coordinates":[-46.8893026,-23.2063842]}},{"type":"Feature","properties":{"nome":"Parque Residencial Nove de Julho","osm_id":5540039570,"osm_tipo":"node","tipo_lugar":"neighbourhood"},"geometry":{"type":"Point","coordinates":[-46.8922111,-23.2070525]}},{"type":"Feature","properties":{"nome":"Jardim Bonfiglioli","osm_id":5540039571,"osm_tipo":"node","tipo_lugar":"neighbourhood"},"geometry":{"type":"Point","coordinates":[-46.8875032,-23.207902]}},{"type":"Feature","properties":{"nome":"Jardim Itamarati","osm_id":5540039572,"osm_tipo":"node","tipo_lugar":"neighbourhood"},"geometry":{"type":"Point","coordinates":[-46.8901406,-23.2099182]}},{"type":"Feature","properties":{"nome":"Guido Bertoni","osm_id":5540039573,"osm_tipo":"node","tipo_lugar":"neighbourhood"},"geometry":{"type":"Point","coordinates":[-46.8873923,-23.2091706]}},{"type":"Feature","properties":{"nome":"Parque União","osm_id":5540039574,"osm_tipo":"node","tipo_lugar":"neighbourhood"},"geometry":{"type":"Point","coordinates":[-46.8859874,-23.2096463]}},{"type":"Feature","properties":{"nome":"Chácaras Tavares","osm_id":5540043956,"osm_tipo":"node","tipo_lugar":"neighbourhood"},"geometry":{"type":"Point","coordinates":[-46.8883413,-23.2054327]}},{"type":"Feature","properties":{"nome":"Vila São Pedro","osm_id":5540048820,"osm_tipo":"node","tipo_lugar":"neighbourhood"},"geometry":{"type":"Point","coordinates":[-46.8819204,-23.2075622]}},{"type":"Feature","properties":{"nome":"Jardim Pitangueiras","osm_id":5540048921,"osm_tipo":"node","tipo_lugar":"neighbourhood"},"geometry":{"type":"Point","coordinates":[-46.8831466,-23.2084333]}},{"type":"Feature","properties":{"nome":"Vila Helena","osm_id":5540048922,"osm_tipo":"node","tipo_lugar":"neighbourhood"},"geometry":{"type":"Point","coordinates":[-46.8815876,-23.2092612]}},{"type":"Feature","properties":{"nome":"Vila Loureiro","osm_id":5540048923,"osm_tipo":"node","tipo_lugar":"neighbourhood"},"geometry":{"type":"Point","coordinates":[-46.8808482,-23.2109489]}},{"type":"Feature","properties":{"nome":"Vila Manfredi","osm_id":5540048924,"osm_tipo":"node","tipo_lugar":"neighbourhood"},"geometry":{"type":"Point","coordinates":[-46.8789133,-23.2104845]}},{"type":"Feature","properties":{"nome":"Vila Iara","osm_id":5540048925,"osm_tipo":"node","tipo_lugar":"neighbourhood"},"geometry":{"type":"Point","coordinates":[-46.8766765,-23.2133727]}},{"type":"Feature","properties":{"nome":"Jardim Mafalda","osm_id":5540048926,"osm_tipo":"node","tipo_lugar":"neighbourhood"},"geometry":{"type":"Point","coordinates":[-46.8736632,-23.2122514]}},{"type":"Feature","properties":{"nome":"Jardim Santa Júlia","osm_id":5540220238,"osm_tipo":"node","tipo_lugar":"neighbourhood"},"geometry":{"type":"Point","coordinates":[-46.8753104,-23.2131092]}},{"type":"Feature","properties":{"nome":"Vila Francisco Eber","osm_id":5540220239,"osm_tipo":"node","tipo_lugar":"neighbourhood"},"geometry":{"type":"Point","coordinates":[-46.8789258,-23.2073947]}},{"type":"Feature","properties":{"nome":"Vila Campos Sales","osm_id":5540220240,"osm_tipo":"node","tipo_lugar":"neighbourhood"},"geometry":{"type":"Point","coordinates":[-46.8781973,-23.2057122]}},{"type":"Feature","properties":{"nome":"Vila Ivani","osm_id":5540220241,"osm_tipo":"node","tipo_lugar":"neighbourhood"},"geometry":{"type":"Point","coordinates":[-46.881046,-23.205034]}},{"type":"Feature","properties":{"nome":"Vila Angélica","osm_id":5540220242,"osm_tipo":"node","tipo_lugar":"neighbourhood"},"geometry":{"type":"Point","coordinates":[-46.8808218,-23.2064418]}},{"type":"Feature","properties":{"nome":"Vila Isabel Eber","osm_id":5540268237,"osm_tipo":"node","tipo_lugar":"neighbourhood"},"geometry":{"type":"Point","coordinates":[-46.8751711,-23.2070256]}},{"type":"Feature","properties":{"nome":"Jardim Merci","osm_id":5540268238,"osm_tipo":"node","tipo_lugar":"neighbourhood"},"geometry":{"type":"Point","coordinates":[-46.8725279,-23.2089913]}},{"type":"Feature","properties":{"nome":"Jardim Dupré","osm_id":5540268239,"osm_tipo":"node","tipo_lugar":"neighbourhood"},"geometry":{"type":"Point","coordinates":[-46.8766749,-23.2011109]}},{"type":"Feature","properties":{"nome":"Vila Nady","osm_id":5540268240,"osm_tipo":"node","tipo_lugar":"neighbourhood"},"geometry":{"type":"Point","coordinates":[-46.8707494,-23.2045926]}},{"type":"Feature","properties":{"nome":"Vila Vianelo","osm_id":5540268241,"osm_tipo":"node","tipo_lugar":"neighbourhood"},"geometry":{"type":"Point","coordinates":[-46.8829257,-23.1976488]}},{"type":"Feature","properties":{"nome":"Santa Rosa","osm_id":5540268242,"osm_tipo":"node","tipo_lugar":"neighbourhood"},"geometry":{"type":"Point","coordinates":[-46.8754572,-23.1949867]}},{"type":"Feature","properties":{"nome":"Vila Leda","osm_id":5540268243,"osm_tipo":"node","tipo_lugar":"neighbourhood"},"geometry":{"type":"Point","coordinates":[-46.8719572,-23.1992347]}},{"type":"Feature","properties":{"nome":"Vila Agrícola","osm_id":5540268244,"osm_tipo":"node","tipo_lugar":"neighbourhood"},"geometry":{"type":"Point","coordinates":[-46.865869,-23.2026443]}},{"type":"Feature","properties":{"nome":"Vila Santana","osm_id":5540268245,"osm_tipo":"node","tipo_lugar":"neighbourhood"},"geometry":{"type":"Point","coordinates":[-46.8643901,-23.2042188]}},{"type":"Feature","properties":{"nome":"Vila Maria Genoveva","osm_id":5540268246,"osm_tipo":"node","tipo_lugar":"neighbourhood"},"geometry":{"type":"Point","coordinates":[-46.8606066,-23.2063936]}},{"type":"Feature","properties":{"nome":"Vila Santa Maria","osm_id":5540268247,"osm_tipo":"node","tipo_lugar":"neighbourhood"},"geometry":{"type":"Point","coordinates":[-46.8550854,-23.2060198]}},{"type":"Feature","properties":{"nome":"Vila Cristo Redentor","osm_id":5540268248,"osm_tipo":"node","tipo_lugar":"neighbourhood"},"geometry":{"type":"Point","coordinates":[-46.8506117,-23.2067447]}},{"type":"Feature","properties":{"nome":"Vila Didi","osm_id":5540268249,"osm_tipo":"node","tipo_lugar":"neighbourhood"},"geometry":{"type":"Point","coordinates":[-46.8551716,-23.21029]}},{"type":"Feature","properties":{"nome":"Conjunto do I.A.P.I.","osm_id":5540268250,"osm_tipo":"node","tipo_lugar":"neighbourhood"},"geometry":{"type":"Point","coordinates":[-46.8595097,-23.2092706]}},{"type":"Feature","properties":{"nome":"Jardim Esplanada","osm_id":5540291837,"osm_tipo":"node","tipo_lugar":"neighbourhood"},"geometry":{"type":"Point","coordinates":[-46.8705522,-23.2133256]}},{"type":"Feature","properties":{"nome":"Vila de Vecchi","osm_id":5540291838,"osm_tipo":"node","tipo_lugar":"neighbourhood"},"geometry":{"type":"Point","coordinates":[-46.8676191,-23.2085683]}},{"type":"Feature","properties":{"nome":"Jardim Nações Unidas","osm_id":5540291839,"osm_tipo":"node","tipo_lugar":"neighbourhood"},"geometry":{"type":"Point","coordinates":[-46.8616788,-23.209146]}},{"type":"Feature","properties":{"nome":"Vila São Paulo","osm_id":5540291840,"osm_tipo":"node","tipo_lugar":"neighbourhood"},"geometry":{"type":"Point","coordinates":[-46.8605697,-23.2127139]}},{"type":"Feature","properties":{"nome":"Jardim do Lago","osm_id":5540291841,"osm_tipo":"node","tipo_lugar":"neighbourhood"},"geometry":{"type":"Point","coordinates":[-46.8622087,-23.2183997]}},{"type":"Feature","properties":{"nome":"Jardim Estádio","osm_id":5540291842,"osm_tipo":"node","tipo_lugar":"neighbourhood"},"geometry":{"type":"Point","coordinates":[-46.8655239,-23.2140051]}},{"type":"Feature","properties":{"nome":"Vila São Sebastião","osm_id":5540291843,"osm_tipo":"node","tipo_lugar":"neighbourhood"},"geometry":{"type":"Point","coordinates":[-46.8688515,-23.2165875]}},{"type":"Feature","properties":{"nome":"Vila Franco","osm_id":5540291844,"osm_tipo":"node","tipo_lugar":"neighbourhood"},"geometry":{"type":"Point","coordinates":[-46.8563917,-23.213133]}},{"type":"Feature","properties":{"nome":"Jardim Aurélia","osm_id":5540362722,"osm_tipo":"node","tipo_lugar":"neighbourhood"},"geometry":{"type":"Point","coordinates":[-46.8549621,-23.2190113]}},{"type":"Feature","properties":{"nome":"Vila Esperança","osm_id":5540362723,"osm_tipo":"node","tipo_lugar":"neighbourhood"},"geometry":{"type":"Point","coordinates":[-46.8557411,-23.2217221]}},{"type":"Feature","properties":{"nome":"Nova Cidade Jardim","osm_id":5540362724,"osm_tipo":"node","tipo_lugar":"neighbourhood"},"geometry":{"type":"Point","coordinates":[-46.8549939,-23.2263055]}},{"type":"Feature","properties":{"nome":"Parque Cidade Jardim II","osm_id":5540362725,"osm_tipo":"node","tipo_lugar":"neighbourhood"},"geometry":{"type":"Point","coordinates":[-46.8599815,-23.2246919]}},{"type":"Feature","properties":{"nome":"Vila Argos Nova","osm_id":5540377905,"osm_tipo":"node","tipo_lugar":"neighbourhood"},"geometry":{"type":"Point","coordinates":[-46.8777461,-23.1905954]}},{"type":"Feature","properties":{"nome":"Loteamento Esperança","osm_id":6149929073,"osm_tipo":"node","tipo_lugar":"neighbourhood"},"geometry":{"type":"Point","coordinates":[-46.932294,-23.1267901]}},{"type":"Feature","properties":{"nome":"Jardim Carlos Gomes2","osm_id":6391009269,"osm_tipo":"node","tipo_lugar":"neighbourhood"},"geometry":{"type":"Point","coordinates":[-46.8770176,-23.1732167]}},{"type":"Feature","properties":{"nome":"Jardim Carlos Gomes3","osm_id":6391009270,"osm_tipo":"node","tipo_lugar":"neighbourhood"},"geometry":{"type":"Point","coordinates":[-46.8769693,-23.1737592]}},{"type":"Feature","properties":{"nome":"Vila Alvorada","osm_id":6919273739,"osm_tipo":"node","tipo_lugar":"neighbourhood"},"geometry":{"type":"Point","coordinates":[-46.9112889,-23.1836167]}},{"type":"Feature","properties":{"nome":"Vila Alvorada","osm_id":6919273741,"osm_tipo":"node","tipo_lugar":"suburb"},"geometry":{"type":"Point","coordinates":[-46.9111987,-23.1838229]}},{"type":"Feature","properties":{"nome":"Leitão","osm_id":9370952245,"osm_tipo":"node","tipo_lugar":"suburb"},"geometry":{"type":"Point","coordinates":[-46.9397527,-23.1014136]}},{"type":"Feature","properties":{"nome":"Fazenda Grande","osm_id":7099296,"osm_tipo":"relation","tipo_lugar":"suburb"},"geometry":{"type":"Polygon","coordinates":[[[-47.021991,-23.1493471],[-47.0227104,-23.1559445],[-47.0198215,-23.1618494],[-47.0121454,-23.1635287],[-46.9684534,-23.182416],[-46.9641082,-23.181124],[-46.9653957,-23.1760989],[-46.9623862,-23.1746984],[-46.9610165,-23.176929],[-46.959189,-23.1715027],[-46.9639929,-23.169853],[-46.9699366,-23.1606797],[-46.9742309,-23.157729],[-46.9740565,-23.1534194],[-46.977707,-23.1469801],[-46.9770847,-23.1453425],[-46.9821487,-23.1424815],[-46.992139,-23.1474383],[-47.0038945,-23.1464818],[-47.0107352,-23.1534606],[-47.0142675,-23.1524704],[-47.0173655,-23.1493353],[-47.021991,-23.1493471]]]}}]}