{"type":"FeatureCollection","features":[{"type":"Feature","properties":{"nome":"Caçula","osm_id":4413904292,"osm_tipo":"node","tipo_lugar":"suburb"},"geometry":{"type":"Point","coordinates":[-47.6470395,-24.1499902]}},{"type":"Feature","properties":{"nome":"Lajeado","osm_id":4413904339,"osm_tipo":"node","tipo_lugar":"suburb"},"geometry":{"type":"Point","coordinates":[-47.6298975,-24.1811449]}},{"type":"Feature","properties":{"nome":"Recanto das Traíras","osm_id":5292345419,"osm_tipo":"node","tipo_lugar":"suburb"},"geometry":{"type":"Point","coordinates":[-47.651401,-24.3332807]}},{"type":"Feature","properties":{"nome":"Parque das Nações","osm_id":6946990763,"osm_tipo":"node","tipo_lugar":"suburb"},"geometry":{"type":"Point","coordinates":[-47.6452944,-24.3195813]}},{"type":"Feature","properties":{"nome":"Vila Sanches","osm_id":6947059846,"osm_tipo":"node","tipo_lugar":"suburb"},"geometry":{"type":"Point","coordinates":[-47.6256327,-24.3117292]}}]}