{"type":"FeatureCollection","features":[{"type":"Feature","properties":{"nome":"Bairro da Cachoeirinha","osm_id":4343425061,"osm_tipo":"node","tipo_lugar":"suburb"},"geometry":{"type":"Point","coordinates":[-47.0685506,-23.9134649]}},{"type":"Feature","properties":{"nome":"Bairro dos Justinos","osm_id":4343425062,"osm_tipo":"node","tipo_lugar":"suburb"},"geometry":{"type":"Point","coordinates":[-47.0790219,-23.9246258]}},{"type":"Feature","properties":{"nome":"Bairro dos Soares","osm_id":4343425064,"osm_tipo":"node","tipo_lugar":"suburb"},"geometry":{"type":"Point","coordinates":[-47.0757818,-23.8863335]}},{"type":"Feature","properties":{"nome":"Bairro dos Carmos","osm_id":4343425065,"osm_tipo":"node","tipo_lugar":"suburb"},"geometry":{"type":"Point","coordinates":[-47.0815539,-23.8745807]}},{"type":"Feature","properties":{"nome":"Parque Vermont","osm_id":4343427903,"osm_tipo":"node","tipo_lugar":"suburb"},"geometry":{"type":"Point","coordinates":[-47.0527362,-23.875032]}},{"type":"Feature","properties":{"nome":"Bairro dos Padeiros","osm_id":4343427904,"osm_tipo":"node","tipo_lugar":"suburb"},"geometry":{"type":"Point","coordinates":[-47.0461058,-23.8881385]}},{"type":"Feature","properties":{"nome":"Centro","osm_id":4343752859,"osm_tipo":"node","tipo_lugar":"suburb"},"geometry":{"type":"Point","coordinates":[-47.0676472,-23.9319919]}},{"type":"Feature","properties":{"nome":"Bairro dos Rosas","osm_id":4343771629,"osm_tipo":"node","tipo_lugar":"suburb"},"geometry":{"type":"Point","coordinates":[-47.0707622,-23.8626844]}},{"type":"Feature","properties":{"nome":"Pedra Branca","osm_id":4829615695,"osm_tipo":"node","tipo_lugar":"suburb"},"geometry":{"type":"Point","coordinates":[-47.0078624,-23.9297031]}},{"type":"Feature","properties":{"nome":"Bairro das Palmeiras","osm_id":4831114948,"osm_tipo":"node","tipo_lugar":"suburb"},"geometry":{"type":"Point","coordinates":[-46.9965977,-23.9224025]}},{"type":"Feature","properties":{"nome":"Morro Grande","osm_id":4831195601,"osm_tipo":"node","tipo_lugar":"suburb"},"geometry":{"type":"Point","coordinates":[-46.9446242,-23.9483779]}},{"type":"Feature","properties":{"nome":"Vargeado","osm_id":4831195602,"osm_tipo":"node","tipo_lugar":"suburb"},"geometry":{"type":"Point","coordinates":[-46.9585502,-23.9135108]}},{"type":"Feature","properties":{"nome":"Bairro do Soturno","osm_id":4831195603,"osm_tipo":"node","tipo_lugar":"suburb"},"geometry":{"type":"Point","coordinates":[-46.984235,-23.9386165]}},{"type":"Feature","properties":{"nome":"Jacuba","osm_id":8981497892,"osm_tipo":"node","tipo_lugar":"suburb"},"geometry":{"type":"Point","coordinates":[-46.9889963,-23.9578573]}},{"type":"Feature","properties":{"nome":"Loteamento Green Montanhas Verdes","osm_id":13894815407,"osm_tipo":"node","tipo_lugar":"neighbourhood"},"geometry":{"type":"Point","coordinates":[-47.1411898,-23.9730814]}}]}