{"type":"FeatureCollection","features":[{"type":"Feature","properties":{"nome":"Jardim Joia do Tronco","osm_id":5217965059,"osm_tipo":"node","tipo_lugar":"neighbourhood"},"geometry":{"type":"Point","coordinates":[-47.8273509,-23.0520436]}},{"type":"Feature","properties":{"nome":"Conjunto Habitacional João Roma","osm_id":5217965060,"osm_tipo":"node","tipo_lugar":"neighbourhood"},"geometry":{"type":"Point","coordinates":[-47.8240858,-23.0516021]}},{"type":"Feature","properties":{"nome":"Vila Conceição","osm_id":5217965061,"osm_tipo":"node","tipo_lugar":"neighbourhood"},"geometry":{"type":"Point","coordinates":[-47.8327759,-23.0503416]}},{"type":"Feature","properties":{"nome":"Bairro da Ponte","osm_id":5217965068,"osm_tipo":"node","tipo_lugar":"neighbourhood"},"geometry":{"type":"Point","coordinates":[-47.8257616,-23.065259]}},{"type":"Feature","properties":{"nome":"Jardim Industrial","osm_id":5217965069,"osm_tipo":"node","tipo_lugar":"neighbourhood"},"geometry":{"type":"Point","coordinates":[-47.819133,-23.0656208]}},{"type":"Feature","properties":{"nome":"Conjunto Habitacional Nello Parducci","osm_id":5217990380,"osm_tipo":"node","tipo_lugar":"neighbourhood"},"geometry":{"type":"Point","coordinates":[-47.8434911,-23.0604782]}},{"type":"Feature","properties":{"nome":"Residencial Nenê Garpelli","osm_id":5217990381,"osm_tipo":"node","tipo_lugar":"neighbourhood"},"geometry":{"type":"Point","coordinates":[-47.8454836,-23.058028]}},{"type":"Feature","properties":{"nome":"Bairro Estrela","osm_id":5217990383,"osm_tipo":"node","tipo_lugar":"neighbourhood"},"geometry":{"type":"Point","coordinates":[-47.8494565,-23.0627371]}},{"type":"Feature","properties":{"nome":"Vila Darcy","osm_id":5217990385,"osm_tipo":"node","tipo_lugar":"neighbourhood"},"geometry":{"type":"Point","coordinates":[-47.8342351,-23.0573212]}},{"type":"Feature","properties":{"nome":"Jardim Ambiental","osm_id":5217990387,"osm_tipo":"node","tipo_lugar":"neighbourhood"},"geometry":{"type":"Point","coordinates":[-47.8255159,-23.0506698]}},{"type":"Feature","properties":{"nome":"Jardim Ambiental II","osm_id":5217990388,"osm_tipo":"node","tipo_lugar":"neighbourhood"},"geometry":{"type":"Point","coordinates":[-47.8267725,-23.0502468]}},{"type":"Feature","properties":{"nome":"Jardim Morumbi","osm_id":5218872483,"osm_tipo":"node","tipo_lugar":"neighbourhood"},"geometry":{"type":"Point","coordinates":[-47.8983303,-23.0376533]}},{"type":"Feature","properties":{"nome":"Vila Stela Maris","osm_id":5218883873,"osm_tipo":"node","tipo_lugar":"neighbourhood"},"geometry":{"type":"Point","coordinates":[-47.8952777,-23.038945]}},{"type":"Feature","properties":{"nome":"Conjunto Habitacional Aracy Maffei Madeira","osm_id":5218883874,"osm_tipo":"node","tipo_lugar":"neighbourhood"},"geometry":{"type":"Point","coordinates":[-47.8966038,-23.0408537]}},{"type":"Feature","properties":{"nome":"Residencial Maristela","osm_id":5218883875,"osm_tipo":"node","tipo_lugar":"neighbourhood"},"geometry":{"type":"Point","coordinates":[-47.8840094,-23.0351005]}},{"type":"Feature","properties":{"nome":"Loteamento José Márcio Madeira","osm_id":5218883876,"osm_tipo":"node","tipo_lugar":"neighbourhood"},"geometry":{"type":"Point","coordinates":[-47.8766857,-23.0382769]}},{"type":"Feature","properties":{"nome":"Residencial 5 de Julho","osm_id":5228360637,"osm_tipo":"node","tipo_lugar":"neighbourhood"},"geometry":{"type":"Point","coordinates":[-47.8337593,-23.0340308]}},{"type":"Feature","properties":{"nome":"Residencial Itaporanga","osm_id":5228360638,"osm_tipo":"node","tipo_lugar":"neighbourhood"},"geometry":{"type":"Point","coordinates":[-47.8346109,-23.0334184]}},{"type":"Feature","properties":{"nome":"Jardim das Palmeiras","osm_id":5228360639,"osm_tipo":"node","tipo_lugar":"neighbourhood"},"geometry":{"type":"Point","coordinates":[-47.8354283,-23.0322628]}},{"type":"Feature","properties":{"nome":"Bairro São Roque","osm_id":5228360649,"osm_tipo":"node","tipo_lugar":"suburb"},"geometry":{"type":"Point","coordinates":[-47.834025,-23.0368387]}},{"type":"Feature","properties":{"nome":"Residencial Recanto do Laranjal","osm_id":5228360650,"osm_tipo":"node","tipo_lugar":"neighbourhood"},"geometry":{"type":"Point","coordinates":[-47.8292242,-23.0346926]}},{"type":"Feature","properties":{"nome":"Jardim São Luiz","osm_id":5228360651,"osm_tipo":"node","tipo_lugar":"neighbourhood"},"geometry":{"type":"Point","coordinates":[-47.8272579,-23.0334957]}},{"type":"Feature","properties":{"nome":"Conjunto Habitacional Carlos Vicente Di Santi","osm_id":5228360652,"osm_tipo":"node","tipo_lugar":"neighbourhood"},"geometry":{"type":"Point","coordinates":[-47.8388233,-23.0351287]}},{"type":"Feature","properties":{"nome":"Residencial São Roque","osm_id":5228360653,"osm_tipo":"node","tipo_lugar":"neighbourhood"},"geometry":{"type":"Point","coordinates":[-47.8391434,-23.0340833]}},{"type":"Feature","properties":{"nome":"Loteamento São Roque","osm_id":5228360654,"osm_tipo":"node","tipo_lugar":"neighbourhood"},"geometry":{"type":"Point","coordinates":[-47.8388079,-23.0360766]}},{"type":"Feature","properties":{"nome":"Bairro São Benedito","osm_id":5228417244,"osm_tipo":"node","tipo_lugar":"neighbourhood"},"geometry":{"type":"Point","coordinates":[-47.8353497,-23.0425148]}},{"type":"Feature","properties":{"nome":"Jardim Elite","osm_id":5228417245,"osm_tipo":"node","tipo_lugar":"neighbourhood"},"geometry":{"type":"Point","coordinates":[-47.8371319,-23.0428358]}},{"type":"Feature","properties":{"nome":"Jardim Elite II","osm_id":5228417247,"osm_tipo":"node","tipo_lugar":"neighbourhood"},"geometry":{"type":"Point","coordinates":[-47.8391721,-23.0418808]}},{"type":"Feature","properties":{"nome":"Jardim Pedro Zalla","osm_id":5228417248,"osm_tipo":"node","tipo_lugar":"suburb"},"geometry":{"type":"Point","coordinates":[-47.8408493,-23.0443907]}},{"type":"Feature","properties":{"nome":"Bairro Pedro Pinto","osm_id":5228417249,"osm_tipo":"node","tipo_lugar":"neighbourhood"},"geometry":{"type":"Point","coordinates":[-47.8447554,-23.0445325]}},{"type":"Feature","properties":{"nome":"Residencial Chafic Jacob","osm_id":5228417250,"osm_tipo":"node","tipo_lugar":"neighbourhood"},"geometry":{"type":"Point","coordinates":[-47.8410435,-23.0428252]}},{"type":"Feature","properties":{"nome":"Jardim Europa","osm_id":5228417251,"osm_tipo":"node","tipo_lugar":"neighbourhood"},"geometry":{"type":"Point","coordinates":[-47.8316381,-23.042362]}},{"type":"Feature","properties":{"nome":"Vila Félix","osm_id":5228417252,"osm_tipo":"node","tipo_lugar":"neighbourhood"},"geometry":{"type":"Point","coordinates":[-47.8315712,-23.0445177]}},{"type":"Feature","properties":{"nome":"Bairro Matadouro","osm_id":5228417253,"osm_tipo":"node","tipo_lugar":"neighbourhood"},"geometry":{"type":"Point","coordinates":[-47.8295009,-23.04798]}},{"type":"Feature","properties":{"nome":"Vila Manente","osm_id":5228466009,"osm_tipo":"node","tipo_lugar":"neighbourhood"},"geometry":{"type":"Point","coordinates":[-47.8324563,-23.05358]}},{"type":"Feature","properties":{"nome":"Jardim São Cristóvão","osm_id":5228564617,"osm_tipo":"node","tipo_lugar":"neighbourhood"},"geometry":{"type":"Point","coordinates":[-47.8407421,-23.0525736]}},{"type":"Feature","properties":{"nome":"Terras do Laranjal","osm_id":5228565028,"osm_tipo":"node","tipo_lugar":"neighbourhood"},"geometry":{"type":"Point","coordinates":[-47.8390916,-23.051709]}},{"type":"Feature","properties":{"nome":"Vila Toti","osm_id":5228565029,"osm_tipo":"node","tipo_lugar":"neighbourhood"},"geometry":{"type":"Point","coordinates":[-47.842625,-23.0545662]}},{"type":"Feature","properties":{"nome":"Centro","osm_id":5228887281,"osm_tipo":"node","tipo_lugar":"suburb"},"geometry":{"type":"Point","coordinates":[-47.8365563,-23.0494486]}},{"type":"Feature","properties":{"nome":"Jardim Panorama III","osm_id":5238652155,"osm_tipo":"node","tipo_lugar":"neighbourhood"},"geometry":{"type":"Point","coordinates":[-47.8354704,-23.061299]}},{"type":"Feature","properties":{"nome":"Jardim Panorama II","osm_id":5238652156,"osm_tipo":"node","tipo_lugar":"neighbourhood"},"geometry":{"type":"Point","coordinates":[-47.8361258,-23.0593643]}},{"type":"Feature","properties":{"nome":"Vila São José","osm_id":5238652157,"osm_tipo":"node","tipo_lugar":"suburb"},"geometry":{"type":"Point","coordinates":[-47.8298818,-23.0550715]}},{"type":"Feature","properties":{"nome":"Residencial Solar","osm_id":5238652159,"osm_tipo":"node","tipo_lugar":"neighbourhood"},"geometry":{"type":"Point","coordinates":[-47.8268215,-23.0537246]}},{"type":"Feature","properties":{"nome":"Ampliação da Vila São José","osm_id":5238652160,"osm_tipo":"node","tipo_lugar":"neighbourhood"},"geometry":{"type":"Point","coordinates":[-47.8281848,-23.0564541]}},{"type":"Feature","properties":{"nome":"Vila Bela Vista","osm_id":5238652161,"osm_tipo":"node","tipo_lugar":"neighbourhood"},"geometry":{"type":"Point","coordinates":[-47.8323993,-23.0590509]}},{"type":"Feature","properties":{"nome":"Residencial Bela Vista","osm_id":5240632720,"osm_tipo":"node","tipo_lugar":"neighbourhood"},"geometry":{"type":"Point","coordinates":[-47.8442369,-23.0592264]}},{"type":"Feature","properties":{"nome":"Jardim do Cruzeiro","osm_id":5241967525,"osm_tipo":"node","tipo_lugar":"neighbourhood"},"geometry":{"type":"Point","coordinates":[-47.8418855,-23.0564473]}},{"type":"Feature","properties":{"nome":"Pedro Zanella","osm_id":5248115980,"osm_tipo":"node","tipo_lugar":"suburb"},"geometry":{"type":"Point","coordinates":[-47.8302923,-23.0691007]}},{"type":"Feature","properties":{"nome":"Conjunto Habitacional Domingos Germano Castanho","osm_id":5248115981,"osm_tipo":"node","tipo_lugar":"neighbourhood"},"geometry":{"type":"Point","coordinates":[-47.82894,-23.0700092]}},{"type":"Feature","properties":{"nome":"Conjunto Habitacional Antonio Benetton","osm_id":5248115982,"osm_tipo":"node","tipo_lugar":"neighbourhood"},"geometry":{"type":"Point","coordinates":[-47.8333894,-23.0691245]}},{"type":"Feature","properties":{"nome":"Jardim Alto dos Laranjais","osm_id":5311088666,"osm_tipo":"node","tipo_lugar":"neighbourhood"},"geometry":{"type":"Point","coordinates":[-47.8316965,-23.060876]}},{"type":"Feature","properties":{"nome":"Jardim Alto dos Laranjais II","osm_id":5311121057,"osm_tipo":"node","tipo_lugar":"neighbourhood"},"geometry":{"type":"Point","coordinates":[-47.83392,-23.0614391]}},{"type":"Feature","properties":{"nome":"Residencial Colinas do Laranjal","osm_id":5311133578,"osm_tipo":"node","tipo_lugar":"neighbourhood"},"geometry":{"type":"Point","coordinates":[-47.8333734,-23.0640677]}},{"type":"Feature","properties":{"nome":"Jardim Panorama","osm_id":5311714224,"osm_tipo":"node","tipo_lugar":"neighbourhood"},"geometry":{"type":"Point","coordinates":[-47.8382706,-23.0591597]}},{"type":"Feature","properties":{"nome":"Jardim 10 de Outubro","osm_id":5311714225,"osm_tipo":"node","tipo_lugar":"neighbourhood"},"geometry":{"type":"Point","coordinates":[-47.8400785,-23.0575961]}},{"type":"Feature","properties":{"nome":"Vila Campacci","osm_id":5311714226,"osm_tipo":"node","tipo_lugar":"neighbourhood"},"geometry":{"type":"Point","coordinates":[-47.8362152,-23.0550849]}},{"type":"Feature","properties":{"nome":"Jardim Antônio Rugolo","osm_id":5400761113,"osm_tipo":"node","tipo_lugar":"neighbourhood"},"geometry":{"type":"Point","coordinates":[-47.8389197,-23.0329465]}},{"type":"Feature","properties":{"nome":"Residencial Vale do Sol","osm_id":5605297240,"osm_tipo":"node","tipo_lugar":"neighbourhood"},"geometry":{"type":"Point","coordinates":[-47.8371768,-23.0298121]}},{"type":"Feature","properties":{"nome":"Residencial Treviso","osm_id":6462620865,"osm_tipo":"node","tipo_lugar":"neighbourhood"},"geometry":{"type":"Point","coordinates":[-47.8387872,-23.0371457]}},{"type":"Feature","properties":{"nome":"Residencial Carlos Bazzo","osm_id":6575558976,"osm_tipo":"node","tipo_lugar":"neighbourhood"},"geometry":{"type":"Point","coordinates":[-47.8295308,-23.030905]}},{"type":"Feature","properties":{"nome":"Residencial das Paineiras","osm_id":6731999906,"osm_tipo":"node","tipo_lugar":"neighbourhood"},"geometry":{"type":"Point","coordinates":[-47.8816938,-23.0335127]}},{"type":"Feature","properties":{"nome":"Residencial Jardim Estrela","osm_id":10762164081,"osm_tipo":"node","tipo_lugar":"neighbourhood"},"geometry":{"type":"Point","coordinates":[-47.8351647,-23.0661103]}},{"type":"Feature","properties":{"nome":"Centro","osm_id":12487977746,"osm_tipo":"node","tipo_lugar":"neighbourhood"},"geometry":{"type":"Point","coordinates":[-47.8894685,-23.0391658]}},{"type":"Feature","properties":{"nome":"Residencial Maria Luiza","osm_id":12488056449,"osm_tipo":"node","tipo_lugar":"neighbourhood"},"geometry":{"type":"Point","coordinates":[-47.8851325,-23.0383364]}}]}