{"type":"FeatureCollection","features":[{"type":"Feature","properties":{"nome":"Caju","osm_id":4427203346,"osm_tipo":"node","tipo_lugar":"suburb"},"geometry":{"type":"Point","coordinates":[-47.1985769,-22.1748097]}},{"type":"Feature","properties":{"nome":"Parque São Manoel","osm_id":12187346642,"osm_tipo":"node","tipo_lugar":"suburb"},"geometry":{"type":"Point","coordinates":[-47.3743493,-22.168186]}},{"type":"Feature","properties":{"nome":"Jardim Alvorada","osm_id":12187350595,"osm_tipo":"node","tipo_lugar":"suburb"},"geometry":{"type":"Point","coordinates":[-47.3774104,-22.1943397]}},{"type":"Feature","properties":{"nome":"Jardim Letícia","osm_id":13127322185,"osm_tipo":"node","tipo_lugar":"suburb"},"geometry":{"type":"Point","coordinates":[-47.4060774,-22.1965057]}},{"type":"Feature","properties":{"nome":"Jardim Nova Leme","osm_id":13127322186,"osm_tipo":"node","tipo_lugar":"suburb"},"geometry":{"type":"Point","coordinates":[-47.4048371,-22.1919917]}},{"type":"Feature","properties":{"nome":"Jardim Renascença","osm_id":13127322187,"osm_tipo":"node","tipo_lugar":"suburb"},"geometry":{"type":"Point","coordinates":[-47.4021983,-22.194396]}},{"type":"Feature","properties":{"nome":"Jardim Empyreo","osm_id":13127322188,"osm_tipo":"node","tipo_lugar":"suburb"},"geometry":{"type":"Point","coordinates":[-47.3734127,-22.2072875]}},{"type":"Feature","properties":{"nome":"Jardim Florença","osm_id":13127322189,"osm_tipo":"node","tipo_lugar":"suburb"},"geometry":{"type":"Point","coordinates":[-47.4091379,-22.1953389]}},{"type":"Feature","properties":{"nome":"Jardim Silvana","osm_id":13127322190,"osm_tipo":"node","tipo_lugar":"suburb"},"geometry":{"type":"Point","coordinates":[-47.4007947,-22.1933689]}},{"type":"Feature","properties":{"nome":"Retiro Velho","osm_id":13127322191,"osm_tipo":"node","tipo_lugar":"suburb"},"geometry":{"type":"Point","coordinates":[-47.4044019,-22.1895816]}},{"type":"Feature","properties":{"nome":"Jardim Santa Helena","osm_id":13127322192,"osm_tipo":"node","tipo_lugar":"suburb"},"geometry":{"type":"Point","coordinates":[-47.4157578,-22.1921106]}},{"type":"Feature","properties":{"nome":"Vila Rica","osm_id":13127322193,"osm_tipo":"node","tipo_lugar":"suburb"},"geometry":{"type":"Point","coordinates":[-47.4094751,-22.189059]}},{"type":"Feature","properties":{"nome":"Villagio D'Italia","osm_id":13127322194,"osm_tipo":"node","tipo_lugar":"suburb"},"geometry":{"type":"Point","coordinates":[-47.4121388,-22.1878782]}},{"type":"Feature","properties":{"nome":"Vila Verde","osm_id":13127322195,"osm_tipo":"node","tipo_lugar":"suburb"},"geometry":{"type":"Point","coordinates":[-47.4112016,-22.185483]}},{"type":"Feature","properties":{"nome":"Jardim Portal do Bosque","osm_id":13127322196,"osm_tipo":"node","tipo_lugar":"suburb"},"geometry":{"type":"Point","coordinates":[-47.407331,-22.1855095]}},{"type":"Feature","properties":{"nome":"Recanto do Sol","osm_id":13127322197,"osm_tipo":"node","tipo_lugar":"suburb"},"geometry":{"type":"Point","coordinates":[-47.4065065,-22.1816895]}},{"type":"Feature","properties":{"nome":"Vila Santa Maria","osm_id":13127322198,"osm_tipo":"node","tipo_lugar":"suburb"},"geometry":{"type":"Point","coordinates":[-47.3794781,-22.1931743]}},{"type":"Feature","properties":{"nome":"Jardim Nova Era","osm_id":13127322199,"osm_tipo":"node","tipo_lugar":"suburb"},"geometry":{"type":"Point","coordinates":[-47.3801079,-22.1962934]}},{"type":"Feature","properties":{"nome":"Jardim Anteghini","osm_id":13127322200,"osm_tipo":"node","tipo_lugar":"suburb"},"geometry":{"type":"Point","coordinates":[-47.3766694,-22.1984404]}},{"type":"Feature","properties":{"nome":"Conjunto Habitacional Francisco Coelho","osm_id":13127328001,"osm_tipo":"node","tipo_lugar":"suburb"},"geometry":{"type":"Point","coordinates":[-47.3708318,-22.1996829]}},{"type":"Feature","properties":{"nome":"Jardim Residencial Altos da Santa Rita","osm_id":13127328002,"osm_tipo":"node","tipo_lugar":"suburb"},"geometry":{"type":"Point","coordinates":[-47.372235,-22.196887]}},{"type":"Feature","properties":{"nome":"Vila Santa Rita","osm_id":13127328003,"osm_tipo":"node","tipo_lugar":"suburb"},"geometry":{"type":"Point","coordinates":[-47.3759031,-22.1911253]}},{"type":"Feature","properties":{"nome":"Jardim dos Ypês","osm_id":13127328004,"osm_tipo":"node","tipo_lugar":"suburb"},"geometry":{"type":"Point","coordinates":[-47.3682028,-22.1982751]}},{"type":"Feature","properties":{"nome":"Centro","osm_id":13146119856,"osm_tipo":"node","tipo_lugar":"suburb"},"geometry":{"type":"Point","coordinates":[-47.3874274,-22.1838129]}},{"type":"Feature","properties":{"nome":"Jardim Capitólio","osm_id":13146119857,"osm_tipo":"node","tipo_lugar":"suburb"},"geometry":{"type":"Point","coordinates":[-47.395467,-22.1954585]}},{"type":"Feature","properties":{"nome":"Vila Bom Jesus","osm_id":13146119858,"osm_tipo":"node","tipo_lugar":"suburb"},"geometry":{"type":"Point","coordinates":[-47.3924055,-22.1969503]}},{"type":"Feature","properties":{"nome":"Vila Eroisi","osm_id":13146119859,"osm_tipo":"node","tipo_lugar":"suburb"},"geometry":{"type":"Point","coordinates":[-47.3880614,-22.1973304]}},{"type":"Feature","properties":{"nome":"Jardim Amália","osm_id":13146119860,"osm_tipo":"node","tipo_lugar":"suburb"},"geometry":{"type":"Point","coordinates":[-47.3911145,-22.1915701]}},{"type":"Feature","properties":{"nome":"Vila Terezinha","osm_id":13146119861,"osm_tipo":"node","tipo_lugar":"suburb"},"geometry":{"type":"Point","coordinates":[-47.3891378,-22.1885765]}},{"type":"Feature","properties":{"nome":"Jardim Tufanin","osm_id":13146119862,"osm_tipo":"node","tipo_lugar":"suburb"},"geometry":{"type":"Point","coordinates":[-47.3877222,-22.1899658]}},{"type":"Feature","properties":{"nome":"Vila Rauter","osm_id":13146119863,"osm_tipo":"node","tipo_lugar":"suburb"},"geometry":{"type":"Point","coordinates":[-47.3937057,-22.1920451]}},{"type":"Feature","properties":{"nome":"Vila Bancária","osm_id":13146119864,"osm_tipo":"node","tipo_lugar":"suburb"},"geometry":{"type":"Point","coordinates":[-47.3854892,-22.1947745]}},{"type":"Feature","properties":{"nome":"Jardim Cláudia","osm_id":13146119865,"osm_tipo":"node","tipo_lugar":"suburb"},"geometry":{"type":"Point","coordinates":[-47.3892278,-22.1994234]}},{"type":"Feature","properties":{"nome":"Vila Bela Vista","osm_id":13146119866,"osm_tipo":"node","tipo_lugar":"suburb"},"geometry":{"type":"Point","coordinates":[-47.3815578,-22.1885067]}},{"type":"Feature","properties":{"nome":"Vila Santa Inês","osm_id":13146127453,"osm_tipo":"node","tipo_lugar":"suburb"},"geometry":{"type":"Point","coordinates":[-47.3952082,-22.1835895]}},{"type":"Feature","properties":{"nome":"Vila São João","osm_id":13146127454,"osm_tipo":"node","tipo_lugar":"suburb"},"geometry":{"type":"Point","coordinates":[-47.3910217,-22.1776376]}},{"type":"Feature","properties":{"nome":"Vila Santucci","osm_id":13146127455,"osm_tipo":"node","tipo_lugar":"suburb"},"geometry":{"type":"Point","coordinates":[-47.3932632,-22.1786723]}},{"type":"Feature","properties":{"nome":"Vila Joest","osm_id":13146127456,"osm_tipo":"node","tipo_lugar":"suburb"},"geometry":{"type":"Point","coordinates":[-47.3962064,-22.1801178]}},{"type":"Feature","properties":{"nome":"Cidade Jardim","osm_id":13146127457,"osm_tipo":"node","tipo_lugar":"suburb"},"geometry":{"type":"Point","coordinates":[-47.393729,-22.1728282]}},{"type":"Feature","properties":{"nome":"Jardim Universitário","osm_id":13146127458,"osm_tipo":"node","tipo_lugar":"suburb"},"geometry":{"type":"Point","coordinates":[-47.3880299,-22.1720512]}},{"type":"Feature","properties":{"nome":"Barra Funda","osm_id":13146127459,"osm_tipo":"node","tipo_lugar":"suburb"},"geometry":{"type":"Point","coordinates":[-47.3822723,-22.1784758]}},{"type":"Feature","properties":{"nome":"Jardim Juana","osm_id":13146127460,"osm_tipo":"node","tipo_lugar":"suburb"},"geometry":{"type":"Point","coordinates":[-47.3749295,-22.1826927]}},{"type":"Feature","properties":{"nome":"Jardim Royal Ville","osm_id":13146127461,"osm_tipo":"node","tipo_lugar":"suburb"},"geometry":{"type":"Point","coordinates":[-47.3775193,-22.1827404]}},{"type":"Feature","properties":{"nome":"Vila Campo Belo","osm_id":13194668255,"osm_tipo":"node","tipo_lugar":"suburb"},"geometry":{"type":"Point","coordinates":[-47.3575334,-22.1977536]}},{"type":"Feature","properties":{"nome":"Jardim Imperial","osm_id":13194668256,"osm_tipo":"node","tipo_lugar":"suburb"},"geometry":{"type":"Point","coordinates":[-47.3593095,-22.2000639]}},{"type":"Feature","properties":{"nome":"Jardim Monte Bello 1","osm_id":13194668257,"osm_tipo":"node","tipo_lugar":"suburb"},"geometry":{"type":"Point","coordinates":[-47.4032186,-22.1722163]}},{"type":"Feature","properties":{"nome":"Jardim Monte Bello 2","osm_id":13194668258,"osm_tipo":"node","tipo_lugar":"suburb"},"geometry":{"type":"Point","coordinates":[-47.4054969,-22.1657253]}},{"type":"Feature","properties":{"nome":"Vale Verde","osm_id":13194716774,"osm_tipo":"node","tipo_lugar":"suburb"},"geometry":{"type":"Point","coordinates":[-47.4095941,-22.1825313]}},{"type":"Feature","properties":{"nome":"Jardim Residencial Crishmara","osm_id":13194716775,"osm_tipo":"node","tipo_lugar":"suburb"},"geometry":{"type":"Point","coordinates":[-47.4053447,-22.1779887]}},{"type":"Feature","properties":{"nome":"Jardim Clube do BosqueJardim Clube do Bosque","osm_id":13194716776,"osm_tipo":"node","tipo_lugar":"suburb"},"geometry":{"type":"Point","coordinates":[-47.4046959,-22.1754937]}},{"type":"Feature","properties":{"nome":"Jardim Água Espraiada","osm_id":13194716777,"osm_tipo":"node","tipo_lugar":"suburb"},"geometry":{"type":"Point","coordinates":[-47.410324,-22.1730276]}},{"type":"Feature","properties":{"nome":"Jardim do Bosque","osm_id":13194716778,"osm_tipo":"node","tipo_lugar":"suburb"},"geometry":{"type":"Point","coordinates":[-47.4019907,-22.1829712]}},{"type":"Feature","properties":{"nome":"Parque Alto das Palmeiras","osm_id":13194716784,"osm_tipo":"node","tipo_lugar":"suburb"},"geometry":{"type":"Point","coordinates":[-47.3954731,-22.1647744]}},{"type":"Feature","properties":{"nome":"Jardim Villagio São Pedro","osm_id":13194716785,"osm_tipo":"node","tipo_lugar":"suburb"},"geometry":{"type":"Point","coordinates":[-47.3888343,-22.1685246]}},{"type":"Feature","properties":{"nome":"Vila São Jorge","osm_id":13194716786,"osm_tipo":"node","tipo_lugar":"suburb"},"geometry":{"type":"Point","coordinates":[-47.3820776,-22.1730536]}},{"type":"Feature","properties":{"nome":"Vila Sumaré","osm_id":13194716787,"osm_tipo":"node","tipo_lugar":"suburb"},"geometry":{"type":"Point","coordinates":[-47.3804867,-22.1708402]}},{"type":"Feature","properties":{"nome":"Vila Santana","osm_id":13194716788,"osm_tipo":"node","tipo_lugar":"suburb"},"geometry":{"type":"Point","coordinates":[-47.3773322,-22.1714797]}},{"type":"Feature","properties":{"nome":"Jardim Eldorado","osm_id":13194716789,"osm_tipo":"node","tipo_lugar":"suburb"},"geometry":{"type":"Point","coordinates":[-47.3722244,-22.1699127]}},{"type":"Feature","properties":{"nome":"Jardim das Palmeiras","osm_id":13194716790,"osm_tipo":"node","tipo_lugar":"suburb"},"geometry":{"type":"Point","coordinates":[-47.3809532,-22.164677]}},{"type":"Feature","properties":{"nome":"Jardim São Joaquim","osm_id":13194716791,"osm_tipo":"node","tipo_lugar":"suburb"},"geometry":{"type":"Point","coordinates":[-47.3763604,-22.1645911]}},{"type":"Feature","properties":{"nome":"Jardim Flórida","osm_id":13194716792,"osm_tipo":"node","tipo_lugar":"suburb"},"geometry":{"type":"Point","coordinates":[-47.3773655,-22.1605776]}},{"type":"Feature","properties":{"nome":"Conjunto Habitacional Victório Bonfanti","osm_id":13194716793,"osm_tipo":"node","tipo_lugar":"suburb"},"geometry":{"type":"Point","coordinates":[-47.3820071,-22.1625195]}},{"type":"Feature","properties":{"nome":"Jardim São Rafael","osm_id":13194716794,"osm_tipo":"node","tipo_lugar":"suburb"},"geometry":{"type":"Point","coordinates":[-47.3822629,-22.1612951]}},{"type":"Feature","properties":{"nome":"Jardim Alto da Boa Vista","osm_id":13194716795,"osm_tipo":"node","tipo_lugar":"suburb"},"geometry":{"type":"Point","coordinates":[-47.3741391,-22.1622102]}},{"type":"Feature","properties":{"nome":"Jardim Angélica","osm_id":13194716796,"osm_tipo":"node","tipo_lugar":"suburb"},"geometry":{"type":"Point","coordinates":[-47.3724022,-22.1578671]}},{"type":"Feature","properties":{"nome":"Residencial dos Ipês","osm_id":13194716797,"osm_tipo":"node","tipo_lugar":"suburb"},"geometry":{"type":"Point","coordinates":[-47.3714558,-22.1528206]}},{"type":"Feature","properties":{"nome":"Jardim Rocco Lenci","osm_id":13194716798,"osm_tipo":"node","tipo_lugar":"suburb"},"geometry":{"type":"Point","coordinates":[-47.3735062,-22.175186]}},{"type":"Feature","properties":{"nome":"Jardim Casarão","osm_id":13194716799,"osm_tipo":"node","tipo_lugar":"suburb"},"geometry":{"type":"Point","coordinates":[-47.3746903,-22.178731]}},{"type":"Feature","properties":{"nome":"Jardim Primavera","osm_id":13194716800,"osm_tipo":"node","tipo_lugar":"suburb"},"geometry":{"type":"Point","coordinates":[-47.3691501,-22.1782424]}},{"type":"Feature","properties":{"nome":"CDHU","osm_id":13194761843,"osm_tipo":"node","tipo_lugar":"suburb"},"geometry":{"type":"Point","coordinates":[-47.3661653,-22.1968894]}},{"type":"Feature","properties":{"nome":"Jardim Eloísa","osm_id":13194761844,"osm_tipo":"node","tipo_lugar":"suburb"},"geometry":{"type":"Point","coordinates":[-47.3661237,-22.1948584]}},{"type":"Feature","properties":{"nome":"Jardim Nova Santa Rita","osm_id":13194761845,"osm_tipo":"node","tipo_lugar":"suburb"},"geometry":{"type":"Point","coordinates":[-47.370944,-22.1936388]}},{"type":"Feature","properties":{"nome":"Vila Nova","osm_id":13194761846,"osm_tipo":"node","tipo_lugar":"suburb"},"geometry":{"type":"Point","coordinates":[-47.3739875,-22.1948168]}},{"type":"Feature","properties":{"nome":"Jardim Arrais","osm_id":13194761847,"osm_tipo":"node","tipo_lugar":"suburb"},"geometry":{"type":"Point","coordinates":[-47.3624538,-22.2000846]}},{"type":"Feature","properties":{"nome":"Jardim Residencial Pavan","osm_id":13194761848,"osm_tipo":"node","tipo_lugar":"suburb"},"geometry":{"type":"Point","coordinates":[-47.3618251,-22.197914]}},{"type":"Feature","properties":{"nome":"Jardim Vanessa","osm_id":13194761849,"osm_tipo":"node","tipo_lugar":"suburb"},"geometry":{"type":"Point","coordinates":[-47.3609912,-22.1956435]}},{"type":"Feature","properties":{"nome":"Jardim Adelina","osm_id":13194761850,"osm_tipo":"node","tipo_lugar":"suburb"},"geometry":{"type":"Point","coordinates":[-47.36258,-22.1930601]}},{"type":"Feature","properties":{"nome":"Jardim Bonsucesso","osm_id":13194761851,"osm_tipo":"node","tipo_lugar":"suburb"},"geometry":{"type":"Point","coordinates":[-47.3669178,-22.1923441]}},{"type":"Feature","properties":{"nome":"Jardim Graminha","osm_id":13194772624,"osm_tipo":"node","tipo_lugar":"suburb"},"geometry":{"type":"Point","coordinates":[-47.3579151,-22.1917928]}},{"type":"Feature","properties":{"nome":"Jardim Residencial Quáglia","osm_id":13194772625,"osm_tipo":"node","tipo_lugar":"suburb"},"geometry":{"type":"Point","coordinates":[-47.3554237,-22.1901353]}},{"type":"Feature","properties":{"nome":"Jardim Jequitibá","osm_id":13194772626,"osm_tipo":"node","tipo_lugar":"suburb"},"geometry":{"type":"Point","coordinates":[-47.3636147,-22.1914009]}},{"type":"Feature","properties":{"nome":"Jardim Ana Lúcia","osm_id":13194772627,"osm_tipo":"node","tipo_lugar":"suburb"},"geometry":{"type":"Point","coordinates":[-47.3632636,-22.1897242]}},{"type":"Feature","properties":{"nome":"Arcindo Rinaldi","osm_id":13194772628,"osm_tipo":"node","tipo_lugar":"suburb"},"geometry":{"type":"Point","coordinates":[-47.3655471,-22.1893949]}},{"type":"Feature","properties":{"nome":"Jardim Ariana","osm_id":13194772629,"osm_tipo":"node","tipo_lugar":"suburb"},"geometry":{"type":"Point","coordinates":[-47.365842,-22.1857612]}},{"type":"Feature","properties":{"nome":"Jardim Presidente","osm_id":13194782258,"osm_tipo":"node","tipo_lugar":"suburb"},"geometry":{"type":"Point","coordinates":[-47.3720919,-22.1801458]}},{"type":"Feature","properties":{"nome":"Jardim Vista Alegre","osm_id":13194782259,"osm_tipo":"node","tipo_lugar":"suburb"},"geometry":{"type":"Point","coordinates":[-47.3767909,-22.1771319]}},{"type":"Feature","properties":{"nome":"Vila Suiça","osm_id":13194782260,"osm_tipo":"node","tipo_lugar":"suburb"},"geometry":{"type":"Point","coordinates":[-47.3763597,-22.175069]}},{"type":"Feature","properties":{"nome":"Jardim Dibi","osm_id":13194782261,"osm_tipo":"node","tipo_lugar":"suburb"},"geometry":{"type":"Point","coordinates":[-47.3783883,-22.1747644]}},{"type":"Feature","properties":{"nome":"Jardim do Parque","osm_id":13194782262,"osm_tipo":"node","tipo_lugar":"suburb"},"geometry":{"type":"Point","coordinates":[-47.3655187,-22.1779988]}},{"type":"Feature","properties":{"nome":"Jardim Governador","osm_id":13194788101,"osm_tipo":"node","tipo_lugar":"suburb"},"geometry":{"type":"Point","coordinates":[-47.3695619,-22.1755006]}},{"type":"Feature","properties":{"nome":"Jardim Novo Horizonte","osm_id":13194788102,"osm_tipo":"node","tipo_lugar":"suburb"},"geometry":{"type":"Point","coordinates":[-47.3661074,-22.1748951]}},{"type":"Feature","properties":{"nome":"Conjunto Habitacional Ferdinando Marchi","osm_id":13194788103,"osm_tipo":"node","tipo_lugar":"suburb"},"geometry":{"type":"Point","coordinates":[-47.3682932,-22.1736941]}},{"type":"Feature","properties":{"nome":"Loteamento Grossklauss","osm_id":13194794064,"osm_tipo":"node","tipo_lugar":"suburb"},"geometry":{"type":"Point","coordinates":[-47.3700607,-22.1900076]}},{"type":"Feature","properties":{"nome":"Parque Residencial Itamaraty","osm_id":13194794065,"osm_tipo":"node","tipo_lugar":"suburb"},"geometry":{"type":"Point","coordinates":[-47.3699289,-22.1873137]}},{"type":"Feature","properties":{"nome":"Jardim Nova Granada","osm_id":13194794066,"osm_tipo":"node","tipo_lugar":"suburb"},"geometry":{"type":"Point","coordinates":[-47.3743088,-22.1865083]}},{"type":"Feature","properties":{"nome":"Jardim São Francisco","osm_id":13194794067,"osm_tipo":"node","tipo_lugar":"suburb"},"geometry":{"type":"Point","coordinates":[-47.3778553,-22.1863456]}},{"type":"Feature","properties":{"nome":"Vila Zarif","osm_id":13194794068,"osm_tipo":"node","tipo_lugar":"suburb"},"geometry":{"type":"Point","coordinates":[-47.3835123,-22.1972746]}},{"type":"Feature","properties":{"nome":"Jardim Santa Paula","osm_id":13194794069,"osm_tipo":"node","tipo_lugar":"suburb"},"geometry":{"type":"Point","coordinates":[-47.378265,-22.2011845]}},{"type":"Feature","properties":{"nome":"Jardim Santa Marta","osm_id":13194794070,"osm_tipo":"node","tipo_lugar":"suburb"},"geometry":{"type":"Point","coordinates":[-47.3758353,-22.2025126]}},{"type":"Feature","properties":{"nome":"Jardim Residencial Saulo","osm_id":13194794071,"osm_tipo":"node","tipo_lugar":"suburb"},"geometry":{"type":"Point","coordinates":[-47.3796131,-22.2045569]}},{"type":"Feature","properties":{"nome":"Jardim Isabel Cristina","osm_id":13194794072,"osm_tipo":"node","tipo_lugar":"suburb"},"geometry":{"type":"Point","coordinates":[-47.3774864,-22.2060511]}},{"type":"Feature","properties":{"nome":"Jardim São José","osm_id":13194794073,"osm_tipo":"node","tipo_lugar":"suburb"},"geometry":{"type":"Point","coordinates":[-47.3858289,-22.2014434]}},{"type":"Feature","properties":{"nome":"Jardim Travagin","osm_id":13194794074,"osm_tipo":"node","tipo_lugar":"suburb"},"geometry":{"type":"Point","coordinates":[-47.3872329,-22.2050844]}},{"type":"Feature","properties":{"nome":"Jardim do Sol","osm_id":13194794075,"osm_tipo":"node","tipo_lugar":"suburb"},"geometry":{"type":"Point","coordinates":[-47.3909821,-22.2059365]}},{"type":"Feature","properties":{"nome":"Vila Serelepe","osm_id":13194794076,"osm_tipo":"node","tipo_lugar":"suburb"},"geometry":{"type":"Point","coordinates":[-47.3894538,-22.2074156]}},{"type":"Feature","properties":{"nome":"Jardim Serelepe","osm_id":13194794077,"osm_tipo":"node","tipo_lugar":"suburb"},"geometry":{"type":"Point","coordinates":[-47.3875073,-22.2091177]}},{"type":"Feature","properties":{"nome":"Jardim Residencial Cambuhy","osm_id":13194794078,"osm_tipo":"node","tipo_lugar":"suburb"},"geometry":{"type":"Point","coordinates":[-47.3864175,-22.2114932]}},{"type":"Feature","properties":{"nome":"Jardim Residencial Mariana","osm_id":13194794079,"osm_tipo":"node","tipo_lugar":"suburb"},"geometry":{"type":"Point","coordinates":[-47.3891392,-22.2133251]}},{"type":"Feature","properties":{"nome":"Jardim Residencial Santa Carolina","osm_id":13194794080,"osm_tipo":"node","tipo_lugar":"suburb"},"geometry":{"type":"Point","coordinates":[-47.3837853,-22.213509]}},{"type":"Feature","properties":{"nome":"Chácaras da Saúde","osm_id":13194806523,"osm_tipo":"node","tipo_lugar":"suburb"},"geometry":{"type":"Point","coordinates":[-47.3935161,-22.2238202]}},{"type":"Feature","properties":{"nome":"Jardim Paraíso","osm_id":13197899152,"osm_tipo":"node","tipo_lugar":"suburb"},"geometry":{"type":"Point","coordinates":[-47.405979,-22.1795224]}},{"type":"Feature","properties":{"nome":"Distrito Industrial Marino Zanetti","osm_id":13198245908,"osm_tipo":"node","tipo_lugar":"suburb"},"geometry":{"type":"Point","coordinates":[-47.3925417,-22.2141177]}},{"type":"Feature","properties":{"nome":"Jardim Maristela","osm_id":13198248437,"osm_tipo":"node","tipo_lugar":"suburb"},"geometry":{"type":"Point","coordinates":[-47.3846129,-22.1929071]}},{"type":"Feature","properties":{"nome":"Jardim Residencial Santa Carolina 2","osm_id":13207132595,"osm_tipo":"node","tipo_lugar":"suburb"},"geometry":{"type":"Point","coordinates":[-47.3820235,-22.2176013]}},{"type":"Feature","properties":{"nome":"Jardim Regina","osm_id":13207157201,"osm_tipo":"node","tipo_lugar":"suburb"},"geometry":{"type":"Point","coordinates":[-47.4082566,-22.1967737]}},{"type":"Feature","properties":{"nome":"Jardim dos Girassóis","osm_id":13207157202,"osm_tipo":"node","tipo_lugar":"suburb"},"geometry":{"type":"Point","coordinates":[-47.4001123,-22.1919491]}},{"type":"Feature","properties":{"nome":"Parque das Árvores","osm_id":13207157203,"osm_tipo":"node","tipo_lugar":"suburb"},"geometry":{"type":"Point","coordinates":[-47.4092694,-22.2005235]}},{"type":"Feature","properties":{"nome":"Campos Elyseos","osm_id":13207157204,"osm_tipo":"node","tipo_lugar":"suburb"},"geometry":{"type":"Point","coordinates":[-47.4154768,-22.1709296]}},{"type":"Feature","properties":{"nome":"Jardim Taquaral","osm_id":13207157205,"osm_tipo":"node","tipo_lugar":"suburb"},"geometry":{"type":"Point","coordinates":[-47.3823643,-22.1598676]}},{"type":"Feature","properties":{"nome":"Jardim Residencial Ernesto Esgarboze","osm_id":13207157206,"osm_tipo":"node","tipo_lugar":"suburb"},"geometry":{"type":"Point","coordinates":[-47.3536968,-22.1884781]}},{"type":"Feature","properties":{"nome":"Jardim Flamboyant","osm_id":13207167423,"osm_tipo":"node","tipo_lugar":"suburb"},"geometry":{"type":"Point","coordinates":[-47.3850383,-22.1676943]}},{"type":"Feature","properties":{"nome":"Jardim Silvana","osm_id":435581047,"osm_tipo":"way","tipo_lugar":"suburb"},"geometry":{"type":"Polygon","coordinates":[[[-47.4024108,-22.1924634],[-47.4001156,-22.195138],[-47.3992399,-22.1940482],[-47.4013053,-22.1915926],[-47.4024108,-22.1924634]]]}},{"type":"Feature","properties":{"nome":"Jardim Serelepe","osm_id":436186450,"osm_tipo":"way","tipo_lugar":"suburb"},"geometry":{"type":"Polygon","coordinates":[[[-47.3902907,-22.210287],[-47.3862245,-22.2100486],[-47.385981,-22.2078701],[-47.388499,-22.2079826],[-47.3902907,-22.210287]]]}},{"type":"Feature","properties":{"nome":"Jardim Residencial Cambuhy","osm_id":436186995,"osm_tipo":"way","tipo_lugar":"suburb"},"geometry":{"type":"Polygon","coordinates":[[[-47.3883918,-22.2101757],[-47.3876836,-22.2147765],[-47.3826517,-22.2086381],[-47.3859463,-22.2074617],[-47.3862245,-22.2100486],[-47.3883918,-22.2101757]]]}},{"type":"Feature","properties":{"nome":"Distrito Industrial das Pequenas e Médias Empresas Paulo Kinock","osm_id":437350273,"osm_tipo":"way","tipo_lugar":"suburb"},"geometry":{"type":"Polygon","coordinates":[[[-47.3963101,-22.2033759],[-47.4016525,-22.2045558],[-47.400125,-22.2147509],[-47.3949284,-22.2091326],[-47.3963101,-22.2033759]]]}},{"type":"Feature","properties":{"nome":"Jardim Empyreo","osm_id":507854929,"osm_tipo":"way","tipo_lugar":"suburb"},"geometry":{"type":"Polygon","coordinates":[[[-47.375588,-22.2059552],[-47.36898,-22.2022871],[-47.3752768,-22.213822],[-47.3795254,-22.2112594],[-47.375588,-22.2059552]]]}},{"type":"Feature","properties":{"nome":"Recanto da Colina","osm_id":909617438,"osm_tipo":"way","tipo_lugar":"suburb"},"geometry":{"type":"Polygon","coordinates":[[[-47.4770679,-22.1942877],[-47.4818275,-22.1923057],[-47.4792239,-22.1887424],[-47.4695573,-22.1933194],[-47.4716245,-22.1948528],[-47.4730159,-22.1929077],[-47.4770679,-22.1942877]]]}},{"type":"Feature","properties":{"nome":"Jardim Letícia","osm_id":1216371481,"osm_tipo":"way","tipo_lugar":"neighbourhood"},"geometry":{"type":"Polygon","coordinates":[[[-47.4071284,-22.1966524],[-47.4054979,-22.1945618],[-47.4043798,-22.1965854],[-47.4059196,-22.1981178],[-47.4074246,-22.197874],[-47.4071284,-22.1966524]]]}},{"type":"Feature","properties":{"nome":"Jardim Renascença","osm_id":1216371482,"osm_tipo":"way","tipo_lugar":"neighbourhood"},"geometry":{"type":"Polygon","coordinates":[[[-47.4054979,-22.1945618],[-47.4043798,-22.1965854],[-47.4001156,-22.195138],[-47.402414,-22.1924049],[-47.4054979,-22.1945618]]]}},{"type":"Feature","properties":{"nome":"Jardim Florença","osm_id":1216371483,"osm_tipo":"way","tipo_lugar":"neighbourhood"},"geometry":{"type":"Polygon","coordinates":[[[-47.4083865,-22.1951269],[-47.4094513,-22.1961057],[-47.4101089,-22.1948333],[-47.4083865,-22.1951269]]]}},{"type":"Feature","properties":{"nome":"Retiro Velho","osm_id":1216371484,"osm_tipo":"way","tipo_lugar":"neighbourhood"},"geometry":{"type":"Polygon","coordinates":[[[-47.4085143,-22.1888636],[-47.4010076,-22.1887596],[-47.407511,-22.1909468],[-47.4085143,-22.1888636]]]}},{"type":"Feature","properties":{"nome":"Jardim Nova Leme","osm_id":1216371485,"osm_tipo":"way","tipo_lugar":"neighbourhood"},"geometry":{"type":"Polygon","coordinates":[[[-47.399229,-22.1892664],[-47.4125473,-22.1925212],[-47.4105864,-22.1950224],[-47.4063262,-22.1953471],[-47.399229,-22.1892664]]]}},{"type":"Feature","properties":{"nome":"Jardim Santa Helena","osm_id":1216373112,"osm_tipo":"way","tipo_lugar":"neighbourhood"},"geometry":{"type":"Polygon","coordinates":[[[-47.4193874,-22.1913042],[-47.4189448,-22.1952008],[-47.4135563,-22.1949351],[-47.4122125,-22.1910956],[-47.4157396,-22.1896775],[-47.4193874,-22.1913042]]]}},{"type":"Feature","properties":{"nome":"Vila Rica","osm_id":1216373114,"osm_tipo":"way","tipo_lugar":"neighbourhood"},"geometry":{"type":"Polygon","coordinates":[[[-47.4105409,-22.1893761],[-47.408843,-22.1883018],[-47.4083065,-22.189987],[-47.4105409,-22.1893761]]]}},{"type":"Feature","properties":{"nome":"Villagio D'Italia","osm_id":1216373115,"osm_tipo":"way","tipo_lugar":"neighbourhood"},"geometry":{"type":"Polygon","coordinates":[[[-47.412531,-22.1899547],[-47.408843,-22.1883018],[-47.4096292,-22.1858711],[-47.413612,-22.1869868],[-47.4154574,-22.189242],[-47.412531,-22.1899547]]]}},{"type":"Feature","properties":{"nome":"Vila Verde","osm_id":1216373116,"osm_tipo":"way","tipo_lugar":"neighbourhood"},"geometry":{"type":"Polygon","coordinates":[[[-47.413612,-22.1869868],[-47.4100459,-22.1849019],[-47.4112046,-22.1837594],[-47.413612,-22.1869868]]]}},{"type":"Feature","properties":{"nome":"Distrito Industrial II Fernando Santucci","osm_id":1236192816,"osm_tipo":"way","tipo_lugar":"suburb"},"geometry":{"type":"Polygon","coordinates":[[[-47.400125,-22.2147509],[-47.4030874,-22.2182263],[-47.4049342,-22.2085662],[-47.4019588,-22.2049416],[-47.400125,-22.2147509]]]}},{"type":"Feature","properties":{"nome":"Loteamento Industrial Anhanguera","osm_id":1237875110,"osm_tipo":"way","tipo_lugar":"neighbourhood"},"geometry":{"type":"Polygon","coordinates":[[[-47.3984097,-22.2036948],[-47.3989797,-22.1964633],[-47.4055053,-22.2054206],[-47.3984097,-22.2036948]]]}}]}