{"type":"FeatureCollection","features":[{"type":"Feature","properties":{"nome":"Monterrey","osm_id":4040113868,"osm_tipo":"node","tipo_lugar":"suburb"},"geometry":{"type":"Point","coordinates":[-46.876428,-23.0840353]}},{"type":"Feature","properties":{"nome":"Centro","osm_id":6315312424,"osm_tipo":"node","tipo_lugar":"suburb"},"geometry":{"type":"Point","coordinates":[-46.950868,-23.0882759]}},{"type":"Feature","properties":{"nome":"Vila Bossi","osm_id":6315378856,"osm_tipo":"node","tipo_lugar":"suburb"},"geometry":{"type":"Point","coordinates":[-46.9528556,-23.0817349]}},{"type":"Feature","properties":{"nome":"Bairro Pinho Rei","osm_id":8333898876,"osm_tipo":"node","tipo_lugar":"suburb"},"geometry":{"type":"Point","coordinates":[-46.9674366,-23.1076618]}},{"type":"Feature","properties":{"nome":"Colinas de São José","osm_id":8333898877,"osm_tipo":"node","tipo_lugar":"suburb"},"geometry":{"type":"Point","coordinates":[-46.9780376,-23.1010352]}},{"type":"Feature","properties":{"nome":"Jardim Ana Maria","osm_id":8333898878,"osm_tipo":"node","tipo_lugar":"suburb"},"geometry":{"type":"Point","coordinates":[-46.978562,-23.0982956]}},{"type":"Feature","properties":{"nome":"Jardim Juliana","osm_id":8333898879,"osm_tipo":"node","tipo_lugar":"suburb"},"geometry":{"type":"Point","coordinates":[-46.9738701,-23.0992191]}},{"type":"Feature","properties":{"nome":"Residencial Burck","osm_id":8333898880,"osm_tipo":"node","tipo_lugar":"suburb"},"geometry":{"type":"Point","coordinates":[-46.9713704,-23.0960718]}},{"type":"Feature","properties":{"nome":"Vila da Conquista","osm_id":8333898881,"osm_tipo":"node","tipo_lugar":"suburb"},"geometry":{"type":"Point","coordinates":[-46.9887448,-23.0975795]}},{"type":"Feature","properties":{"nome":"Loteamento Residencial Serra Azul","osm_id":8333898882,"osm_tipo":"node","tipo_lugar":"suburb"},"geometry":{"type":"Point","coordinates":[-46.9809591,-23.0883068]}},{"type":"Feature","properties":{"nome":"Colina da Bela Vista","osm_id":8333898883,"osm_tipo":"node","tipo_lugar":"suburb"},"geometry":{"type":"Point","coordinates":[-46.9717392,-23.0869875]}},{"type":"Feature","properties":{"nome":"Bairro Popular III","osm_id":8333898884,"osm_tipo":"node","tipo_lugar":"suburb"},"geometry":{"type":"Point","coordinates":[-46.9485144,-23.1044909]}},{"type":"Feature","properties":{"nome":"Vila Caldana","osm_id":8333956106,"osm_tipo":"node","tipo_lugar":"suburb"},"geometry":{"type":"Point","coordinates":[-46.94204,-23.0929382]}},{"type":"Feature","properties":{"nome":"Bairro Leitão","osm_id":8333956107,"osm_tipo":"node","tipo_lugar":"suburb"},"geometry":{"type":"Point","coordinates":[-46.9444781,-23.0987807]}},{"type":"Feature","properties":{"nome":"Jardim Vera Cruz","osm_id":8333956108,"osm_tipo":"node","tipo_lugar":"suburb"},"geometry":{"type":"Point","coordinates":[-46.9498827,-23.0928634]}},{"type":"Feature","properties":{"nome":"Casa Grande I","osm_id":8333956109,"osm_tipo":"node","tipo_lugar":"suburb"},"geometry":{"type":"Point","coordinates":[-46.9541034,-23.0909033]}},{"type":"Feature","properties":{"nome":"Casa Grande II","osm_id":8333956110,"osm_tipo":"node","tipo_lugar":"suburb"},"geometry":{"type":"Point","coordinates":[-46.953837,-23.0891693]}},{"type":"Feature","properties":{"nome":"Parque dos Sabiás","osm_id":8333956111,"osm_tipo":"node","tipo_lugar":"suburb"},"geometry":{"type":"Point","coordinates":[-46.9549024,-23.0873034]}},{"type":"Feature","properties":{"nome":"Vila Nova","osm_id":8333956112,"osm_tipo":"node","tipo_lugar":"suburb"},"geometry":{"type":"Point","coordinates":[-46.9446581,-23.088095]}},{"type":"Feature","properties":{"nome":"Jardim Nova América","osm_id":8333956113,"osm_tipo":"node","tipo_lugar":"suburb"},"geometry":{"type":"Point","coordinates":[-46.9344342,-23.0895463]}},{"type":"Feature","properties":{"nome":"Sagrado Coração de Jesus","osm_id":8333956114,"osm_tipo":"node","tipo_lugar":"suburb"},"geometry":{"type":"Point","coordinates":[-46.9417897,-23.0869265]}},{"type":"Feature","properties":{"nome":"Santa Isabel","osm_id":8333956115,"osm_tipo":"node","tipo_lugar":"suburb"},"geometry":{"type":"Point","coordinates":[-46.9354792,-23.0832699]}},{"type":"Feature","properties":{"nome":"Jardim 21 de Março","osm_id":8333956116,"osm_tipo":"node","tipo_lugar":"suburb"},"geometry":{"type":"Point","coordinates":[-46.9433468,-23.0840616]}},{"type":"Feature","properties":{"nome":"Vila Pasti","osm_id":8333961417,"osm_tipo":"node","tipo_lugar":"suburb"},"geometry":{"type":"Point","coordinates":[-46.9462152,-23.0807254]}},{"type":"Feature","properties":{"nome":"Jardim Niero","osm_id":8333961418,"osm_tipo":"node","tipo_lugar":"suburb"},"geometry":{"type":"Point","coordinates":[-46.9441049,-23.0773892]}},{"type":"Feature","properties":{"nome":"Abadia","osm_id":8333961419,"osm_tipo":"node","tipo_lugar":"suburb"},"geometry":{"type":"Point","coordinates":[-46.9242188,-23.0933053]}},{"type":"Feature","properties":{"nome":"Condomínio Jardim Abadia","osm_id":8333961420,"osm_tipo":"node","tipo_lugar":"suburb"},"geometry":{"type":"Point","coordinates":[-46.924813,-23.0888009]}},{"type":"Feature","properties":{"nome":"Bairro Rio Acima","osm_id":8333961421,"osm_tipo":"node","tipo_lugar":"suburb"},"geometry":{"type":"Point","coordinates":[-46.8907392,-23.0925554]}},{"type":"Feature","properties":{"nome":"Arataba II","osm_id":8333961422,"osm_tipo":"node","tipo_lugar":"suburb"},"geometry":{"type":"Point","coordinates":[-46.8954192,-23.078331]}},{"type":"Feature","properties":{"nome":"Arataba","osm_id":8333961423,"osm_tipo":"node","tipo_lugar":"suburb"},"geometry":{"type":"Point","coordinates":[-46.9031844,-23.0739015]}},{"type":"Feature","properties":{"nome":"Luiz Gonzaga","osm_id":8333961424,"osm_tipo":"node","tipo_lugar":"suburb"},"geometry":{"type":"Point","coordinates":[-46.917262,-23.0745612]}},{"type":"Feature","properties":{"nome":"Videira","osm_id":8337630583,"osm_tipo":"node","tipo_lugar":"suburb"},"geometry":{"type":"Point","coordinates":[-46.9497506,-23.0751798]}},{"type":"Feature","properties":{"nome":"Ponte Preta","osm_id":8337630584,"osm_tipo":"node","tipo_lugar":"suburb"},"geometry":{"type":"Point","coordinates":[-46.9395472,-23.0743881]}},{"type":"Feature","properties":{"nome":"Jardim Bandeirantes","osm_id":8337630585,"osm_tipo":"node","tipo_lugar":"suburb"},"geometry":{"type":"Point","coordinates":[-46.9552825,-23.0801559]}},{"type":"Feature","properties":{"nome":"Parque dos Estados","osm_id":8337630586,"osm_tipo":"node","tipo_lugar":"suburb"},"geometry":{"type":"Point","coordinates":[-46.9634165,-23.0879779]}},{"type":"Feature","properties":{"nome":"Terra Nobre","osm_id":8337630587,"osm_tipo":"node","tipo_lugar":"suburb"},"geometry":{"type":"Point","coordinates":[-46.9628838,-23.0826251]}},{"type":"Feature","properties":{"nome":"Jardim Primavera","osm_id":8337630588,"osm_tipo":"node","tipo_lugar":"suburb"},"geometry":{"type":"Point","coordinates":[-46.9368017,-23.0690347]}},{"type":"Feature","properties":{"nome":"Village Capriccio","osm_id":8337630589,"osm_tipo":"node","tipo_lugar":"suburb"},"geometry":{"type":"Point","coordinates":[-46.9484598,-23.0703165]}},{"type":"Feature","properties":{"nome":"Piccolo Villaggio","osm_id":8337708385,"osm_tipo":"node","tipo_lugar":"suburb"},"geometry":{"type":"Point","coordinates":[-46.956806,-23.0661758]}},{"type":"Feature","properties":{"nome":"Condomínio Portal do Sol","osm_id":8337708386,"osm_tipo":"node","tipo_lugar":"suburb"},"geometry":{"type":"Point","coordinates":[-46.9546529,-23.0718855]}},{"type":"Feature","properties":{"nome":"Reserva dos Vinhedos","osm_id":8337708387,"osm_tipo":"node","tipo_lugar":"suburb"},"geometry":{"type":"Point","coordinates":[-46.9759464,-23.0699192]}},{"type":"Feature","properties":{"nome":"Loteamento Faixa Azul","osm_id":8337708388,"osm_tipo":"node","tipo_lugar":"suburb"},"geometry":{"type":"Point","coordinates":[-46.9698037,-23.0758764]}},{"type":"Feature","properties":{"nome":"Vilaggio Del Fiori","osm_id":8337708389,"osm_tipo":"node","tipo_lugar":"suburb"},"geometry":{"type":"Point","coordinates":[-46.9526597,-23.0875423]}},{"type":"Feature","properties":{"nome":"Cavalli","osm_id":8337708390,"osm_tipo":"node","tipo_lugar":"suburb"},"geometry":{"type":"Point","coordinates":[-46.9849772,-23.0876577]}},{"type":"Feature","properties":{"nome":"Terra da Uva","osm_id":8337708391,"osm_tipo":"node","tipo_lugar":"suburb"},"geometry":{"type":"Point","coordinates":[-46.98979,-23.087614]}},{"type":"Feature","properties":{"nome":"Popular IV","osm_id":8337708392,"osm_tipo":"node","tipo_lugar":"suburb"},"geometry":{"type":"Point","coordinates":[-46.9891884,-23.0842935]}},{"type":"Feature","properties":{"nome":"Jardim Amazonas","osm_id":8337708393,"osm_tipo":"node","tipo_lugar":"suburb"},"geometry":{"type":"Point","coordinates":[-46.9861488,-23.0857062]}},{"type":"Feature","properties":{"nome":"Altos da Colina","osm_id":8337708394,"osm_tipo":"node","tipo_lugar":"suburb"},"geometry":{"type":"Point","coordinates":[-46.9850564,-23.0828225]}},{"type":"Feature","properties":{"nome":"Jardim Diamante","osm_id":8337708395,"osm_tipo":"node","tipo_lugar":"suburb"},"geometry":{"type":"Point","coordinates":[-46.98246,-23.0836672]}},{"type":"Feature","properties":{"nome":"Jardim São Francisco","osm_id":8337708396,"osm_tipo":"node","tipo_lugar":"suburb"},"geometry":{"type":"Point","coordinates":[-46.9804652,-23.0813661]}},{"type":"Feature","properties":{"nome":"Santo Antônio","osm_id":9370153027,"osm_tipo":"node","tipo_lugar":"suburb"},"geometry":{"type":"Point","coordinates":[-46.9772993,-23.0894425]}}]}