{"type":"FeatureCollection","features":[{"type":"Feature","properties":{"nome":"Distrito Industrial Adolfo Baldan","osm_id":2611719799,"osm_tipo":"node","tipo_lugar":"suburb"},"geometry":{"type":"Point","coordinates":[-48.3418087,-21.6376317]}},{"type":"Feature","properties":{"nome":"Nova Matão","osm_id":3319883335,"osm_tipo":"node","tipo_lugar":"suburb"},"geometry":{"type":"Point","coordinates":[-48.36197,-21.6124056]}},{"type":"Feature","properties":{"nome":"Residencial Alto da Boa Vista","osm_id":3319908628,"osm_tipo":"node","tipo_lugar":"suburb"},"geometry":{"type":"Point","coordinates":[-48.3427232,-21.632222]}},{"type":"Feature","properties":{"nome":"Jardim Paraíso II","osm_id":3319908629,"osm_tipo":"node","tipo_lugar":"suburb"},"geometry":{"type":"Point","coordinates":[-48.3388574,-21.6293626]}},{"type":"Feature","properties":{"nome":"Jardim Paraíso I","osm_id":3319908630,"osm_tipo":"node","tipo_lugar":"suburb"},"geometry":{"type":"Point","coordinates":[-48.3377766,-21.6335745]}},{"type":"Feature","properties":{"nome":"Nova Cidade","osm_id":3319908631,"osm_tipo":"node","tipo_lugar":"suburb"},"geometry":{"type":"Point","coordinates":[-48.3441366,-21.6242425]}},{"type":"Feature","properties":{"nome":"Residencial Monte Carlo","osm_id":3319908632,"osm_tipo":"node","tipo_lugar":"suburb"},"geometry":{"type":"Point","coordinates":[-48.3489585,-21.6196632]}},{"type":"Feature","properties":{"nome":"Jardim Aeroporto II","osm_id":3319908633,"osm_tipo":"node","tipo_lugar":"suburb"},"geometry":{"type":"Point","coordinates":[-48.3515773,-21.6175764]}},{"type":"Feature","properties":{"nome":"Jardim Aeroporto I","osm_id":3319908634,"osm_tipo":"node","tipo_lugar":"suburb"},"geometry":{"type":"Point","coordinates":[-48.353157,-21.6161079]}},{"type":"Feature","properties":{"nome":"Jardim Cambuí","osm_id":3319908635,"osm_tipo":"node","tipo_lugar":"suburb"},"geometry":{"type":"Point","coordinates":[-48.3567319,-21.61462]}},{"type":"Feature","properties":{"nome":"Jardim Buscardi","osm_id":3319908636,"osm_tipo":"node","tipo_lugar":"suburb"},"geometry":{"type":"Point","coordinates":[-48.3569605,-21.6086298]}},{"type":"Feature","properties":{"nome":"Recanto dos Pinheiros","osm_id":3319908637,"osm_tipo":"node","tipo_lugar":"suburb"},"geometry":{"type":"Point","coordinates":[-48.3566279,-21.6079728]}},{"type":"Feature","properties":{"nome":"IV Centenário","osm_id":3319908638,"osm_tipo":"node","tipo_lugar":"suburb"},"geometry":{"type":"Point","coordinates":[-48.354217,-21.6052095]}},{"type":"Feature","properties":{"nome":"Vila Santa Cruz","osm_id":3319908639,"osm_tipo":"node","tipo_lugar":"suburb"},"geometry":{"type":"Point","coordinates":[-48.3595585,-21.6032771]}},{"type":"Feature","properties":{"nome":"Jardim Balista","osm_id":3319908640,"osm_tipo":"node","tipo_lugar":"suburb"},"geometry":{"type":"Point","coordinates":[-48.3534687,-21.6010355]}},{"type":"Feature","properties":{"nome":"Jardim do Bosque","osm_id":3319935345,"osm_tipo":"node","tipo_lugar":"suburb"},"geometry":{"type":"Point","coordinates":[-48.3507044,-21.5961656]}},{"type":"Feature","properties":{"nome":"Jardim Popular","osm_id":3319935346,"osm_tipo":"node","tipo_lugar":"suburb"},"geometry":{"type":"Point","coordinates":[-48.345633,-21.591914]}},{"type":"Feature","properties":{"nome":"Vila Cardim","osm_id":3319935347,"osm_tipo":"node","tipo_lugar":"suburb"},"geometry":{"type":"Point","coordinates":[-48.3530322,-21.5888605]}},{"type":"Feature","properties":{"nome":"São Judas Tadeu","osm_id":3319935348,"osm_tipo":"node","tipo_lugar":"suburb"},"geometry":{"type":"Point","coordinates":[-48.3570644,-21.5855943]}},{"type":"Feature","properties":{"nome":"Vivelândia","osm_id":3319935349,"osm_tipo":"node","tipo_lugar":"suburb"},"geometry":{"type":"Point","coordinates":[-48.3540869,-21.592724]}},{"type":"Feature","properties":{"nome":"Bairro Alto","osm_id":3319935350,"osm_tipo":"node","tipo_lugar":"suburb"},"geometry":{"type":"Point","coordinates":[-48.3600989,-21.5937499]}},{"type":"Feature","properties":{"nome":"Vila Guarany","osm_id":3319935351,"osm_tipo":"node","tipo_lugar":"suburb"},"geometry":{"type":"Point","coordinates":[-48.3662718,-21.592687]}},{"type":"Feature","properties":{"nome":"Jardim Alvorada","osm_id":3319935352,"osm_tipo":"node","tipo_lugar":"suburb"},"geometry":{"type":"Point","coordinates":[-48.3672843,-21.5892208]}},{"type":"Feature","properties":{"nome":"Jardim Primavera","osm_id":3319935353,"osm_tipo":"node","tipo_lugar":"suburb"},"geometry":{"type":"Point","coordinates":[-48.365004,-21.586522]}},{"type":"Feature","properties":{"nome":"Jardim Bela Vista","osm_id":3319935354,"osm_tipo":"node","tipo_lugar":"suburb"},"geometry":{"type":"Point","coordinates":[-48.3618448,-21.5891117]}},{"type":"Feature","properties":{"nome":"Loteamento Novo Mundo","osm_id":3319935356,"osm_tipo":"node","tipo_lugar":"suburb"},"geometry":{"type":"Point","coordinates":[-48.3607017,-21.5833331]}},{"type":"Feature","properties":{"nome":"Portal Terra da Saudade","osm_id":3319935357,"osm_tipo":"node","tipo_lugar":"suburb"},"geometry":{"type":"Point","coordinates":[-48.3456538,-21.5872177]}},{"type":"Feature","properties":{"nome":"Jardim Santa Marta","osm_id":3319935358,"osm_tipo":"node","tipo_lugar":"suburb"},"geometry":{"type":"Point","coordinates":[-48.3699299,-21.5879715]}},{"type":"Feature","properties":{"nome":"Vila Jandira","osm_id":3319935359,"osm_tipo":"node","tipo_lugar":"suburb"},"geometry":{"type":"Point","coordinates":[-48.3708561,-21.5921799]}},{"type":"Feature","properties":{"nome":"Jardim São José","osm_id":3319935360,"osm_tipo":"node","tipo_lugar":"suburb"},"geometry":{"type":"Point","coordinates":[-48.3743361,-21.5876622]}},{"type":"Feature","properties":{"nome":"Jardim Brasil","osm_id":3319942597,"osm_tipo":"node","tipo_lugar":"suburb"},"geometry":{"type":"Point","coordinates":[-48.3773827,-21.5847434]}},{"type":"Feature","properties":{"nome":"Park Aliança","osm_id":3319942598,"osm_tipo":"node","tipo_lugar":"suburb"},"geometry":{"type":"Point","coordinates":[-48.3747272,-21.5888548]}},{"type":"Feature","properties":{"nome":"Vila Maria","osm_id":3319942599,"osm_tipo":"node","tipo_lugar":"suburb"},"geometry":{"type":"Point","coordinates":[-48.3854538,-21.5958851]}},{"type":"Feature","properties":{"nome":"Jardim Santa Rosa","osm_id":3319942600,"osm_tipo":"node","tipo_lugar":"suburb"},"geometry":{"type":"Point","coordinates":[-48.3864087,-21.5996921]}},{"type":"Feature","properties":{"nome":"Senhor Bom Jesus","osm_id":3319942601,"osm_tipo":"node","tipo_lugar":"suburb"},"geometry":{"type":"Point","coordinates":[-48.3908955,-21.600738]}},{"type":"Feature","properties":{"nome":"Jardim Esperança","osm_id":3319942602,"osm_tipo":"node","tipo_lugar":"suburb"},"geometry":{"type":"Point","coordinates":[-48.3955132,-21.6001299]}},{"type":"Feature","properties":{"nome":"Residencial Parque das Laranjeiras","osm_id":3319942603,"osm_tipo":"node","tipo_lugar":"suburb"},"geometry":{"type":"Point","coordinates":[-48.4002878,-21.6003732]}},{"type":"Feature","properties":{"nome":"Residencial Parque das Laranjeira II","osm_id":3319942604,"osm_tipo":"node","tipo_lugar":"suburb"},"geometry":{"type":"Point","coordinates":[-48.3992233,-21.6059825]}},{"type":"Feature","properties":{"nome":"Jardim Morumbi","osm_id":3319945209,"osm_tipo":"node","tipo_lugar":"suburb"},"geometry":{"type":"Point","coordinates":[-48.381249,-21.5982216]}},{"type":"Feature","properties":{"nome":"Residencial Maria Cândida","osm_id":3319945210,"osm_tipo":"node","tipo_lugar":"suburb"},"geometry":{"type":"Point","coordinates":[-48.3816962,-21.6017372]}},{"type":"Feature","properties":{"nome":"Conjunto Residencial João Vital","osm_id":3319945211,"osm_tipo":"node","tipo_lugar":"suburb"},"geometry":{"type":"Point","coordinates":[-48.3854773,-21.6032114]}},{"type":"Feature","properties":{"nome":"Jardim Pereira","osm_id":3319945212,"osm_tipo":"node","tipo_lugar":"suburb"},"geometry":{"type":"Point","coordinates":[-48.3757603,-21.6006409]}},{"type":"Feature","properties":{"nome":"Centro","osm_id":3319945213,"osm_tipo":"node","tipo_lugar":"suburb"},"geometry":{"type":"Point","coordinates":[-48.3668362,-21.6024743]}},{"type":"Feature","properties":{"nome":"Portal da Baronesa","osm_id":3319954230,"osm_tipo":"node","tipo_lugar":"suburb"},"geometry":{"type":"Point","coordinates":[-48.3701342,-21.6212555]}},{"type":"Feature","properties":{"nome":"Parque dos Ipês","osm_id":3319954231,"osm_tipo":"node","tipo_lugar":"suburb"},"geometry":{"type":"Point","coordinates":[-48.3737594,-21.6212721]}},{"type":"Feature","properties":{"nome":"Residencial Villa di Capri","osm_id":3319954232,"osm_tipo":"node","tipo_lugar":"suburb"},"geometry":{"type":"Point","coordinates":[-48.3687126,-21.6171915]}},{"type":"Feature","properties":{"nome":"Loteamento Parque Mônaco","osm_id":3319954233,"osm_tipo":"node","tipo_lugar":"suburb"},"geometry":{"type":"Point","coordinates":[-48.358299,-21.6221807]}},{"type":"Feature","properties":{"nome":"Residencial Olivio Benassi","osm_id":3319954234,"osm_tipo":"node","tipo_lugar":"suburb"},"geometry":{"type":"Point","coordinates":[-48.3624395,-21.6187775]}},{"type":"Feature","properties":{"nome":"Residencial Orminda Bottura Benassi","osm_id":3319954235,"osm_tipo":"node","tipo_lugar":"suburb"},"geometry":{"type":"Point","coordinates":[-48.3642877,-21.6206278]}},{"type":"Feature","properties":{"nome":"Residencial Valério Morandi","osm_id":3319954236,"osm_tipo":"node","tipo_lugar":"suburb"},"geometry":{"type":"Point","coordinates":[-48.3646609,-21.6249891]}},{"type":"Feature","properties":{"nome":"Parque Petrópolis","osm_id":3319954237,"osm_tipo":"node","tipo_lugar":"suburb"},"geometry":{"type":"Point","coordinates":[-48.3627594,-21.6277809]}},{"type":"Feature","properties":{"nome":"Parque Imperador","osm_id":3319954238,"osm_tipo":"node","tipo_lugar":"suburb"},"geometry":{"type":"Point","coordinates":[-48.352879,-21.6262776]}},{"type":"Feature","properties":{"nome":"Azul Ville I","osm_id":3319954239,"osm_tipo":"node","tipo_lugar":"suburb"},"geometry":{"type":"Point","coordinates":[-48.3496269,-21.6310517]}},{"type":"Feature","properties":{"nome":"Azull Ville II","osm_id":3319954240,"osm_tipo":"node","tipo_lugar":"suburb"},"geometry":{"type":"Point","coordinates":[-48.3459484,-21.6341077]}},{"type":"Feature","properties":{"nome":"Boa Vista","osm_id":3319977446,"osm_tipo":"node","tipo_lugar":"suburb"},"geometry":{"type":"Point","coordinates":[-48.3660228,-21.6330782]}},{"type":"Feature","properties":{"nome":"Parque Industrial Toriba","osm_id":3320132303,"osm_tipo":"node","tipo_lugar":"suburb"},"geometry":{"type":"Point","coordinates":[-48.3424534,-21.6419687]}},{"type":"Feature","properties":{"nome":"Cidade Jardim","osm_id":3321562222,"osm_tipo":"node","tipo_lugar":"suburb"},"geometry":{"type":"Point","coordinates":[-48.3974688,-21.6056796]}},{"type":"Feature","properties":{"nome":"Parque Imperial","osm_id":3321635376,"osm_tipo":"node","tipo_lugar":"suburb"},"geometry":{"type":"Point","coordinates":[-48.3583536,-21.6279362]}},{"type":"Feature","properties":{"nome":"Bom Retiro","osm_id":3332771774,"osm_tipo":"node","tipo_lugar":"suburb"},"geometry":{"type":"Point","coordinates":[-48.3466912,-21.6058686]}},{"type":"Feature","properties":{"nome":"Distrito Industrial de Silvânia","osm_id":3332838299,"osm_tipo":"node","tipo_lugar":"suburb"},"geometry":{"type":"Point","coordinates":[-48.3114243,-21.6350997]}},{"type":"Feature","properties":{"nome":"Parque Primavera","osm_id":3332891916,"osm_tipo":"node","tipo_lugar":"suburb"},"geometry":{"type":"Point","coordinates":[-48.3726788,-21.6060046]}},{"type":"Feature","properties":{"nome":"Pedreira","osm_id":3347002672,"osm_tipo":"node","tipo_lugar":"suburb"},"geometry":{"type":"Point","coordinates":[-48.3893623,-21.5890769]}},{"type":"Feature","properties":{"nome":"Loteamento São Gabriel","osm_id":3350498329,"osm_tipo":"node","tipo_lugar":"suburb"},"geometry":{"type":"Point","coordinates":[-48.351133,-21.5862255]}},{"type":"Feature","properties":{"nome":"Residencial Eudes Benassi","osm_id":3354437272,"osm_tipo":"node","tipo_lugar":"suburb"},"geometry":{"type":"Point","coordinates":[-48.3670006,-21.6202354]}},{"type":"Feature","properties":{"nome":"Centro","osm_id":4426462629,"osm_tipo":"node","tipo_lugar":"suburb"},"geometry":{"type":"Point","coordinates":[-48.3654518,-21.5996002]}},{"type":"Feature","properties":{"nome":"Ponte Sêca","osm_id":6695382721,"osm_tipo":"node","tipo_lugar":"suburb"},"geometry":{"type":"Point","coordinates":[-48.4039593,-21.6035822]}},{"type":"Feature","properties":{"nome":"Distrito Industrial de Silvânia","osm_id":4541133,"osm_tipo":"relation","tipo_lugar":"suburb"},"geometry":{"type":"Polygon","coordinates":[[[-48.3091836,-21.6381447],[-48.3147571,-21.636347],[-48.3136193,-21.6319654],[-48.3075707,-21.6342266],[-48.3091836,-21.6381447]]]}},{"type":"Feature","properties":{"nome":"Parque Petrópolis","osm_id":9899752,"osm_tipo":"relation","tipo_lugar":"suburb"},"geometry":{"type":"MultiPolygon","coordinates":[[[[-48.3612974,-21.6269918],[-48.3613949,-21.627735],[-48.3614826,-21.6283159],[-48.3612974,-21.6269918]]],[[[-48.3614826,-21.6283159],[-48.3614916,-21.6283939],[-48.3615477,-21.6288805],[-48.3614826,-21.6283159]]],[[[-48.3640872,-21.629859],[-48.3631101,-21.6302794],[-48.3624384,-21.6305778],[-48.3640872,-21.629859]]],[[[-48.3635558,-21.6258981],[-48.3638288,-21.627986],[-48.3639975,-21.6291473],[-48.3640872,-21.629859],[-48.3635558,-21.6258981]]],[[[-48.3626427,-21.6267328],[-48.3626749,-21.6260221],[-48.3634858,-21.6259184],[-48.3626427,-21.6267328]]]]}}]}