{"type":"FeatureCollection","features":[{"type":"Feature","properties":{"nome":"Chácara do Ouro","osm_id":6250801798,"osm_tipo":"node","tipo_lugar":"suburb"},"geometry":{"type":"Point","coordinates":[-46.9329873,-22.3670853]}},{"type":"Feature","properties":{"nome":"Centro","osm_id":6250801799,"osm_tipo":"node","tipo_lugar":"suburb"},"geometry":{"type":"Point","coordinates":[-46.9414276,-22.3716573]}},{"type":"Feature","properties":{"nome":"Parque Cidade Nova","osm_id":6252549729,"osm_tipo":"node","tipo_lugar":"suburb"},"geometry":{"type":"Point","coordinates":[-46.9487127,-22.3478192]}},{"type":"Feature","properties":{"nome":"Jardim Planalto Verde","osm_id":6252709739,"osm_tipo":"node","tipo_lugar":"suburb"},"geometry":{"type":"Point","coordinates":[-46.9381475,-22.3810187]}},{"type":"Feature","properties":{"nome":"Jardim Itacolomy","osm_id":6252716386,"osm_tipo":"node","tipo_lugar":"suburb"},"geometry":{"type":"Point","coordinates":[-46.9417045,-22.3839841]}},{"type":"Feature","properties":{"nome":"Jardim Centenário","osm_id":6253677711,"osm_tipo":"node","tipo_lugar":"suburb"},"geometry":{"type":"Point","coordinates":[-46.9483048,-22.3609606]}},{"type":"Feature","properties":{"nome":"Jardim Novo","osm_id":6255087698,"osm_tipo":"node","tipo_lugar":"suburb"},"geometry":{"type":"Point","coordinates":[-46.9385354,-22.3462692]}},{"type":"Feature","properties":{"nome":"Jardim Paulista","osm_id":6255668275,"osm_tipo":"node","tipo_lugar":"suburb"},"geometry":{"type":"Point","coordinates":[-46.9317118,-22.3618008]}},{"type":"Feature","properties":{"nome":"Jardim Almira","osm_id":6255824583,"osm_tipo":"node","tipo_lugar":"suburb"},"geometry":{"type":"Point","coordinates":[-46.9349143,-22.3560927]}},{"type":"Feature","properties":{"nome":"Jardim Itamaraty","osm_id":6256520188,"osm_tipo":"node","tipo_lugar":"suburb"},"geometry":{"type":"Point","coordinates":[-46.9316027,-22.3838396]}},{"type":"Feature","properties":{"nome":"Jardim Santa Terezinha","osm_id":6256633099,"osm_tipo":"node","tipo_lugar":"suburb"},"geometry":{"type":"Point","coordinates":[-46.9281181,-22.3326291]}},{"type":"Feature","properties":{"nome":"Jardim Santa Terezinha II","osm_id":6256633100,"osm_tipo":"node","tipo_lugar":"suburb"},"geometry":{"type":"Point","coordinates":[-46.9243621,-22.332294]}},{"type":"Feature","properties":{"nome":"Cruzeiro","osm_id":6256801190,"osm_tipo":"node","tipo_lugar":"suburb"},"geometry":{"type":"Point","coordinates":[-46.9429133,-22.3627726]}},{"type":"Feature","properties":{"nome":"Jardim Hedy","osm_id":6256872224,"osm_tipo":"node","tipo_lugar":"suburb"},"geometry":{"type":"Point","coordinates":[-46.9237671,-22.3627446]}},{"type":"Feature","properties":{"nome":"Jardim Bandeirantes","osm_id":6256943965,"osm_tipo":"node","tipo_lugar":"suburb"},"geometry":{"type":"Point","coordinates":[-46.9354509,-22.3934397]}},{"type":"Feature","properties":{"nome":"Jardim São José","osm_id":6259036934,"osm_tipo":"node","tipo_lugar":"suburb"},"geometry":{"type":"Point","coordinates":[-46.9465416,-22.3313776]}},{"type":"Feature","properties":{"nome":"Jardim Santo Antônio","osm_id":6264466938,"osm_tipo":"node","tipo_lugar":"suburb"},"geometry":{"type":"Point","coordinates":[-46.9451016,-22.3491683]}},{"type":"Feature","properties":{"nome":"Jardim Santa Cruz","osm_id":6268918378,"osm_tipo":"node","tipo_lugar":"suburb"},"geometry":{"type":"Point","coordinates":[-46.9429522,-22.3252776]}},{"type":"Feature","properties":{"nome":"Jardim Novo Itacolomi","osm_id":6268923303,"osm_tipo":"node","tipo_lugar":"suburb"},"geometry":{"type":"Point","coordinates":[-46.9407911,-22.3939952]}},{"type":"Feature","properties":{"nome":"Jardim Fantinato","osm_id":6268930292,"osm_tipo":"node","tipo_lugar":"suburb"},"geometry":{"type":"Point","coordinates":[-46.9214778,-22.3381908]}},{"type":"Feature","properties":{"nome":"Jardim Santo André","osm_id":6268938495,"osm_tipo":"node","tipo_lugar":"suburb"},"geometry":{"type":"Point","coordinates":[-46.9424425,-22.3436777]}},{"type":"Feature","properties":{"nome":"Jardim Europa","osm_id":6270177054,"osm_tipo":"node","tipo_lugar":"suburb"},"geometry":{"type":"Point","coordinates":[-46.9370232,-22.3687819]}},{"type":"Feature","properties":{"nome":"Vila José de Paula","osm_id":6270177055,"osm_tipo":"node","tipo_lugar":"suburb"},"geometry":{"type":"Point","coordinates":[-46.9369329,-22.3674804]}},{"type":"Feature","properties":{"nome":"Jardim Camargo","osm_id":6270177056,"osm_tipo":"node","tipo_lugar":"suburb"},"geometry":{"type":"Point","coordinates":[-46.9383945,-22.3667212]}},{"type":"Feature","properties":{"nome":"Jardim Camargo II","osm_id":6270177057,"osm_tipo":"node","tipo_lugar":"suburb"},"geometry":{"type":"Point","coordinates":[-46.9356158,-22.366037]}},{"type":"Feature","properties":{"nome":"Vila Santa Rosa","osm_id":6270177058,"osm_tipo":"node","tipo_lugar":"suburb"},"geometry":{"type":"Point","coordinates":[-46.9398623,-22.3683801]}},{"type":"Feature","properties":{"nome":"Parque São Luiz","osm_id":6270177059,"osm_tipo":"node","tipo_lugar":"suburb"},"geometry":{"type":"Point","coordinates":[-46.9412995,-22.3672885]}},{"type":"Feature","properties":{"nome":"Jardim São Luiz","osm_id":6270177060,"osm_tipo":"node","tipo_lugar":"suburb"},"geometry":{"type":"Point","coordinates":[-46.9358595,-22.3644387]}},{"type":"Feature","properties":{"nome":"Lote","osm_id":6270177061,"osm_tipo":"node","tipo_lugar":"suburb"},"geometry":{"type":"Point","coordinates":[-46.9421927,-22.3638428]}},{"type":"Feature","properties":{"nome":"Jardim Primavera","osm_id":6270177062,"osm_tipo":"node","tipo_lugar":"suburb"},"geometry":{"type":"Point","coordinates":[-46.9432577,-22.3577388]}},{"type":"Feature","properties":{"nome":"Vila Pinheiro","osm_id":6270177063,"osm_tipo":"node","tipo_lugar":"suburb"},"geometry":{"type":"Point","coordinates":[-46.9452132,-22.3572373]}},{"type":"Feature","properties":{"nome":"Jardim Nossa Senhora das Graças","osm_id":6270177064,"osm_tipo":"node","tipo_lugar":"suburb"},"geometry":{"type":"Point","coordinates":[-46.9518759,-22.3617379]}},{"type":"Feature","properties":{"nome":"Jardim Igaçaba","osm_id":6270177065,"osm_tipo":"node","tipo_lugar":"suburb"},"geometry":{"type":"Point","coordinates":[-46.9615986,-22.3569727]}},{"type":"Feature","properties":{"nome":"Parque Cidade Nova","osm_id":6270177066,"osm_tipo":"node","tipo_lugar":"suburb"},"geometry":{"type":"Point","coordinates":[-46.9520677,-22.3505318]}},{"type":"Feature","properties":{"nome":"Cidade Nova Mogi Guaçu","osm_id":6270177067,"osm_tipo":"node","tipo_lugar":"suburb"},"geometry":{"type":"Point","coordinates":[-46.9179558,-22.3699523]}},{"type":"Feature","properties":{"nome":"Jardim Nova Alvorada","osm_id":6270177068,"osm_tipo":"node","tipo_lugar":"suburb"},"geometry":{"type":"Point","coordinates":[-46.9123017,-22.3726509]}},{"type":"Feature","properties":{"nome":"Reserva do Lago","osm_id":6270177069,"osm_tipo":"node","tipo_lugar":"suburb"},"geometry":{"type":"Point","coordinates":[-46.9093301,-22.3571744]}},{"type":"Feature","properties":{"nome":"Jardim Suécia 2","osm_id":6270177070,"osm_tipo":"node","tipo_lugar":"suburb"},"geometry":{"type":"Point","coordinates":[-46.9137644,-22.3483893]}},{"type":"Feature","properties":{"nome":"Jardim São Francisco","osm_id":6270177076,"osm_tipo":"node","tipo_lugar":"suburb"},"geometry":{"type":"Point","coordinates":[-46.9354057,-22.3383027]}},{"type":"Feature","properties":{"nome":"Parque São Camilo","osm_id":6270177077,"osm_tipo":"node","tipo_lugar":"suburb"},"geometry":{"type":"Point","coordinates":[-46.932248,-22.3386198]}},{"type":"Feature","properties":{"nome":"Jardim Artigiani","osm_id":6270177078,"osm_tipo":"node","tipo_lugar":"suburb"},"geometry":{"type":"Point","coordinates":[-46.9368762,-22.3397881]}},{"type":"Feature","properties":{"nome":"Jardim Nova Europa","osm_id":6270177079,"osm_tipo":"node","tipo_lugar":"suburb"},"geometry":{"type":"Point","coordinates":[-46.9354778,-22.3361665]}},{"type":"Feature","properties":{"nome":"Jardim Chiorato","osm_id":6270177080,"osm_tipo":"node","tipo_lugar":"suburb"},"geometry":{"type":"Point","coordinates":[-46.9355861,-22.3355656]}},{"type":"Feature","properties":{"nome":"Jardim Veneza","osm_id":6270177081,"osm_tipo":"node","tipo_lugar":"suburb"},"geometry":{"type":"Point","coordinates":[-46.9304617,-22.3497764]}},{"type":"Feature","properties":{"nome":"Nova Odessa","osm_id":6270177082,"osm_tipo":"node","tipo_lugar":"suburb"},"geometry":{"type":"Point","coordinates":[-46.9291894,-22.3532637]}},{"type":"Feature","properties":{"nome":"Jardim América","osm_id":6270177083,"osm_tipo":"node","tipo_lugar":"suburb"},"geometry":{"type":"Point","coordinates":[-46.9273011,-22.3571037]}},{"type":"Feature","properties":{"nome":"Jardim Hermínio Bueno","osm_id":6270177084,"osm_tipo":"node","tipo_lugar":"suburb"},"geometry":{"type":"Point","coordinates":[-46.9288246,-22.36522]}},{"type":"Feature","properties":{"nome":"Jardim Bela Vista","osm_id":6270177485,"osm_tipo":"node","tipo_lugar":"suburb"},"geometry":{"type":"Point","coordinates":[-46.935792,-22.3695795]}},{"type":"Feature","properties":{"nome":"Vila Santa Izabel","osm_id":6270177486,"osm_tipo":"node","tipo_lugar":"suburb"},"geometry":{"type":"Point","coordinates":[-46.9329552,-22.3696946]}},{"type":"Feature","properties":{"nome":"Bertioga","osm_id":6270177487,"osm_tipo":"node","tipo_lugar":"suburb"},"geometry":{"type":"Point","coordinates":[-46.9332556,-22.3711432]}},{"type":"Feature","properties":{"nome":"Chácara São João","osm_id":6270177488,"osm_tipo":"node","tipo_lugar":"suburb"},"geometry":{"type":"Point","coordinates":[-46.936882,-22.3723337]}},{"type":"Feature","properties":{"nome":"Chácara Gonçalo","osm_id":6270177489,"osm_tipo":"node","tipo_lugar":"suburb"},"geometry":{"type":"Point","coordinates":[-46.9447144,-22.3659746]}},{"type":"Feature","properties":{"nome":"Pedregulhal","osm_id":6270177490,"osm_tipo":"node","tipo_lugar":"suburb"},"geometry":{"type":"Point","coordinates":[-46.9486738,-22.366494]}},{"type":"Feature","properties":{"nome":"Várzea dos Farias","osm_id":6270177491,"osm_tipo":"node","tipo_lugar":"suburb"},"geometry":{"type":"Point","coordinates":[-46.957374,-22.3675317]}},{"type":"Feature","properties":{"nome":"Vila Martini","osm_id":6270177492,"osm_tipo":"node","tipo_lugar":"suburb"},"geometry":{"type":"Point","coordinates":[-46.9468876,-22.3707489]}},{"type":"Feature","properties":{"nome":"Jardim Presidente","osm_id":6270177497,"osm_tipo":"node","tipo_lugar":"suburb"},"geometry":{"type":"Point","coordinates":[-46.9404944,-22.3605317]}},{"type":"Feature","properties":{"nome":"Jardim Murilo","osm_id":6270177498,"osm_tipo":"node","tipo_lugar":"suburb"},"geometry":{"type":"Point","coordinates":[-46.9395074,-22.3566918]}},{"type":"Feature","properties":{"nome":"Vila São Carlos","osm_id":6270177499,"osm_tipo":"node","tipo_lugar":"suburb"},"geometry":{"type":"Point","coordinates":[-46.9432283,-22.3546428]}},{"type":"Feature","properties":{"nome":"Jardim São Carlos","osm_id":6270177500,"osm_tipo":"node","tipo_lugar":"suburb"},"geometry":{"type":"Point","coordinates":[-46.9438418,-22.3526534]}},{"type":"Feature","properties":{"nome":"Monte Libano","osm_id":6270177501,"osm_tipo":"node","tipo_lugar":"suburb"},"geometry":{"type":"Point","coordinates":[-46.9569525,-22.3366769]}},{"type":"Feature","properties":{"nome":"Jardim Sakaida","osm_id":6270177502,"osm_tipo":"node","tipo_lugar":"suburb"},"geometry":{"type":"Point","coordinates":[-46.9186731,-22.3179228]}},{"type":"Feature","properties":{"nome":"Jardim Paineira","osm_id":6270177503,"osm_tipo":"node","tipo_lugar":"suburb"},"geometry":{"type":"Point","coordinates":[-46.9095542,-22.3161122]}},{"type":"Feature","properties":{"nome":"Jardim Lagoa Azul","osm_id":6270177504,"osm_tipo":"node","tipo_lugar":"suburb"},"geometry":{"type":"Point","coordinates":[-46.9170041,-22.3213617]}},{"type":"Feature","properties":{"nome":"Portal Flamboyant","osm_id":6270191514,"osm_tipo":"node","tipo_lugar":"suburb"},"geometry":{"type":"Point","coordinates":[-46.9316674,-22.3643059]}},{"type":"Feature","properties":{"nome":"Jardim Iguatemy","osm_id":6270191515,"osm_tipo":"node","tipo_lugar":"suburb"},"geometry":{"type":"Point","coordinates":[-46.9295431,-22.3739695]}},{"type":"Feature","properties":{"nome":"Vila Maria","osm_id":6270191516,"osm_tipo":"node","tipo_lugar":"suburb"},"geometry":{"type":"Point","coordinates":[-46.9317318,-22.3740588]}},{"type":"Feature","properties":{"nome":"Jardim Planalto","osm_id":6270191517,"osm_tipo":"node","tipo_lugar":"suburb"},"geometry":{"type":"Point","coordinates":[-46.9307877,-22.3778684]}},{"type":"Feature","properties":{"nome":"Parque dos Eucaliptos III","osm_id":6270191518,"osm_tipo":"node","tipo_lugar":"suburb"},"geometry":{"type":"Point","coordinates":[-46.9301654,-22.3906261]}},{"type":"Feature","properties":{"nome":"Jardim Santa Madalena","osm_id":6270191519,"osm_tipo":"node","tipo_lugar":"suburb"},"geometry":{"type":"Point","coordinates":[-46.9256593,-22.3779181]}},{"type":"Feature","properties":{"nome":"Jardim Araucária","osm_id":6270191520,"osm_tipo":"node","tipo_lugar":"suburb"},"geometry":{"type":"Point","coordinates":[-46.9139445,-22.3372174]}},{"type":"Feature","properties":{"nome":"Zaniboni","osm_id":6270191521,"osm_tipo":"node","tipo_lugar":"suburb"},"geometry":{"type":"Point","coordinates":[-46.9266896,-22.3497776]}},{"type":"Feature","properties":{"nome":"Jardim Serra Dourada","osm_id":6270215572,"osm_tipo":"node","tipo_lugar":"suburb"},"geometry":{"type":"Point","coordinates":[-46.9537422,-22.3814709]}},{"type":"Feature","properties":{"nome":"Village da Serra","osm_id":6270215573,"osm_tipo":"node","tipo_lugar":"suburb"},"geometry":{"type":"Point","coordinates":[-46.9573229,-22.386718]}},{"type":"Feature","properties":{"nome":"Jardim Santa Monica I","osm_id":6270215575,"osm_tipo":"node","tipo_lugar":"suburb"},"geometry":{"type":"Point","coordinates":[-46.9539242,-22.3909829]}},{"type":"Feature","properties":{"nome":"Jardim Santa Monica II","osm_id":6270215576,"osm_tipo":"node","tipo_lugar":"suburb"},"geometry":{"type":"Point","coordinates":[-46.9511779,-22.39153]}},{"type":"Feature","properties":{"nome":"Parque do Estado","osm_id":6270215577,"osm_tipo":"node","tipo_lugar":"suburb"},"geometry":{"type":"Point","coordinates":[-46.9486137,-22.396412]}},{"type":"Feature","properties":{"nome":"Morro Vermelho","osm_id":6270215578,"osm_tipo":"node","tipo_lugar":"suburb"},"geometry":{"type":"Point","coordinates":[-46.9446688,-22.4003258]}},{"type":"Feature","properties":{"nome":"Jardim Brasília","osm_id":6270215579,"osm_tipo":"node","tipo_lugar":"suburb"},"geometry":{"type":"Point","coordinates":[-46.9430849,-22.3947423]}},{"type":"Feature","properties":{"nome":"Jardim Rosa Cruz","osm_id":6270215581,"osm_tipo":"node","tipo_lugar":"suburb"},"geometry":{"type":"Point","coordinates":[-46.9469902,-22.3840384]}},{"type":"Feature","properties":{"nome":"Jardim Casagrande","osm_id":6270215582,"osm_tipo":"node","tipo_lugar":"suburb"},"geometry":{"type":"Point","coordinates":[-46.9443501,-22.3804047]}},{"type":"Feature","properties":{"nome":"Vila Vasconcelos","osm_id":6270215583,"osm_tipo":"node","tipo_lugar":"suburb"},"geometry":{"type":"Point","coordinates":[-46.9431522,-22.3809388]}},{"type":"Feature","properties":{"nome":"Vila Beatriz","osm_id":6270215584,"osm_tipo":"node","tipo_lugar":"suburb"},"geometry":{"type":"Point","coordinates":[-46.9414808,-22.377305]}},{"type":"Feature","properties":{"nome":"Vila Julia","osm_id":6270215585,"osm_tipo":"node","tipo_lugar":"suburb"},"geometry":{"type":"Point","coordinates":[-46.9409194,-22.3754173]}},{"type":"Feature","properties":{"nome":"Areião","osm_id":6270215586,"osm_tipo":"node","tipo_lugar":"suburb"},"geometry":{"type":"Point","coordinates":[-46.9507182,-22.3794522]}},{"type":"Feature","properties":{"nome":"Vale Verde","osm_id":6270215587,"osm_tipo":"node","tipo_lugar":"suburb"},"geometry":{"type":"Point","coordinates":[-46.9486385,-22.3770809]}},{"type":"Feature","properties":{"nome":"Guaçu-Mirim 3","osm_id":6270215588,"osm_tipo":"node","tipo_lugar":"suburb"},"geometry":{"type":"Point","coordinates":[-46.9441346,-22.3911434]}},{"type":"Feature","properties":{"nome":"Jardim Munhoz","osm_id":6270215590,"osm_tipo":"node","tipo_lugar":"suburb"},"geometry":{"type":"Point","coordinates":[-46.9440601,-22.3961635]}},{"type":"Feature","properties":{"nome":"Jardim Duas Nascentes","osm_id":6270215591,"osm_tipo":"node","tipo_lugar":"suburb"},"geometry":{"type":"Point","coordinates":[-46.9451063,-22.3984284]}},{"type":"Feature","properties":{"nome":"Estância Ouro Preto","osm_id":6270215610,"osm_tipo":"node","tipo_lugar":"suburb"},"geometry":{"type":"Point","coordinates":[-46.914063,-22.3040557]}},{"type":"Feature","properties":{"nome":"Pantanal do Engenho Velho","osm_id":6270215611,"osm_tipo":"node","tipo_lugar":"suburb"},"geometry":{"type":"Point","coordinates":[-46.9229313,-22.3075546]}},{"type":"Feature","properties":{"nome":"Pantanal","osm_id":6270215612,"osm_tipo":"node","tipo_lugar":"suburb"},"geometry":{"type":"Point","coordinates":[-46.9240042,-22.3176389]}},{"type":"Feature","properties":{"nome":"Jardim Imperial","osm_id":6270215613,"osm_tipo":"node","tipo_lugar":"suburb"},"geometry":{"type":"Point","coordinates":[-46.9348832,-22.325023]}},{"type":"Feature","properties":{"nome":"Chácara Santa Felicidade","osm_id":6270215614,"osm_tipo":"node","tipo_lugar":"suburb"},"geometry":{"type":"Point","coordinates":[-46.929433,-22.3223037]}},{"type":"Feature","properties":{"nome":"Distrito Industrial João Caruso","osm_id":6270215615,"osm_tipo":"node","tipo_lugar":"suburb"},"geometry":{"type":"Point","coordinates":[-46.9302055,-22.3260949]}},{"type":"Feature","properties":{"nome":"Ypê Amarelo","osm_id":6270215620,"osm_tipo":"node","tipo_lugar":"suburb"},"geometry":{"type":"Point","coordinates":[-46.9461123,-22.3099629]}},{"type":"Feature","properties":{"nome":"Jardim Guaçuano","osm_id":6270215621,"osm_tipo":"node","tipo_lugar":"suburb"},"geometry":{"type":"Point","coordinates":[-46.9517325,-22.3168852]}},{"type":"Feature","properties":{"nome":"Jardim Santa Rita","osm_id":6270215622,"osm_tipo":"node","tipo_lugar":"suburb"},"geometry":{"type":"Point","coordinates":[-46.9499556,-22.3172075]}},{"type":"Feature","properties":{"nome":"Jardim Santa Cruz","osm_id":6270215623,"osm_tipo":"node","tipo_lugar":"suburb"},"geometry":{"type":"Point","coordinates":[-46.9443982,-22.3186764]}},{"type":"Feature","properties":{"nome":"Distrito Industrial Getulio Vargas","osm_id":6270215624,"osm_tipo":"node","tipo_lugar":"suburb"},"geometry":{"type":"Point","coordinates":[-46.958761,-22.3259706]}},{"type":"Feature","properties":{"nome":"Vila São João","osm_id":6270221285,"osm_tipo":"node","tipo_lugar":"suburb"},"geometry":{"type":"Point","coordinates":[-46.9308003,-22.369495]}},{"type":"Feature","properties":{"nome":"Jardim Soares","osm_id":6270225008,"osm_tipo":"node","tipo_lugar":"suburb"},"geometry":{"type":"Point","coordinates":[-46.9397562,-22.3619925]}},{"type":"Feature","properties":{"nome":"Jardim Jacyra","osm_id":6270225009,"osm_tipo":"node","tipo_lugar":"suburb"},"geometry":{"type":"Point","coordinates":[-46.9373817,-22.3617189]}},{"type":"Feature","properties":{"nome":"Jardim São Paulo","osm_id":6270225010,"osm_tipo":"node","tipo_lugar":"suburb"},"geometry":{"type":"Point","coordinates":[-46.9351133,-22.3616557]}},{"type":"Feature","properties":{"nome":"Vila São Pedro","osm_id":6270225011,"osm_tipo":"node","tipo_lugar":"suburb"},"geometry":{"type":"Point","coordinates":[-46.9393769,-22.3628414]}},{"type":"Feature","properties":{"nome":"Guaçu Parque Real","osm_id":6270316003,"osm_tipo":"node","tipo_lugar":"suburb"},"geometry":{"type":"Point","coordinates":[-46.9510351,-22.3725695]}},{"type":"Feature","properties":{"nome":"Bairro das Olarias","osm_id":6855471504,"osm_tipo":"node","tipo_lugar":"suburb"},"geometry":{"type":"Point","coordinates":[-46.9452245,-22.3712523]}},{"type":"Feature","properties":{"nome":"Jardim Bertioga","osm_id":6855505083,"osm_tipo":"node","tipo_lugar":"suburb"},"geometry":{"type":"Point","coordinates":[-46.9313277,-22.3716267]}},{"type":"Feature","properties":{"nome":"Jardim Cruzeiro","osm_id":6855505084,"osm_tipo":"node","tipo_lugar":"suburb"},"geometry":{"type":"Point","coordinates":[-46.9431806,-22.3613381]}},{"type":"Feature","properties":{"nome":"Itaguaçu","osm_id":6855529485,"osm_tipo":"node","tipo_lugar":"suburb"},"geometry":{"type":"Point","coordinates":[-46.9483926,-22.3699573]}},{"type":"Feature","properties":{"nome":"Jardim Lagoa da Felicidade","osm_id":6855529487,"osm_tipo":"node","tipo_lugar":"suburb"},"geometry":{"type":"Point","coordinates":[-46.9390082,-22.3526227]}},{"type":"Feature","properties":{"nome":"Morro do Ouro","osm_id":6855529488,"osm_tipo":"node","tipo_lugar":"suburb"},"geometry":{"type":"Point","coordinates":[-46.9441046,-22.3690005]}},{"type":"Feature","properties":{"nome":"Chacara Maria Lopes","osm_id":6869928792,"osm_tipo":"node","tipo_lugar":"suburb"},"geometry":{"type":"Point","coordinates":[-46.9445716,-22.3740844]}},{"type":"Feature","properties":{"nome":"Condomínio Dr. Falsetti","osm_id":6976686387,"osm_tipo":"node","tipo_lugar":"suburb"},"geometry":{"type":"Point","coordinates":[-46.9624493,-22.3029865]}},{"type":"Feature","properties":{"nome":"Vila Roberto","osm_id":6990772713,"osm_tipo":"node","tipo_lugar":"suburb"},"geometry":{"type":"Point","coordinates":[-46.9438323,-22.3610379]}},{"type":"Feature","properties":{"nome":"Vila Ricci","osm_id":7260995404,"osm_tipo":"node","tipo_lugar":"suburb"},"geometry":{"type":"Point","coordinates":[-46.9455182,-22.3786241]}},{"type":"Feature","properties":{"nome":"Morro Amarelo","osm_id":7260995405,"osm_tipo":"node","tipo_lugar":"suburb"},"geometry":{"type":"Point","coordinates":[-46.9391437,-22.3875497]}},{"type":"Feature","properties":{"nome":"Desmembramento Santa Marta","osm_id":7260995406,"osm_tipo":"node","tipo_lugar":"suburb"},"geometry":{"type":"Point","coordinates":[-46.9358351,-22.3520829]}},{"type":"Feature","properties":{"nome":"Coloninha","osm_id":7261045612,"osm_tipo":"node","tipo_lugar":"suburb"},"geometry":{"type":"Point","coordinates":[-46.9406629,-22.3687045]}},{"type":"Feature","properties":{"nome":"Parque Itacolomy","osm_id":7279610757,"osm_tipo":"node","tipo_lugar":"suburb"},"geometry":{"type":"Point","coordinates":[-46.9358729,-22.3830483]}},{"type":"Feature","properties":{"nome":"Jardim Santana","osm_id":7282590077,"osm_tipo":"node","tipo_lugar":"suburb"},"geometry":{"type":"Point","coordinates":[-46.9415917,-22.3535346]}},{"type":"Feature","properties":{"nome":"Vila São Sebastião","osm_id":7921661999,"osm_tipo":"node","tipo_lugar":"suburb"},"geometry":{"type":"Point","coordinates":[-46.9396927,-22.3677603]}},{"type":"Feature","properties":{"nome":"Jardim Carmen Lydia II","osm_id":8753612666,"osm_tipo":"node","tipo_lugar":"neighbourhood"},"geometry":{"type":"Point","coordinates":[-46.9402081,-22.3470419]}},{"type":"Feature","properties":{"nome":"Jardim Ipê III","osm_id":10762251040,"osm_tipo":"node","tipo_lugar":"suburb"},"geometry":{"type":"Point","coordinates":[-46.9553204,-22.3427303]}},{"type":"Feature","properties":{"nome":"Jardim Nossa Senhora","osm_id":10762327674,"osm_tipo":"node","tipo_lugar":"suburb"},"geometry":{"type":"Point","coordinates":[-46.9540376,-22.3577519]}},{"type":"Feature","properties":{"nome":"Jardim Suécia","osm_id":13932084904,"osm_tipo":"node","tipo_lugar":"suburb"},"geometry":{"type":"Point","coordinates":[-46.9135649,-22.3537906]}},{"type":"Feature","properties":{"nome":"Jardim Alvorada","osm_id":13932162874,"osm_tipo":"node","tipo_lugar":"suburb"},"geometry":{"type":"Point","coordinates":[-46.9145058,-22.3622764]}},{"type":"Feature","properties":{"nome":"Jardim Bandeirantes","osm_id":1301759238,"osm_tipo":"way","tipo_lugar":"suburb"},"geometry":{"type":"Polygon","coordinates":[[[-46.9381311,-22.3914846],[-46.9361379,-22.3942021],[-46.9328557,-22.3930488],[-46.9310955,-22.3894053],[-46.9353276,-22.3871497],[-46.9381311,-22.3914846]]]}}]}