{"type":"FeatureCollection","features":[{"type":"Feature","properties":{"nome":"Distrito Industrial","osm_id":1769113695,"osm_tipo":"node","tipo_lugar":"suburb"},"geometry":{"type":"Point","coordinates":[-46.9646587,-22.4542953]}},{"type":"Feature","properties":{"nome":"Jardim Paulista","osm_id":2956723947,"osm_tipo":"node","tipo_lugar":"suburb"},"geometry":{"type":"Point","coordinates":[-46.9715207,-22.4167315]}},{"type":"Feature","properties":{"nome":"Jardim Primavera II","osm_id":6258728399,"osm_tipo":"node","tipo_lugar":"suburb"},"geometry":{"type":"Point","coordinates":[-46.9682507,-22.4101223]}},{"type":"Feature","properties":{"nome":"Jardim Tropical","osm_id":6258926101,"osm_tipo":"node","tipo_lugar":"suburb"},"geometry":{"type":"Point","coordinates":[-46.9645533,-22.4265679]}},{"type":"Feature","properties":{"nome":"Tucura","osm_id":6258941685,"osm_tipo":"node","tipo_lugar":"suburb"},"geometry":{"type":"Point","coordinates":[-46.9602144,-22.4209684]}},{"type":"Feature","properties":{"nome":"Parque do Estado II","osm_id":6259033612,"osm_tipo":"node","tipo_lugar":"suburb"},"geometry":{"type":"Point","coordinates":[-46.9501626,-22.3988777]}},{"type":"Feature","properties":{"nome":"Jardim Flamboyant","osm_id":6259054778,"osm_tipo":"node","tipo_lugar":"suburb"},"geometry":{"type":"Point","coordinates":[-46.9665365,-22.4041148]}},{"type":"Feature","properties":{"nome":"Jardim Scomparim","osm_id":6259074962,"osm_tipo":"node","tipo_lugar":"suburb"},"geometry":{"type":"Point","coordinates":[-46.9699508,-22.3994338]}},{"type":"Feature","properties":{"nome":"Santa Luzia","osm_id":6259084723,"osm_tipo":"node","tipo_lugar":"suburb"},"geometry":{"type":"Point","coordinates":[-46.9608394,-22.4147112]}},{"type":"Feature","properties":{"nome":"Centro","osm_id":6260247734,"osm_tipo":"node","tipo_lugar":"suburb"},"geometry":{"type":"Point","coordinates":[-46.9560635,-22.4272521]}},{"type":"Feature","properties":{"nome":"Vila Universitária","osm_id":6260393278,"osm_tipo":"node","tipo_lugar":"suburb"},"geometry":{"type":"Point","coordinates":[-46.9374677,-22.4402464]}},{"type":"Feature","properties":{"nome":"Jardim Santa Monica III","osm_id":6270215574,"osm_tipo":"node","tipo_lugar":"suburb"},"geometry":{"type":"Point","coordinates":[-46.9529228,-22.3938868]}},{"type":"Feature","properties":{"nome":"Guaçu-Mirim","osm_id":6270215589,"osm_tipo":"node","tipo_lugar":"suburb"},"geometry":{"type":"Point","coordinates":[-46.9736311,-22.377867]}},{"type":"Feature","properties":{"nome":"Bié II","osm_id":8335566245,"osm_tipo":"node","tipo_lugar":"suburb"},"geometry":{"type":"Point","coordinates":[-46.8633642,-22.4180087]}}]}