{"type":"FeatureCollection","features":[{"type":"Feature","properties":{"nome":"Vera Cruz","osm_id":5470210246,"osm_tipo":"node","tipo_lugar":"suburb"},"geometry":{"type":"Point","coordinates":[-46.6402318,-24.1004006]}},{"type":"Feature","properties":{"nome":"Regina Maria","osm_id":5638783701,"osm_tipo":"node","tipo_lugar":"suburb"},"geometry":{"type":"Point","coordinates":[-46.705953,-24.1167493]}},{"type":"Feature","properties":{"nome":"Agenor de Campos","osm_id":5638802086,"osm_tipo":"node","tipo_lugar":"suburb"},"geometry":{"type":"Point","coordinates":[-46.6916285,-24.1274042]}},{"type":"Feature","properties":{"nome":"Itapoan","osm_id":5859948741,"osm_tipo":"node","tipo_lugar":"suburb"},"geometry":{"type":"Point","coordinates":[-46.6711303,-24.1162193]}},{"type":"Feature","properties":{"nome":"Vila Atlântica","osm_id":6672809952,"osm_tipo":"node","tipo_lugar":"suburb"},"geometry":{"type":"Point","coordinates":[-46.6501779,-24.1053136]}},{"type":"Feature","properties":{"nome":"Balneário Itaguaí","osm_id":6672825322,"osm_tipo":"node","tipo_lugar":"suburb"},"geometry":{"type":"Point","coordinates":[-46.6952433,-24.1267218]}},{"type":"Feature","properties":{"nome":"Centro","osm_id":11001678346,"osm_tipo":"node","tipo_lugar":"suburb"},"geometry":{"type":"Point","coordinates":[-46.6213937,-24.0949855]}},{"type":"Feature","properties":{"nome":"Vila São Paulo","osm_id":12394353136,"osm_tipo":"node","tipo_lugar":"suburb"},"geometry":{"type":"Point","coordinates":[-46.6102395,-24.0899385]}},{"type":"Feature","properties":{"nome":"Pedreira","osm_id":12535128394,"osm_tipo":"node","tipo_lugar":"suburb"},"geometry":{"type":"Point","coordinates":[-46.6268409,-24.0935175]}},{"type":"Feature","properties":{"nome":"Jardim Praia Grande","osm_id":12542948543,"osm_tipo":"node","tipo_lugar":"suburb"},"geometry":{"type":"Point","coordinates":[-46.6628194,-24.1104077]}}]}