{"type":"FeatureCollection","features":[{"type":"Feature","properties":{"nome":"São Francisco","osm_id":4136849467,"osm_tipo":"node","tipo_lugar":"suburb"},"geometry":{"type":"Point","coordinates":[-48.6345699,-20.9195367]}},{"type":"Feature","properties":{"nome":"Cruzeiro","osm_id":6010939665,"osm_tipo":"node","tipo_lugar":"suburb"},"geometry":{"type":"Point","coordinates":[-48.6422874,-20.9132878]}},{"type":"Feature","properties":{"nome":"Centro","osm_id":6010968686,"osm_tipo":"node","tipo_lugar":"suburb"},"geometry":{"type":"Point","coordinates":[-48.6438974,-20.9014487]}},{"type":"Feature","properties":{"nome":"Jardim Amazonas","osm_id":10887490026,"osm_tipo":"node","tipo_lugar":"suburb"},"geometry":{"type":"Point","coordinates":[-48.6312872,-20.8965337]}},{"type":"Feature","properties":{"nome":"Residencial Baraldi","osm_id":10891632784,"osm_tipo":"node","tipo_lugar":"suburb"},"geometry":{"type":"Point","coordinates":[-48.6469621,-20.8966339]}}]}