{"type":"FeatureCollection","features":[{"type":"Feature","properties":{"nome":"Jardim Paraíso","osm_id":8931245912,"osm_tipo":"node","tipo_lugar":"suburb"},"geometry":{"type":"Point","coordinates":[-49.6324137,-20.8518563]}},{"type":"Feature","properties":{"nome":"Parque das Palmeiras","osm_id":8931245913,"osm_tipo":"node","tipo_lugar":"suburb"},"geometry":{"type":"Point","coordinates":[-49.6340552,-20.8523225]}},{"type":"Feature","properties":{"nome":"Residencial Lígia Maria","osm_id":8931287045,"osm_tipo":"node","tipo_lugar":"suburb"},"geometry":{"type":"Point","coordinates":[-49.620738,-20.8538991]}},{"type":"Feature","properties":{"nome":"Jardim São José 2","osm_id":8931287046,"osm_tipo":"node","tipo_lugar":"suburb"},"geometry":{"type":"Point","coordinates":[-49.6234471,-20.8509264]}},{"type":"Feature","properties":{"nome":"Jardim São José 3","osm_id":8931287047,"osm_tipo":"node","tipo_lugar":"suburb"},"geometry":{"type":"Point","coordinates":[-49.6247399,-20.8495804]}},{"type":"Feature","properties":{"nome":"Jardim Vivendas","osm_id":8931287048,"osm_tipo":"node","tipo_lugar":"suburb"},"geometry":{"type":"Point","coordinates":[-49.6225834,-20.8489838]}},{"type":"Feature","properties":{"nome":"Jardim São José","osm_id":8931287049,"osm_tipo":"node","tipo_lugar":"suburb"},"geometry":{"type":"Point","coordinates":[-49.6234739,-20.8476403]}},{"type":"Feature","properties":{"nome":"Jardim Natha","osm_id":8931287053,"osm_tipo":"node","tipo_lugar":"suburb"},"geometry":{"type":"Point","coordinates":[-49.6210814,-20.8471013]}},{"type":"Feature","properties":{"nome":"Jardim Nevense","osm_id":8931287054,"osm_tipo":"node","tipo_lugar":"suburb"},"geometry":{"type":"Point","coordinates":[-49.6190053,-20.8502145]}}]}