{"type":"FeatureCollection","features":[{"type":"Feature","properties":{"nome":"City Bussocaba","osm_id":1713491783,"osm_tipo":"node","tipo_lugar":"suburb"},"geometry":{"type":"Point","coordinates":[-46.7849861,-23.5699296]}},{"type":"Feature","properties":{"nome":"Colinas d'Oeste Setor C","osm_id":1875429546,"osm_tipo":"node","tipo_lugar":"suburb"},"geometry":{"type":"Point","coordinates":[-46.7998928,-23.4891284]}},{"type":"Feature","properties":{"nome":"IAPI","osm_id":1875429547,"osm_tipo":"node","tipo_lugar":"suburb"},"geometry":{"type":"Point","coordinates":[-46.7904666,-23.5128688]}},{"type":"Feature","properties":{"nome":"Vila Serventina","osm_id":1875429549,"osm_tipo":"node","tipo_lugar":"suburb"},"geometry":{"type":"Point","coordinates":[-46.7900963,-23.5055092]}},{"type":"Feature","properties":{"nome":"Jardim Piratininga","osm_id":1875429552,"osm_tipo":"node","tipo_lugar":"suburb"},"geometry":{"type":"Point","coordinates":[-46.7945049,-23.5178731]}},{"type":"Feature","properties":{"nome":"Jardim Rochdale","osm_id":1875429557,"osm_tipo":"node","tipo_lugar":"suburb"},"geometry":{"type":"Point","coordinates":[-46.7776798,-23.5074258]}},{"type":"Feature","properties":{"nome":"Munhoz Júnior","osm_id":1875429561,"osm_tipo":"node","tipo_lugar":"suburb"},"geometry":{"type":"Point","coordinates":[-46.8064562,-23.5018492]}},{"type":"Feature","properties":{"nome":"Helena Maria","osm_id":1875429569,"osm_tipo":"node","tipo_lugar":"suburb"},"geometry":{"type":"Point","coordinates":[-46.7947741,-23.4977769]}},{"type":"Feature","properties":{"nome":"Portal d'Oeste","osm_id":1875429570,"osm_tipo":"node","tipo_lugar":"suburb"},"geometry":{"type":"Point","coordinates":[-46.7993934,-23.4927687]}},{"type":"Feature","properties":{"nome":"Jardim Aliança","osm_id":1875429571,"osm_tipo":"node","tipo_lugar":"suburb"},"geometry":{"type":"Point","coordinates":[-46.7840442,-23.5072118]}},{"type":"Feature","properties":{"nome":"Bel Jardim","osm_id":1876519949,"osm_tipo":"node","tipo_lugar":"suburb"},"geometry":{"type":"Point","coordinates":[-46.7946912,-23.5030553]}},{"type":"Feature","properties":{"nome":"Chapéu de Couro-Portal d'Oeste II","osm_id":1878559563,"osm_tipo":"node","tipo_lugar":"suburb"},"geometry":{"type":"Point","coordinates":[-46.8053011,-23.4924446]}},{"type":"Feature","properties":{"nome":"Colinas d'Oeste Setor E","osm_id":1878597829,"osm_tipo":"node","tipo_lugar":"suburb"},"geometry":{"type":"Point","coordinates":[-46.8002264,-23.4864817]}},{"type":"Feature","properties":{"nome":"Jardim Bonança II","osm_id":1879736602,"osm_tipo":"node","tipo_lugar":"suburb"},"geometry":{"type":"Point","coordinates":[-46.7909261,-23.4881814]}},{"type":"Feature","properties":{"nome":"Jardim Três Montanhas","osm_id":1879748085,"osm_tipo":"node","tipo_lugar":"suburb"},"geometry":{"type":"Point","coordinates":[-46.7875321,-23.4811482]}},{"type":"Feature","properties":{"nome":"Terra Nossa","osm_id":1880358838,"osm_tipo":"node","tipo_lugar":"suburb"},"geometry":{"type":"Point","coordinates":[-46.7897497,-23.5082046]}},{"type":"Feature","properties":{"nome":"Vila Canaã","osm_id":1880358843,"osm_tipo":"node","tipo_lugar":"suburb"},"geometry":{"type":"Point","coordinates":[-46.7845379,-23.5119148]}},{"type":"Feature","properties":{"nome":"Vila Arco-Íris","osm_id":1881970605,"osm_tipo":"node","tipo_lugar":"suburb"},"geometry":{"type":"Point","coordinates":[-46.7872594,-23.4911336]}},{"type":"Feature","properties":{"nome":"Jardim Esperança","osm_id":1881977203,"osm_tipo":"node","tipo_lugar":"suburb"},"geometry":{"type":"Point","coordinates":[-46.7908578,-23.4911444]}},{"type":"Feature","properties":{"nome":"Industrial Anhangüera","osm_id":1881995204,"osm_tipo":"node","tipo_lugar":"suburb"},"geometry":{"type":"Point","coordinates":[-46.7777574,-23.482348]}},{"type":"Feature","properties":{"nome":"Jardim Santa Rita de Cássia","osm_id":1881995212,"osm_tipo":"node","tipo_lugar":"suburb"},"geometry":{"type":"Point","coordinates":[-46.7781447,-23.4891086]}},{"type":"Feature","properties":{"nome":"Vila Simões de Almeida","osm_id":1881995228,"osm_tipo":"node","tipo_lugar":"suburb"},"geometry":{"type":"Point","coordinates":[-46.7805538,-23.4751727]}},{"type":"Feature","properties":{"nome":"Vila Menck","osm_id":1892036785,"osm_tipo":"node","tipo_lugar":"suburb"},"geometry":{"type":"Point","coordinates":[-46.7677163,-23.5028132]}},{"type":"Feature","properties":{"nome":"Vila dos Remédios","osm_id":1895613990,"osm_tipo":"node","tipo_lugar":"suburb"},"geometry":{"type":"Point","coordinates":[-46.7542423,-23.520039]}},{"type":"Feature","properties":{"nome":"Quitaúna","osm_id":2018316057,"osm_tipo":"node","tipo_lugar":"suburb"},"geometry":{"type":"Point","coordinates":[-46.8135586,-23.530065]}},{"type":"Feature","properties":{"nome":"Cidade das Flores","osm_id":2018316639,"osm_tipo":"node","tipo_lugar":"suburb"},"geometry":{"type":"Point","coordinates":[-46.8072715,-23.5365472]}},{"type":"Feature","properties":{"nome":"Jardim Recanto das Rosas","osm_id":2101733350,"osm_tipo":"node","tipo_lugar":"suburb"},"geometry":{"type":"Point","coordinates":[-46.8151912,-23.5794644]}},{"type":"Feature","properties":{"nome":"Jardim Santa Maria","osm_id":2102190648,"osm_tipo":"node","tipo_lugar":"suburb"},"geometry":{"type":"Point","coordinates":[-46.811105,-23.5831825]}},{"type":"Feature","properties":{"nome":"Vila Quitauna","osm_id":2191962168,"osm_tipo":"node","tipo_lugar":"suburb"},"geometry":{"type":"Point","coordinates":[-46.7960174,-23.5283921]}},{"type":"Feature","properties":{"nome":"Jardim Pacheco","osm_id":2269888284,"osm_tipo":"node","tipo_lugar":"suburb"},"geometry":{"type":"Point","coordinates":[-46.8033047,-23.5459345]}},{"type":"Feature","properties":{"nome":"Jardim Roberto","osm_id":2269888303,"osm_tipo":"node","tipo_lugar":"suburb"},"geometry":{"type":"Point","coordinates":[-46.802552,-23.5439924]}},{"type":"Feature","properties":{"nome":"Copromo","osm_id":3104116200,"osm_tipo":"node","tipo_lugar":"suburb"},"geometry":{"type":"Point","coordinates":[-46.7867489,-23.5093714]}},{"type":"Feature","properties":{"nome":"Chácara Everest","osm_id":4272311186,"osm_tipo":"node","tipo_lugar":"suburb"},"geometry":{"type":"Point","coordinates":[-46.8110355,-23.5973491]}},{"type":"Feature","properties":{"nome":"Jardim Bela Vista","osm_id":4336107324,"osm_tipo":"node","tipo_lugar":"suburb"},"geometry":{"type":"Point","coordinates":[-46.7839731,-23.5509596]}},{"type":"Feature","properties":{"nome":"Helena Maria","osm_id":4882003207,"osm_tipo":"node","tipo_lugar":"suburb"},"geometry":{"type":"Point","coordinates":[-46.7878126,-23.5010287]}},{"type":"Feature","properties":{"nome":"Jardim Santo Antônio","osm_id":5205395479,"osm_tipo":"node","tipo_lugar":"suburb"},"geometry":{"type":"Point","coordinates":[-46.7936847,-23.5554527]}},{"type":"Feature","properties":{"nome":"Jardim Baronesa","osm_id":5274589511,"osm_tipo":"node","tipo_lugar":"suburb"},"geometry":{"type":"Point","coordinates":[-46.788735,-23.4951065]}},{"type":"Feature","properties":{"nome":"Vila São José","osm_id":5310656765,"osm_tipo":"node","tipo_lugar":"suburb"},"geometry":{"type":"Point","coordinates":[-46.7725224,-23.5180651]}},{"type":"Feature","properties":{"nome":"Bussocaba","osm_id":5313811646,"osm_tipo":"node","tipo_lugar":"suburb"},"geometry":{"type":"Point","coordinates":[-46.7885548,-23.5684891]}},{"type":"Feature","properties":{"nome":"Umuarama","osm_id":5313824850,"osm_tipo":"node","tipo_lugar":"suburb"},"geometry":{"type":"Point","coordinates":[-46.7812938,-23.5609315]}},{"type":"Feature","properties":{"nome":"Jardim Elvira","osm_id":5609614863,"osm_tipo":"node","tipo_lugar":"suburb"},"geometry":{"type":"Point","coordinates":[-46.8040681,-23.4977709]}},{"type":"Feature","properties":{"nome":"Jardim Primeiro de Maio","osm_id":5648417152,"osm_tipo":"node","tipo_lugar":"suburb"},"geometry":{"type":"Point","coordinates":[-46.806716,-23.5784246]}},{"type":"Feature","properties":{"nome":"Conceição","osm_id":5794715123,"osm_tipo":"node","tipo_lugar":"suburb"},"geometry":{"type":"Point","coordinates":[-46.8012989,-23.5777176]}},{"type":"Feature","properties":{"nome":"Padroeira","osm_id":6139564068,"osm_tipo":"node","tipo_lugar":"suburb"},"geometry":{"type":"Point","coordinates":[-46.8099276,-23.5483964]}},{"type":"Feature","properties":{"nome":"Jardim das Flòres","osm_id":6140680086,"osm_tipo":"node","tipo_lugar":"suburb"},"geometry":{"type":"Point","coordinates":[-46.7905645,-23.5347639]}},{"type":"Feature","properties":{"nome":"Jaguaribe","osm_id":6143993916,"osm_tipo":"node","tipo_lugar":"suburb"},"geometry":{"type":"Point","coordinates":[-46.7874726,-23.5566801]}},{"type":"Feature","properties":{"nome":"Jardim das Bandeiras","osm_id":6160131824,"osm_tipo":"node","tipo_lugar":"suburb"},"geometry":{"type":"Point","coordinates":[-46.8157903,-23.5537969]}},{"type":"Feature","properties":{"nome":"Jardim D'Abril","osm_id":6221609115,"osm_tipo":"node","tipo_lugar":"suburb"},"geometry":{"type":"Point","coordinates":[-46.7773321,-23.5585224]}},{"type":"Feature","properties":{"nome":"Padroeira","osm_id":6301466329,"osm_tipo":"node","tipo_lugar":"suburb"},"geometry":{"type":"Point","coordinates":[-46.8121531,-23.5566382]}},{"type":"Feature","properties":{"nome":"Adalgisa","osm_id":6367438996,"osm_tipo":"node","tipo_lugar":"suburb"},"geometry":{"type":"Point","coordinates":[-46.7764305,-23.5672117]}},{"type":"Feature","properties":{"nome":"KM 18","osm_id":7535653434,"osm_tipo":"node","tipo_lugar":"suburb"},"geometry":{"type":"Point","coordinates":[-46.8043381,-23.5248557]}},{"type":"Feature","properties":{"nome":"Conceição","osm_id":9434356044,"osm_tipo":"node","tipo_lugar":"suburb"},"geometry":{"type":"Point","coordinates":[-46.8056896,-23.5761164]}},{"type":"Feature","properties":{"nome":"Presidente Altino","osm_id":13738556824,"osm_tipo":"node","tipo_lugar":"suburb"},"geometry":{"type":"Point","coordinates":[-46.7669535,-23.5275598]}},{"type":"Feature","properties":{"nome":"Jardim Santa Maria","osm_id":677959215,"osm_tipo":"way","tipo_lugar":"suburb"},"geometry":{"type":"Polygon","coordinates":[[[-46.8162045,-23.5866393],[-46.8056041,-23.5842059],[-46.8082588,-23.569881],[-46.8131658,-23.568831],[-46.8146244,-23.5705636],[-46.8172824,-23.580805],[-46.8162045,-23.5866393]]]}}]}