{"type":"FeatureCollection","features":[{"type":"Feature","properties":{"nome":"Vila Aparecida","osm_id":2449642050,"osm_tipo":"node","tipo_lugar":"suburb"},"geometry":{"type":"Point","coordinates":[-48.770616,-23.4710666]}},{"type":"Feature","properties":{"nome":"Terras de Jurumirim","osm_id":3404633770,"osm_tipo":"node","tipo_lugar":"suburb"},"geometry":{"type":"Point","coordinates":[-48.9599739,-23.3882879]}},{"type":"Feature","properties":{"nome":"Barbudo","osm_id":13247708266,"osm_tipo":"node","tipo_lugar":"suburb"},"geometry":{"type":"Point","coordinates":[-48.6968692,-23.3783067]}},{"type":"Feature","properties":{"nome":"Água Branca","osm_id":13247708267,"osm_tipo":"node","tipo_lugar":"suburb"},"geometry":{"type":"Point","coordinates":[-48.7841684,-23.4089125]}},{"type":"Feature","properties":{"nome":"Bairro Jacu","osm_id":13247708268,"osm_tipo":"node","tipo_lugar":"suburb"},"geometry":{"type":"Point","coordinates":[-48.6439488,-23.3444719]}},{"type":"Feature","properties":{"nome":"Prata Velha","osm_id":13247708269,"osm_tipo":"node","tipo_lugar":"suburb"},"geometry":{"type":"Point","coordinates":[-48.7931264,-23.4177591]}},{"type":"Feature","properties":{"nome":"Serrinha","osm_id":13247708270,"osm_tipo":"node","tipo_lugar":"suburb"},"geometry":{"type":"Point","coordinates":[-48.8173477,-23.3827489]}},{"type":"Feature","properties":{"nome":"Matão","osm_id":13247708271,"osm_tipo":"node","tipo_lugar":"suburb"},"geometry":{"type":"Point","coordinates":[-48.8546487,-23.3551866]}},{"type":"Feature","properties":{"nome":"Capim Velho","osm_id":13247708280,"osm_tipo":"node","tipo_lugar":"suburb"},"geometry":{"type":"Point","coordinates":[-48.7688425,-23.3987049]}}]}