{"type":"FeatureCollection","features":[{"type":"Feature","properties":{"nome":"Industrial Feital","osm_id":368180065,"osm_tipo":"node","tipo_lugar":"neighbourhood"},"geometry":{"type":"Point","coordinates":[-45.4008601,-22.9344335]}},{"type":"Feature","properties":{"nome":"Residencial Mantiqueira","osm_id":1860615386,"osm_tipo":"node","tipo_lugar":"suburb"},"geometry":{"type":"Point","coordinates":[-45.3673928,-22.8855263]}},{"type":"Feature","properties":{"nome":"Residencial Karina","osm_id":1860616167,"osm_tipo":"node","tipo_lugar":"suburb"},"geometry":{"type":"Point","coordinates":[-45.361046,-22.9115988]}},{"type":"Feature","properties":{"nome":"Residencial Ramos","osm_id":1860616472,"osm_tipo":"node","tipo_lugar":"suburb"},"geometry":{"type":"Point","coordinates":[-45.3617429,-22.9134813]}},{"type":"Feature","properties":{"nome":"Laerte Assunção","osm_id":2235687462,"osm_tipo":"node","tipo_lugar":"neighbourhood"},"geometry":{"type":"Point","coordinates":[-45.3697126,-22.9159775]}},{"type":"Feature","properties":{"nome":"Vale das Acácias","osm_id":2235689894,"osm_tipo":"node","tipo_lugar":"suburb"},"geometry":{"type":"Point","coordinates":[-45.3721885,-22.908588]}},{"type":"Feature","properties":{"nome":"Residencial Liberdade","osm_id":2235690606,"osm_tipo":"node","tipo_lugar":"neighbourhood"},"geometry":{"type":"Point","coordinates":[-45.3764718,-22.9035048]}},{"type":"Feature","properties":{"nome":"Residencial Doutor Cícero da Silva Prado","osm_id":2235691671,"osm_tipo":"node","tipo_lugar":"neighbourhood"},"geometry":{"type":"Point","coordinates":[-45.3784145,-22.898666]}},{"type":"Feature","properties":{"nome":"Jardim Carlota","osm_id":2235692868,"osm_tipo":"node","tipo_lugar":"neighbourhood"},"geometry":{"type":"Point","coordinates":[-45.3686447,-22.8998297]}},{"type":"Feature","properties":{"nome":"Vila São José","osm_id":3705966930,"osm_tipo":"node","tipo_lugar":"suburb"},"geometry":{"type":"Point","coordinates":[-45.3766254,-22.889159]}},{"type":"Feature","properties":{"nome":"Conjunto Habitacional Terra dos Ipês II","osm_id":3705966931,"osm_tipo":"node","tipo_lugar":"suburb"},"geometry":{"type":"Point","coordinates":[-45.380891,-22.8941844]}},{"type":"Feature","properties":{"nome":"Conjunto Habitacional Terra dos Ipês I","osm_id":3705966932,"osm_tipo":"node","tipo_lugar":"suburb"},"geometry":{"type":"Point","coordinates":[-45.3723255,-22.8950064]}},{"type":"Feature","properties":{"nome":"Goiabal","osm_id":3711322014,"osm_tipo":"node","tipo_lugar":"suburb"},"geometry":{"type":"Point","coordinates":[-45.4062047,-22.9819137]}},{"type":"Feature","properties":{"nome":"Portal dos Eucaliptos","osm_id":3714378095,"osm_tipo":"node","tipo_lugar":"suburb"},"geometry":{"type":"Point","coordinates":[-45.3868482,-22.8977379]}},{"type":"Feature","properties":{"nome":"Vila São João","osm_id":3714382577,"osm_tipo":"node","tipo_lugar":"suburb"},"geometry":{"type":"Point","coordinates":[-45.3905469,-22.8880386]}},{"type":"Feature","properties":{"nome":"Vila São Benedito","osm_id":3714382578,"osm_tipo":"node","tipo_lugar":"suburb"},"geometry":{"type":"Point","coordinates":[-45.3878648,-22.8907099]}},{"type":"Feature","properties":{"nome":"Vila Cícero Prado","osm_id":3714389013,"osm_tipo":"node","tipo_lugar":"suburb"},"geometry":{"type":"Point","coordinates":[-45.3846763,-22.8885835]}},{"type":"Feature","properties":{"nome":"Residencial Araguaia","osm_id":3714395964,"osm_tipo":"node","tipo_lugar":"suburb"},"geometry":{"type":"Point","coordinates":[-45.3811664,-22.9082184]}},{"type":"Feature","properties":{"nome":"Condominio Vale do Sol","osm_id":3714395965,"osm_tipo":"node","tipo_lugar":"neighbourhood"},"geometry":{"type":"Point","coordinates":[-45.3693114,-22.9201563]}},{"type":"Feature","properties":{"nome":"Residencial Azeredo","osm_id":3714395966,"osm_tipo":"node","tipo_lugar":"neighbourhood"},"geometry":{"type":"Point","coordinates":[-45.3671161,-22.9194074]}},{"type":"Feature","properties":{"nome":"Jardim Marieta Azeredo","osm_id":3714395967,"osm_tipo":"node","tipo_lugar":"neighbourhood"},"geometry":{"type":"Point","coordinates":[-45.3638777,-22.9215432]}},{"type":"Feature","properties":{"nome":"Jardim Padre Rodolfo","osm_id":3714395968,"osm_tipo":"node","tipo_lugar":"neighbourhood"},"geometry":{"type":"Point","coordinates":[-45.3639613,-22.9242602]}},{"type":"Feature","properties":{"nome":"Paulino de Jesus","osm_id":3714395969,"osm_tipo":"node","tipo_lugar":"neighbourhood"},"geometry":{"type":"Point","coordinates":[-45.3615545,-22.9123077]}},{"type":"Feature","properties":{"nome":"São Vicente de Paulo","osm_id":3714397055,"osm_tipo":"node","tipo_lugar":"neighbourhood"},"geometry":{"type":"Point","coordinates":[-45.3651484,-22.9139403]}},{"type":"Feature","properties":{"nome":"Centro","osm_id":3714397056,"osm_tipo":"node","tipo_lugar":"neighbourhood"},"geometry":{"type":"Point","coordinates":[-45.3627416,-22.9158726]}},{"type":"Feature","properties":{"nome":"Ayako Honda","osm_id":3714397057,"osm_tipo":"node","tipo_lugar":"neighbourhood"},"geometry":{"type":"Point","coordinates":[-45.3599771,-22.914195]}},{"type":"Feature","properties":{"nome":"Jardim Regina Moreira César","osm_id":3714404473,"osm_tipo":"node","tipo_lugar":"suburb"},"geometry":{"type":"Point","coordinates":[-45.3757064,-22.9413813]}},{"type":"Feature","properties":{"nome":"Feital","osm_id":3714404474,"osm_tipo":"node","tipo_lugar":"suburb"},"geometry":{"type":"Point","coordinates":[-45.3979197,-22.9404895]}},{"type":"Feature","properties":{"nome":"Residencial Vista Alegre","osm_id":3714404475,"osm_tipo":"node","tipo_lugar":"neighbourhood"},"geometry":{"type":"Point","coordinates":[-45.3942014,-22.9440186]}},{"type":"Feature","properties":{"nome":"Cidade Nova","osm_id":3714406695,"osm_tipo":"node","tipo_lugar":"suburb"},"geometry":{"type":"Point","coordinates":[-45.4065912,-22.9446573]}},{"type":"Feature","properties":{"nome":"Jardim Eloyna","osm_id":3714408042,"osm_tipo":"node","tipo_lugar":"neighbourhood"},"geometry":{"type":"Point","coordinates":[-45.4117581,-22.9483033]}},{"type":"Feature","properties":{"nome":"Triângulo","osm_id":3714408043,"osm_tipo":"node","tipo_lugar":"neighbourhood"},"geometry":{"type":"Point","coordinates":[-45.4204483,-22.9450436]}},{"type":"Feature","properties":{"nome":"Vitória Vale III","osm_id":3714408044,"osm_tipo":"node","tipo_lugar":"neighbourhood"},"geometry":{"type":"Point","coordinates":[-45.4183883,-22.9507937]}},{"type":"Feature","properties":{"nome":"Vitória Vale II","osm_id":3714408045,"osm_tipo":"node","tipo_lugar":"neighbourhood"},"geometry":{"type":"Point","coordinates":[-45.4166288,-22.9568398]}},{"type":"Feature","properties":{"nome":"Campinas","osm_id":3714409925,"osm_tipo":"node","tipo_lugar":"suburb"},"geometry":{"type":"Point","coordinates":[-45.403368,-22.9628462]}},{"type":"Feature","properties":{"nome":"Residencial Solor Rico","osm_id":3714409926,"osm_tipo":"node","tipo_lugar":"neighbourhood"},"geometry":{"type":"Point","coordinates":[-45.4083676,-22.9603172]}},{"type":"Feature","properties":{"nome":"Parque Shangri-lá","osm_id":3714409927,"osm_tipo":"node","tipo_lugar":"neighbourhood"},"geometry":{"type":"Point","coordinates":[-45.4080887,-22.9660271]}},{"type":"Feature","properties":{"nome":"Anhanguera","osm_id":5179214738,"osm_tipo":"node","tipo_lugar":"suburb"},"geometry":{"type":"Point","coordinates":[-45.4660399,-22.9610415]}},{"type":"Feature","properties":{"nome":"Haras","osm_id":5179214740,"osm_tipo":"node","tipo_lugar":"suburb"},"geometry":{"type":"Point","coordinates":[-45.4380301,-22.9529864]}},{"type":"Feature","properties":{"nome":"Borba","osm_id":5179214741,"osm_tipo":"node","tipo_lugar":"suburb"},"geometry":{"type":"Point","coordinates":[-45.4361819,-22.9776417]}},{"type":"Feature","properties":{"nome":"Pinhão do Borba","osm_id":5179214742,"osm_tipo":"node","tipo_lugar":"suburb"},"geometry":{"type":"Point","coordinates":[-45.4733504,-22.9944668]}},{"type":"Feature","properties":{"nome":"Ponte Alta","osm_id":5179214743,"osm_tipo":"node","tipo_lugar":"suburb"},"geometry":{"type":"Point","coordinates":[-45.4574152,-22.9718943]}},{"type":"Feature","properties":{"nome":"Industrial Dutra","osm_id":5179214744,"osm_tipo":"node","tipo_lugar":"suburb"},"geometry":{"type":"Point","coordinates":[-45.4662452,-22.9760914]}},{"type":"Feature","properties":{"nome":"Una","osm_id":5179214745,"osm_tipo":"node","tipo_lugar":"suburb"},"geometry":{"type":"Point","coordinates":[-45.4865749,-22.9746168]}},{"type":"Feature","properties":{"nome":"Mombaça","osm_id":5179214747,"osm_tipo":"node","tipo_lugar":"suburb"},"geometry":{"type":"Point","coordinates":[-45.4963496,-22.9331303]}},{"type":"Feature","properties":{"nome":"Bela Vista","osm_id":5179214748,"osm_tipo":"node","tipo_lugar":"suburb"},"geometry":{"type":"Point","coordinates":[-45.4555508,-22.9513271]}},{"type":"Feature","properties":{"nome":"Cardoso","osm_id":5179214749,"osm_tipo":"node","tipo_lugar":"suburb"},"geometry":{"type":"Point","coordinates":[-45.4648078,-22.9433045]}},{"type":"Feature","properties":{"nome":"Vila Nair","osm_id":5179214750,"osm_tipo":"node","tipo_lugar":"suburb"},"geometry":{"type":"Point","coordinates":[-45.4673541,-22.9250357]}},{"type":"Feature","properties":{"nome":"Tabaú","osm_id":5179214751,"osm_tipo":"node","tipo_lugar":"suburb"},"geometry":{"type":"Point","coordinates":[-45.452982,-22.9251159]}},{"type":"Feature","properties":{"nome":"Centro","osm_id":5179214752,"osm_tipo":"node","tipo_lugar":"suburb"},"geometry":{"type":"Point","coordinates":[-45.4612141,-22.9281753]}},{"type":"Feature","properties":{"nome":"Galega","osm_id":5179214753,"osm_tipo":"node","tipo_lugar":"suburb"},"geometry":{"type":"Point","coordinates":[-45.466697,-22.9311067]}},{"type":"Feature","properties":{"nome":"Campo Alegre","osm_id":5179214754,"osm_tipo":"node","tipo_lugar":"suburb"},"geometry":{"type":"Point","coordinates":[-45.4542117,-22.9428129]}},{"type":"Feature","properties":{"nome":"Sao Benedito","osm_id":5179214755,"osm_tipo":"node","tipo_lugar":"suburb"},"geometry":{"type":"Point","coordinates":[-45.4558545,-22.9319577]}},{"type":"Feature","properties":{"nome":"Alvarenga","osm_id":5179214756,"osm_tipo":"node","tipo_lugar":"suburb"},"geometry":{"type":"Point","coordinates":[-45.4494886,-22.9289318]}},{"type":"Feature","properties":{"nome":"Santa Cecília","osm_id":5179214757,"osm_tipo":"node","tipo_lugar":"suburb"},"geometry":{"type":"Point","coordinates":[-45.4408639,-22.9342272]}},{"type":"Feature","properties":{"nome":"Ipiranga","osm_id":5179214758,"osm_tipo":"node","tipo_lugar":"suburb"},"geometry":{"type":"Point","coordinates":[-45.4159344,-22.9337733]}},{"type":"Feature","properties":{"nome":"Buriti","osm_id":5179214759,"osm_tipo":"node","tipo_lugar":"suburb"},"geometry":{"type":"Point","coordinates":[-45.3880888,-22.9302178]}},{"type":"Feature","properties":{"nome":"Atanásio","osm_id":5179214760,"osm_tipo":"node","tipo_lugar":"suburb"},"geometry":{"type":"Point","coordinates":[-45.3692787,-22.9447795]}},{"type":"Feature","properties":{"nome":"Jataí","osm_id":5179214761,"osm_tipo":"node","tipo_lugar":"suburb"},"geometry":{"type":"Point","coordinates":[-45.342501,-22.9276835]}},{"type":"Feature","properties":{"nome":"Barranco Alto","osm_id":5179214762,"osm_tipo":"node","tipo_lugar":"suburb"},"geometry":{"type":"Point","coordinates":[-45.3750696,-22.9249979]}},{"type":"Feature","properties":{"nome":"Industrial MC","osm_id":5179214763,"osm_tipo":"node","tipo_lugar":"suburb"},"geometry":{"type":"Point","coordinates":[-45.3473884,-22.9054403]}},{"type":"Feature","properties":{"nome":"Centro","osm_id":5179214764,"osm_tipo":"node","tipo_lugar":"suburb"},"geometry":{"type":"Point","coordinates":[-45.3636111,-22.9109258]}},{"type":"Feature","properties":{"nome":"Taipas","osm_id":5179214765,"osm_tipo":"node","tipo_lugar":"suburb"},"geometry":{"type":"Point","coordinates":[-45.3627486,-22.8852367]}},{"type":"Feature","properties":{"nome":"Curuçá","osm_id":5179214766,"osm_tipo":"node","tipo_lugar":"suburb"},"geometry":{"type":"Point","coordinates":[-45.3856657,-22.8863718]}},{"type":"Feature","properties":{"nome":"Ipê","osm_id":5179214767,"osm_tipo":"node","tipo_lugar":"suburb"},"geometry":{"type":"Point","coordinates":[-45.3771231,-22.894166]}},{"type":"Feature","properties":{"nome":"Carvalho","osm_id":5179214768,"osm_tipo":"node","tipo_lugar":"suburb"},"geometry":{"type":"Point","coordinates":[-45.3634057,-22.9030191]}},{"type":"Feature","properties":{"nome":"Acácias","osm_id":5179214769,"osm_tipo":"node","tipo_lugar":"suburb"},"geometry":{"type":"Point","coordinates":[-45.3772053,-22.9132713]}},{"type":"Feature","properties":{"nome":"Coruputuba","osm_id":5179214770,"osm_tipo":"node","tipo_lugar":"suburb"},"geometry":{"type":"Point","coordinates":[-45.3974733,-22.9109447]}},{"type":"Feature","properties":{"nome":"Água Preta","osm_id":5179214771,"osm_tipo":"node","tipo_lugar":"suburb"},"geometry":{"type":"Point","coordinates":[-45.4185012,-22.9162598]}},{"type":"Feature","properties":{"nome":"Alto do Ribeirão","osm_id":5179214772,"osm_tipo":"node","tipo_lugar":"suburb"},"geometry":{"type":"Point","coordinates":[-45.4374191,-22.9234849]}},{"type":"Feature","properties":{"nome":"Santana","osm_id":5179214773,"osm_tipo":"node","tipo_lugar":"suburb"},"geometry":{"type":"Point","coordinates":[-45.4444781,-22.9225014]}},{"type":"Feature","properties":{"nome":"Crispim","osm_id":5179214774,"osm_tipo":"node","tipo_lugar":"suburb"},"geometry":{"type":"Point","coordinates":[-45.4518502,-22.9197778]}},{"type":"Feature","properties":{"nome":"Bosque","osm_id":5179214775,"osm_tipo":"node","tipo_lugar":"suburb"},"geometry":{"type":"Point","coordinates":[-45.4582366,-22.9203641]}},{"type":"Feature","properties":{"nome":"Boa Vista","osm_id":5179214776,"osm_tipo":"node","tipo_lugar":"suburb"},"geometry":{"type":"Point","coordinates":[-45.4688634,-22.9174987]}},{"type":"Feature","properties":{"nome":"Chácaras Reunidas","osm_id":5179236525,"osm_tipo":"node","tipo_lugar":"neighbourhood"},"geometry":{"type":"Point","coordinates":[-45.4265304,-22.9364588]}},{"type":"Feature","properties":{"nome":"Industrial Água Preta","osm_id":5179236526,"osm_tipo":"node","tipo_lugar":"neighbourhood"},"geometry":{"type":"Point","coordinates":[-45.4229962,-22.9182999]}},{"type":"Feature","properties":{"nome":"Residencial Alessandra","osm_id":5179236527,"osm_tipo":"node","tipo_lugar":"neighbourhood"},"geometry":{"type":"Point","coordinates":[-45.4417264,-22.9171677]}},{"type":"Feature","properties":{"nome":"Vila Suiça","osm_id":5179236528,"osm_tipo":"node","tipo_lugar":"neighbourhood"},"geometry":{"type":"Point","coordinates":[-45.4405661,-22.9233146]}},{"type":"Feature","properties":{"nome":"Residencial Carangola","osm_id":5179236529,"osm_tipo":"node","tipo_lugar":"neighbourhood"},"geometry":{"type":"Point","coordinates":[-45.4421371,-22.9216975]}},{"type":"Feature","properties":{"nome":"Parque São Domingos","osm_id":5179236532,"osm_tipo":"node","tipo_lugar":"neighbourhood"},"geometry":{"type":"Point","coordinates":[-45.4534005,-22.9348324]}},{"type":"Feature","properties":{"nome":"Parque São Benedito","osm_id":5179236533,"osm_tipo":"node","tipo_lugar":"neighbourhood"},"geometry":{"type":"Point","coordinates":[-45.4563165,-22.9341043]}},{"type":"Feature","properties":{"nome":"Jardim Santa Luzia","osm_id":5179236534,"osm_tipo":"node","tipo_lugar":"neighbourhood"},"geometry":{"type":"Point","coordinates":[-45.4507721,-22.93383]}},{"type":"Feature","properties":{"nome":"Jair Freire","osm_id":5179236535,"osm_tipo":"node","tipo_lugar":"neighbourhood"},"geometry":{"type":"Point","coordinates":[-45.4507413,-22.9326008]}},{"type":"Feature","properties":{"nome":"Vila São Judas Tadeu","osm_id":5179236536,"osm_tipo":"node","tipo_lugar":"neighbourhood"},"geometry":{"type":"Point","coordinates":[-45.4502895,-22.9318916]}},{"type":"Feature","properties":{"nome":"Castolira","osm_id":5179236537,"osm_tipo":"node","tipo_lugar":"neighbourhood"},"geometry":{"type":"Point","coordinates":[-45.4359252,-22.9251965]}},{"type":"Feature","properties":{"nome":"Marechal Castelo Branco","osm_id":5179236538,"osm_tipo":"node","tipo_lugar":"neighbourhood"},"geometry":{"type":"Point","coordinates":[-45.4513368,-22.9163165]}},{"type":"Feature","properties":{"nome":"Jardim Chafariz","osm_id":5179236539,"osm_tipo":"node","tipo_lugar":"neighbourhood"},"geometry":{"type":"Point","coordinates":[-45.4543452,-22.9207802]}},{"type":"Feature","properties":{"nome":"Jardim Primavera","osm_id":5179236540,"osm_tipo":"node","tipo_lugar":"neighbourhood"},"geometry":{"type":"Point","coordinates":[-45.4535032,-22.9218772]}},{"type":"Feature","properties":{"nome":"Vila Nossa Auxiliadora","osm_id":5179236541,"osm_tipo":"node","tipo_lugar":"neighbourhood"},"geometry":{"type":"Point","coordinates":[-45.4493243,-22.9213855]}},{"type":"Feature","properties":{"nome":"Jardim Dom Bosco","osm_id":5179236542,"osm_tipo":"node","tipo_lugar":"neighbourhood"},"geometry":{"type":"Point","coordinates":[-45.4501252,-22.9232957]}},{"type":"Feature","properties":{"nome":"Jardim Ana Maria","osm_id":5179236543,"osm_tipo":"node","tipo_lugar":"neighbourhood"},"geometry":{"type":"Point","coordinates":[-45.4472298,-22.927485]}},{"type":"Feature","properties":{"nome":"Vila Bourghese","osm_id":5179236544,"osm_tipo":"node","tipo_lugar":"neighbourhood"},"geometry":{"type":"Point","coordinates":[-45.4542065,-22.932284]}},{"type":"Feature","properties":{"nome":"Parque do Ypê","osm_id":5179236545,"osm_tipo":"node","tipo_lugar":"neighbourhood"},"geometry":{"type":"Point","coordinates":[-45.4555362,-22.9304826]}},{"type":"Feature","properties":{"nome":"Jardim Doutor Lessa","osm_id":5179236546,"osm_tipo":"node","tipo_lugar":"neighbourhood"},"geometry":{"type":"Point","coordinates":[-45.4772109,-22.9425481]}},{"type":"Feature","properties":{"nome":"Vila Rica","osm_id":5179236547,"osm_tipo":"node","tipo_lugar":"neighbourhood"},"geometry":{"type":"Point","coordinates":[-45.4815644,-22.9399195]}},{"type":"Feature","properties":{"nome":"Flamboyant","osm_id":5179236548,"osm_tipo":"node","tipo_lugar":"neighbourhood"},"geometry":{"type":"Point","coordinates":[-45.4831558,-22.9371679]}},{"type":"Feature","properties":{"nome":"Jardim Mariana","osm_id":5179236549,"osm_tipo":"node","tipo_lugar":"neighbourhood"},"geometry":{"type":"Point","coordinates":[-45.4774984,-22.9346716]}},{"type":"Feature","properties":{"nome":"Residencial Mombaça I","osm_id":5179236550,"osm_tipo":"node","tipo_lugar":"neighbourhood"},"geometry":{"type":"Point","coordinates":[-45.4774163,-22.9299436]}},{"type":"Feature","properties":{"nome":"Jardim Rezende","osm_id":5179236551,"osm_tipo":"node","tipo_lugar":"neighbourhood"},"geometry":{"type":"Point","coordinates":[-45.4749116,-22.9358251]}},{"type":"Feature","properties":{"nome":"Jardim Campos Maia","osm_id":5179236552,"osm_tipo":"node","tipo_lugar":"neighbourhood"},"geometry":{"type":"Point","coordinates":[-45.4702701,-22.9369505]}},{"type":"Feature","properties":{"nome":"Parque Central","osm_id":5179236553,"osm_tipo":"node","tipo_lugar":"neighbourhood"},"geometry":{"type":"Point","coordinates":[-45.4652287,-22.9329412]}},{"type":"Feature","properties":{"nome":"Jardim Aurora","osm_id":5179236555,"osm_tipo":"node","tipo_lugar":"neighbourhood"},"geometry":{"type":"Point","coordinates":[-45.4706603,-22.931485]}},{"type":"Feature","properties":{"nome":"Residencial Campo Belo","osm_id":5179236556,"osm_tipo":"node","tipo_lugar":"neighbourhood"},"geometry":{"type":"Point","coordinates":[-45.4680112,-22.9297828]}},{"type":"Feature","properties":{"nome":"Residencial Cidade Morumbi","osm_id":5179236557,"osm_tipo":"node","tipo_lugar":"neighbourhood"},"geometry":{"type":"Point","coordinates":[-45.4282554,-22.9150114]}},{"type":"Feature","properties":{"nome":"Residencial Laguna","osm_id":5179236559,"osm_tipo":"node","tipo_lugar":"neighbourhood"},"geometry":{"type":"Point","coordinates":[-45.4295151,-22.9352457]}},{"type":"Feature","properties":{"nome":"Residencial Maricá","osm_id":5179236560,"osm_tipo":"node","tipo_lugar":"neighbourhood"},"geometry":{"type":"Point","coordinates":[-45.4273108,-22.932979]}},{"type":"Feature","properties":{"nome":"Boa Esperança","osm_id":5179236561,"osm_tipo":"node","tipo_lugar":"neighbourhood"},"geometry":{"type":"Point","coordinates":[-45.4332043,-22.9291209]}},{"type":"Feature","properties":{"nome":"Jardim Santa Cecilia","osm_id":5179236562,"osm_tipo":"node","tipo_lugar":"suburb"},"geometry":{"type":"Point","coordinates":[-45.4366131,-22.9317497]}},{"type":"Feature","properties":{"nome":"Residencial Andrade","osm_id":5179236564,"osm_tipo":"node","tipo_lugar":"neighbourhood"},"geometry":{"type":"Point","coordinates":[-45.4419009,-22.916099]}},{"type":"Feature","properties":{"nome":"Residencial Ilha I","osm_id":5179236565,"osm_tipo":"node","tipo_lugar":"neighbourhood"},"geometry":{"type":"Point","coordinates":[-45.4433281,-22.9189834]}},{"type":"Feature","properties":{"nome":"Vila Dona Anna Goffi","osm_id":5179236566,"osm_tipo":"node","tipo_lugar":"neighbourhood"},"geometry":{"type":"Point","coordinates":[-45.4466445,-22.9185673]}},{"type":"Feature","properties":{"nome":"Jardim Maria Emilia","osm_id":5179236567,"osm_tipo":"node","tipo_lugar":"neighbourhood"},"geometry":{"type":"Point","coordinates":[-45.4458642,-22.9162409]}},{"type":"Feature","properties":{"nome":"Residencial Santa Clara","osm_id":5179236568,"osm_tipo":"node","tipo_lugar":"neighbourhood"},"geometry":{"type":"Point","coordinates":[-45.4507618,-22.9132713]}},{"type":"Feature","properties":{"nome":"Jardim Elvira Moreira","osm_id":5179236569,"osm_tipo":"node","tipo_lugar":"neighbourhood"},"geometry":{"type":"Point","coordinates":[-45.4485132,-22.9151155]}},{"type":"Feature","properties":{"nome":"Loteamento Crispim","osm_id":5179236570,"osm_tipo":"node","tipo_lugar":"neighbourhood"},"geometry":{"type":"Point","coordinates":[-45.4540577,-22.9180377]}},{"type":"Feature","properties":{"nome":"São Paulo","osm_id":5179236571,"osm_tipo":"node","tipo_lugar":"neighbourhood"},"geometry":{"type":"Point","coordinates":[-45.4547251,-22.9250074]}},{"type":"Feature","properties":{"nome":"Jardim Leunor","osm_id":5179236572,"osm_tipo":"node","tipo_lugar":"neighbourhood"},"geometry":{"type":"Point","coordinates":[-45.457025,-22.9247048]}},{"type":"Feature","properties":{"nome":"Jardim Irmãos Braga","osm_id":5179236573,"osm_tipo":"node","tipo_lugar":"neighbourhood"},"geometry":{"type":"Point","coordinates":[-45.4701161,-22.9247142]}},{"type":"Feature","properties":{"nome":"Jardim Boa Vista","osm_id":5179236574,"osm_tipo":"node","tipo_lugar":"neighbourhood"},"geometry":{"type":"Point","coordinates":[-45.4688263,-22.9235737]}},{"type":"Feature","properties":{"nome":"Beira Rio","osm_id":5179236575,"osm_tipo":"node","tipo_lugar":"neighbourhood"},"geometry":{"type":"Point","coordinates":[-45.4702701,-22.9187375]}},{"type":"Feature","properties":{"nome":"Recanto Verde","osm_id":5179236576,"osm_tipo":"node","tipo_lugar":"neighbourhood"},"geometry":{"type":"Point","coordinates":[-45.4588526,-22.9170163]}},{"type":"Feature","properties":{"nome":"Vila Santa Clara","osm_id":5179236577,"osm_tipo":"node","tipo_lugar":"neighbourhood"},"geometry":{"type":"Point","coordinates":[-45.4603825,-22.918643]}},{"type":"Feature","properties":{"nome":"Jardim Princesa","osm_id":5179246261,"osm_tipo":"node","tipo_lugar":"neighbourhood"},"geometry":{"type":"Point","coordinates":[-45.4849218,-22.9583187]}},{"type":"Feature","properties":{"nome":"Cidade Jardim","osm_id":5179246262,"osm_tipo":"node","tipo_lugar":"neighbourhood"},"geometry":{"type":"Point","coordinates":[-45.4911748,-22.9564373]}},{"type":"Feature","properties":{"nome":"Resdiencial Arco Íris","osm_id":5179246263,"osm_tipo":"node","tipo_lugar":"neighbourhood"},"geometry":{"type":"Point","coordinates":[-45.5010534,-22.9536786]}},{"type":"Feature","properties":{"nome":"Jardim Araretama","osm_id":5179246265,"osm_tipo":"node","tipo_lugar":"neighbourhood"},"geometry":{"type":"Point","coordinates":[-45.5022842,-22.9477295]}},{"type":"Feature","properties":{"nome":"Residencial Nova Esperança","osm_id":5179246266,"osm_tipo":"node","tipo_lugar":"neighbourhood"},"geometry":{"type":"Point","coordinates":[-45.4979513,-22.9514926]}},{"type":"Feature","properties":{"nome":"Residencial Village Campos Elísios","osm_id":5179246267,"osm_tipo":"node","tipo_lugar":"neighbourhood"},"geometry":{"type":"Point","coordinates":[-45.4945939,-22.9530148]}},{"type":"Feature","properties":{"nome":"Real Ville II","osm_id":5179246269,"osm_tipo":"node","tipo_lugar":"neighbourhood"},"geometry":{"type":"Point","coordinates":[-45.4899529,-22.9471812]}},{"type":"Feature","properties":{"nome":"Real Ville","osm_id":5179246270,"osm_tipo":"node","tipo_lugar":"neighbourhood"},"geometry":{"type":"Point","coordinates":[-45.4871396,-22.9498758]}},{"type":"Feature","properties":{"nome":"Colonial Village","osm_id":5179246274,"osm_tipo":"node","tipo_lugar":"neighbourhood"},"geometry":{"type":"Point","coordinates":[-45.4718513,-22.958054]}},{"type":"Feature","properties":{"nome":"Parque Lago Azul","osm_id":5179246276,"osm_tipo":"node","tipo_lugar":"neighbourhood"},"geometry":{"type":"Point","coordinates":[-45.4811126,-22.9652201]}},{"type":"Feature","properties":{"nome":"Santa Rita II","osm_id":5179246277,"osm_tipo":"node","tipo_lugar":"neighbourhood"},"geometry":{"type":"Point","coordinates":[-45.4810099,-22.982576]}},{"type":"Feature","properties":{"nome":"Santa Rita","osm_id":5179246278,"osm_tipo":"node","tipo_lugar":"neighbourhood"},"geometry":{"type":"Point","coordinates":[-45.4759378,-22.9797592]}},{"type":"Feature","properties":{"nome":"João Bosco Nogueira","osm_id":5179246279,"osm_tipo":"node","tipo_lugar":"neighbourhood"},"geometry":{"type":"Point","coordinates":[-45.4695924,-22.9785114]}},{"type":"Feature","properties":{"nome":"Reserva dos Lagos","osm_id":5179246280,"osm_tipo":"node","tipo_lugar":"neighbourhood"},"geometry":{"type":"Point","coordinates":[-45.4605588,-22.9675379]}},{"type":"Feature","properties":{"nome":"Moema Ville","osm_id":5179246281,"osm_tipo":"node","tipo_lugar":"neighbourhood"},"geometry":{"type":"Point","coordinates":[-45.457641,-22.9624407]}},{"type":"Feature","properties":{"nome":"Vila Verde","osm_id":5179246282,"osm_tipo":"node","tipo_lugar":"neighbourhood"},"geometry":{"type":"Point","coordinates":[-45.4594071,-22.9583754]}},{"type":"Feature","properties":{"nome":"Parque das Nações","osm_id":5179246283,"osm_tipo":"node","tipo_lugar":"neighbourhood"},"geometry":{"type":"Point","coordinates":[-45.4607213,-22.9565413]}},{"type":"Feature","properties":{"nome":"Bela Vista B","osm_id":5179246284,"osm_tipo":"node","tipo_lugar":"neighbourhood"},"geometry":{"type":"Point","coordinates":[-45.4565013,-22.9553122]}},{"type":"Feature","properties":{"nome":"Bela Vista A","osm_id":5179246285,"osm_tipo":"node","tipo_lugar":"neighbourhood"},"geometry":{"type":"Point","coordinates":[-45.4598999,-22.95431]}},{"type":"Feature","properties":{"nome":"Parque das Nações","osm_id":5179246286,"osm_tipo":"node","tipo_lugar":"neighbourhood"},"geometry":{"type":"Point","coordinates":[-45.4646435,-22.9508875]}},{"type":"Feature","properties":{"nome":"Nossa Senhora do Perpétuo Socorro","osm_id":5179246287,"osm_tipo":"node","tipo_lugar":"neighbourhood"},"geometry":{"type":"Point","coordinates":[-45.4711018,-22.9486561]}},{"type":"Feature","properties":{"nome":"Vila Nehemia","osm_id":5179246288,"osm_tipo":"node","tipo_lugar":"neighbourhood"},"geometry":{"type":"Point","coordinates":[-45.4646537,-22.9489398]}},{"type":"Feature","properties":{"nome":"Vila Ariene","osm_id":5179246289,"osm_tipo":"node","tipo_lugar":"neighbourhood"},"geometry":{"type":"Point","coordinates":[-45.4628877,-22.9484576]}},{"type":"Feature","properties":{"nome":"Jardim Imperial","osm_id":5179246290,"osm_tipo":"node","tipo_lugar":"neighbourhood"},"geometry":{"type":"Point","coordinates":[-45.4597664,-22.9467935]}},{"type":"Feature","properties":{"nome":"Jardim Campo Alegre","osm_id":5179246291,"osm_tipo":"node","tipo_lugar":"neighbourhood"},"geometry":{"type":"Point","coordinates":[-45.4654238,-22.9468691]}},{"type":"Feature","properties":{"nome":"Loteamento Maria Aurea","osm_id":5179246293,"osm_tipo":"node","tipo_lugar":"neighbourhood"},"geometry":{"type":"Point","coordinates":[-45.4691099,-22.9421888]}},{"type":"Feature","properties":{"nome":"Sao Dimas","osm_id":5179246296,"osm_tipo":"node","tipo_lugar":"neighbourhood"},"geometry":{"type":"Point","coordinates":[-45.461132,-22.9435504]}},{"type":"Feature","properties":{"nome":"Residencial Ouro Verde","osm_id":5179246297,"osm_tipo":"node","tipo_lugar":"neighbourhood"},"geometry":{"type":"Point","coordinates":[-45.4598588,-22.9447323]}},{"type":"Feature","properties":{"nome":"Jardim Cristina","osm_id":5179246298,"osm_tipo":"node","tipo_lugar":"neighbourhood"},"geometry":{"type":"Point","coordinates":[-45.4569223,-22.9431911]}},{"type":"Feature","properties":{"nome":"Jardim Esperança","osm_id":5179246299,"osm_tipo":"node","tipo_lugar":"neighbourhood"},"geometry":{"type":"Point","coordinates":[-45.4591504,-22.9415931]}},{"type":"Feature","properties":{"nome":"Beija-Flor","osm_id":5179246300,"osm_tipo":"node","tipo_lugar":"neighbourhood"},"geometry":{"type":"Point","coordinates":[-45.4611525,-22.936194]}},{"type":"Feature","properties":{"nome":"Vila Santa Terezinha","osm_id":5179246301,"osm_tipo":"node","tipo_lugar":"neighbourhood"},"geometry":{"type":"Point","coordinates":[-45.4581955,-22.9395413]}},{"type":"Feature","properties":{"nome":"Vila Romana","osm_id":5179246302,"osm_tipo":"node","tipo_lugar":"neighbourhood"},"geometry":{"type":"Point","coordinates":[-45.4502689,-22.9414419]}},{"type":"Feature","properties":{"nome":"São Sebastião","osm_id":5179246303,"osm_tipo":"node","tipo_lugar":"neighbourhood"},"geometry":{"type":"Point","coordinates":[-45.4533697,-22.9402694]}},{"type":"Feature","properties":{"nome":"Vila Prado","osm_id":5179246304,"osm_tipo":"node","tipo_lugar":"neighbourhood"},"geometry":{"type":"Point","coordinates":[-45.4487391,-22.9393522]}},{"type":"Feature","properties":{"nome":"Vila Nossa Senhora das Graças","osm_id":5179246305,"osm_tipo":"node","tipo_lugar":"neighbourhood"},"geometry":{"type":"Point","coordinates":[-45.4517475,-22.9384539]}},{"type":"Feature","properties":{"nome":"Residencial Santa Tereza","osm_id":5179246306,"osm_tipo":"node","tipo_lugar":"neighbourhood"},"geometry":{"type":"Point","coordinates":[-45.4501149,-22.9368086]}},{"type":"Feature","properties":{"nome":"Fabrilar","osm_id":5179246307,"osm_tipo":"node","tipo_lugar":"neighbourhood"},"geometry":{"type":"Point","coordinates":[-45.4521171,-22.9359387]}},{"type":"Feature","properties":{"nome":"Jardim Angelina","osm_id":5179246308,"osm_tipo":"node","tipo_lugar":"neighbourhood"},"geometry":{"type":"Point","coordinates":[-45.4538523,-22.9361656]}},{"type":"Feature","properties":{"nome":"Jardim Rosely","osm_id":5179246309,"osm_tipo":"node","tipo_lugar":"neighbourhood"},"geometry":{"type":"Point","coordinates":[-45.4564603,-22.9359009]}},{"type":"Feature","properties":{"nome":"Jardim Paulista","osm_id":5179246310,"osm_tipo":"node","tipo_lugar":"neighbourhood"},"geometry":{"type":"Point","coordinates":[-45.4582673,-22.935882]}},{"type":"Feature","properties":{"nome":"Complexo Empresarial Nova Dutra","osm_id":5179254479,"osm_tipo":"node","tipo_lugar":"neighbourhood"},"geometry":{"type":"Point","coordinates":[-45.3681064,-22.9405408]}},{"type":"Feature","properties":{"nome":"Dom Bosco","osm_id":5179254480,"osm_tipo":"node","tipo_lugar":"neighbourhood"},"geometry":{"type":"Point","coordinates":[-45.3589547,-22.9193657]}},{"type":"Feature","properties":{"nome":"Industrial Jathay","osm_id":5179254481,"osm_tipo":"node","tipo_lugar":"neighbourhood"},"geometry":{"type":"Point","coordinates":[-45.3526569,-22.916826]}},{"type":"Feature","properties":{"nome":"Residencial Primavera","osm_id":5179254482,"osm_tipo":"node","tipo_lugar":"neighbourhood"},"geometry":{"type":"Point","coordinates":[-45.3778053,-22.8872261]}},{"type":"Feature","properties":{"nome":"Parque Burity","osm_id":5179254483,"osm_tipo":"node","tipo_lugar":"neighbourhood"},"geometry":{"type":"Point","coordinates":[-45.3937805,-22.9380905]}},{"type":"Feature","properties":{"nome":"Loteamento Recanto do Sol","osm_id":5179254485,"osm_tipo":"node","tipo_lugar":"neighbourhood"},"geometry":{"type":"Point","coordinates":[-45.4070306,-22.9886591]}},{"type":"Feature","properties":{"nome":"Pinhão do Borba","osm_id":7903660027,"osm_tipo":"node","tipo_lugar":"suburb"},"geometry":{"type":"Point","coordinates":[-45.4657142,-22.9860618]}},{"type":"Feature","properties":{"nome":"Residencial Pasin","osm_id":8011218084,"osm_tipo":"node","tipo_lugar":"suburb"},"geometry":{"type":"Point","coordinates":[-45.3730993,-22.8874935]}},{"type":"Feature","properties":{"nome":"Ribeirão Grande","osm_id":9007178194,"osm_tipo":"node","tipo_lugar":"suburb"},"geometry":{"type":"Point","coordinates":[-45.4801407,-22.8895398]}},{"type":"Feature","properties":{"nome":"Ribeirão Grande","osm_id":9007379919,"osm_tipo":"node","tipo_lugar":"suburb"},"geometry":{"type":"Point","coordinates":[-45.4516207,-22.7977383]}},{"type":"Feature","properties":{"nome":"Mandú","osm_id":9008798040,"osm_tipo":"node","tipo_lugar":"suburb"},"geometry":{"type":"Point","coordinates":[-45.5196501,-22.877185]}},{"type":"Feature","properties":{"nome":"Centro","osm_id":9248355610,"osm_tipo":"node","tipo_lugar":"suburb"},"geometry":{"type":"Point","coordinates":[-45.4632856,-22.9388861]}},{"type":"Feature","properties":{"nome":"Moreira César","osm_id":13524986413,"osm_tipo":"node","tipo_lugar":"suburb"},"geometry":{"type":"Point","coordinates":[-45.3638849,-22.9147507]}}]}