{"type":"FeatureCollection","features":[{"type":"Feature","properties":{"nome":"Tibiriçá do Paranapanema","osm_id":368262215,"osm_tipo":"node","tipo_lugar":"suburb"},"geometry":{"type":"Point","coordinates":[-49.3822142,-23.181919]}},{"type":"Feature","properties":{"nome":"Cágado","osm_id":4417176413,"osm_tipo":"node","tipo_lugar":"suburb"},"geometry":{"type":"Point","coordinates":[-49.5171181,-23.1805423]}},{"type":"Feature","properties":{"nome":"Residencial Parque Ecológico Monte Alegre do Paranapanema","osm_id":6216267191,"osm_tipo":"node","tipo_lugar":"suburb"},"geometry":{"type":"Point","coordinates":[-49.3449307,-23.205664]}},{"type":"Feature","properties":{"nome":"Residencial Portal Ecológico do Salto do Paranapanema","osm_id":11147269270,"osm_tipo":"node","tipo_lugar":"suburb"},"geometry":{"type":"Point","coordinates":[-49.3727048,-23.1658472]}},{"type":"Feature","properties":{"nome":"Enseada","osm_id":11147325312,"osm_tipo":"node","tipo_lugar":"suburb"},"geometry":{"type":"Point","coordinates":[-49.4451587,-23.1280073]}}]}