{"type":"FeatureCollection","features":[{"type":"Feature","properties":{"nome":"Santa Teresinha de Piracicaba","osm_id":368179791,"osm_tipo":"node","tipo_lugar":"suburb"},"geometry":{"type":"Point","coordinates":[-47.6831606,-22.6727104]}},{"type":"Feature","properties":{"nome":"Guamium","osm_id":368179792,"osm_tipo":"node","tipo_lugar":"neighbourhood"},"geometry":{"type":"Point","coordinates":[-47.6367457,-22.66697]}},{"type":"Feature","properties":{"nome":"Tupi","osm_id":368179797,"osm_tipo":"node","tipo_lugar":"suburb"},"geometry":{"type":"Point","coordinates":[-47.526927,-22.743252]}},{"type":"Feature","properties":{"nome":"Higienópolis","osm_id":6539520841,"osm_tipo":"node","tipo_lugar":"suburb"},"geometry":{"type":"Point","coordinates":[-47.6440345,-22.7394565]}},{"type":"Feature","properties":{"nome":"Paulicéia","osm_id":6539520842,"osm_tipo":"node","tipo_lugar":"suburb"},"geometry":{"type":"Point","coordinates":[-47.6478432,-22.7491928]}},{"type":"Feature","properties":{"nome":"Monte Líbano","osm_id":6539520843,"osm_tipo":"node","tipo_lugar":"suburb"},"geometry":{"type":"Point","coordinates":[-47.6537334,-22.7546543]}},{"type":"Feature","properties":{"nome":"Jardim Planalto","osm_id":6539520844,"osm_tipo":"node","tipo_lugar":"suburb"},"geometry":{"type":"Point","coordinates":[-47.6737426,-22.7451493]}},{"type":"Feature","properties":{"nome":"Jardim Itapuã","osm_id":6539520845,"osm_tipo":"node","tipo_lugar":"suburb"},"geometry":{"type":"Point","coordinates":[-47.6625578,-22.7535511]}},{"type":"Feature","properties":{"nome":"Vila Cristina","osm_id":6539520846,"osm_tipo":"node","tipo_lugar":"suburb"},"geometry":{"type":"Point","coordinates":[-47.6632391,-22.7457792]}},{"type":"Feature","properties":{"nome":"Jaraguá","osm_id":6539520847,"osm_tipo":"node","tipo_lugar":"suburb"},"geometry":{"type":"Point","coordinates":[-47.6663365,-22.7361026]}},{"type":"Feature","properties":{"nome":"Castelinho","osm_id":6539520848,"osm_tipo":"node","tipo_lugar":"suburb"},"geometry":{"type":"Point","coordinates":[-47.6679062,-22.7316096]}},{"type":"Feature","properties":{"nome":"Jupiá","osm_id":6539520849,"osm_tipo":"node","tipo_lugar":"suburb"},"geometry":{"type":"Point","coordinates":[-47.6851596,-22.7127965]}},{"type":"Feature","properties":{"nome":"Ondinhas","osm_id":6539520850,"osm_tipo":"node","tipo_lugar":"neighbourhood"},"geometry":{"type":"Point","coordinates":[-47.6965307,-22.6991189]}},{"type":"Feature","properties":{"nome":"Ondas","osm_id":6539520851,"osm_tipo":"node","tipo_lugar":"suburb"},"geometry":{"type":"Point","coordinates":[-47.6780342,-22.7001483]}},{"type":"Feature","properties":{"nome":"Mário Dedini","osm_id":6539532440,"osm_tipo":"node","tipo_lugar":"suburb"},"geometry":{"type":"Point","coordinates":[-47.6591944,-22.6725506]}},{"type":"Feature","properties":{"nome":"Areião","osm_id":6539532441,"osm_tipo":"node","tipo_lugar":"suburb"},"geometry":{"type":"Point","coordinates":[-47.646706,-22.6975749]}},{"type":"Feature","properties":{"nome":"Jardim Primavera","osm_id":6539532442,"osm_tipo":"node","tipo_lugar":"neighbourhood"},"geometry":{"type":"Point","coordinates":[-47.6551543,-22.6951968]}},{"type":"Feature","properties":{"nome":"Vila Fátima","osm_id":6539532443,"osm_tipo":"node","tipo_lugar":"neighbourhood"},"geometry":{"type":"Point","coordinates":[-47.6599883,-22.6899533]}},{"type":"Feature","properties":{"nome":"Algodoal","osm_id":6539532444,"osm_tipo":"node","tipo_lugar":"neighbourhood"},"geometry":{"type":"Point","coordinates":[-47.6672195,-22.695041]}},{"type":"Feature","properties":{"nome":"Nhô Quim","osm_id":6539532445,"osm_tipo":"node","tipo_lugar":"neighbourhood"},"geometry":{"type":"Point","coordinates":[-47.6637219,-22.7038104]}},{"type":"Feature","properties":{"nome":"Monumento","osm_id":6539532446,"osm_tipo":"node","tipo_lugar":"neighbourhood"},"geometry":{"type":"Point","coordinates":[-47.6676165,-22.7096399]}},{"type":"Feature","properties":{"nome":"Vila Rezende","osm_id":6539532447,"osm_tipo":"node","tipo_lugar":"suburb"},"geometry":{"type":"Point","coordinates":[-47.6580571,-22.709828]}},{"type":"Feature","properties":{"nome":"Nova Piracicaba","osm_id":6539532448,"osm_tipo":"node","tipo_lugar":"suburb"},"geometry":{"type":"Point","coordinates":[-47.6667689,-22.7172951]}},{"type":"Feature","properties":{"nome":"Paulista","osm_id":6539544591,"osm_tipo":"node","tipo_lugar":"suburb"},"geometry":{"type":"Point","coordinates":[-47.6572739,-22.7377645]}},{"type":"Feature","properties":{"nome":"Clube de Campo","osm_id":6539544592,"osm_tipo":"node","tipo_lugar":"neighbourhood"},"geometry":{"type":"Point","coordinates":[-47.6480599,-22.7099739]}},{"type":"Feature","properties":{"nome":"Vila Independência","osm_id":6539544593,"osm_tipo":"node","tipo_lugar":"suburb"},"geometry":{"type":"Point","coordinates":[-47.6292609,-22.7200908]}},{"type":"Feature","properties":{"nome":"Vila Monteiro","osm_id":6539544594,"osm_tipo":"node","tipo_lugar":"suburb"},"geometry":{"type":"Point","coordinates":[-47.6315676,-22.7306201]}},{"type":"Feature","properties":{"nome":"São Dimas","osm_id":6539544595,"osm_tipo":"node","tipo_lugar":"suburb"},"geometry":{"type":"Point","coordinates":[-47.6424252,-22.7126387]}},{"type":"Feature","properties":{"nome":"São Judas","osm_id":6539544596,"osm_tipo":"node","tipo_lugar":"suburb"},"geometry":{"type":"Point","coordinates":[-47.6356311,-22.7182963]}},{"type":"Feature","properties":{"nome":"Cidade Jardim","osm_id":6539544597,"osm_tipo":"node","tipo_lugar":"suburb"},"geometry":{"type":"Point","coordinates":[-47.6426022,-22.7185124]}},{"type":"Feature","properties":{"nome":"Cidade Alta","osm_id":6539544598,"osm_tipo":"node","tipo_lugar":"suburb"},"geometry":{"type":"Point","coordinates":[-47.6419853,-22.7293238]}},{"type":"Feature","properties":{"nome":"Centro","osm_id":6539544599,"osm_tipo":"node","tipo_lugar":"suburb"},"geometry":{"type":"Point","coordinates":[-47.649997,-22.7265208]}},{"type":"Feature","properties":{"nome":"Novo Horizonte","osm_id":6539578615,"osm_tipo":"node","tipo_lugar":"suburb"},"geometry":{"type":"Point","coordinates":[-47.6778623,-22.7578611]}},{"type":"Feature","properties":{"nome":"Campestre","osm_id":6539578616,"osm_tipo":"node","tipo_lugar":"suburb"},"geometry":{"type":"Point","coordinates":[-47.6610397,-22.7671199]}},{"type":"Feature","properties":{"nome":"Jardim Califórnia","osm_id":6539578617,"osm_tipo":"node","tipo_lugar":"neighbourhood"},"geometry":{"type":"Point","coordinates":[-47.6428093,-22.7663522]}},{"type":"Feature","properties":{"nome":"Água Branca","osm_id":6539578618,"osm_tipo":"node","tipo_lugar":"neighbourhood"},"geometry":{"type":"Point","coordinates":[-47.6245617,-22.7605113]}},{"type":"Feature","properties":{"nome":"Jardim Caxambu","osm_id":6539578619,"osm_tipo":"node","tipo_lugar":"suburb"},"geometry":{"type":"Point","coordinates":[-47.6346038,-22.7503801]}},{"type":"Feature","properties":{"nome":"Jardim Elite","osm_id":6539578621,"osm_tipo":"node","tipo_lugar":"suburb"},"geometry":{"type":"Point","coordinates":[-47.6396893,-22.7406538]}},{"type":"Feature","properties":{"nome":"Piracicamirim","osm_id":6539578623,"osm_tipo":"node","tipo_lugar":"suburb"},"geometry":{"type":"Point","coordinates":[-47.6252805,-22.7421677]}},{"type":"Feature","properties":{"nome":"Jardim Abaeté","osm_id":6539578624,"osm_tipo":"node","tipo_lugar":"suburb"},"geometry":{"type":"Point","coordinates":[-47.607653,-22.7270279]}},{"type":"Feature","properties":{"nome":"Morumbi","osm_id":6539578625,"osm_tipo":"node","tipo_lugar":"suburb"},"geometry":{"type":"Point","coordinates":[-47.6240674,-22.7360533]}},{"type":"Feature","properties":{"nome":"Santa Cecília","osm_id":6539578626,"osm_tipo":"node","tipo_lugar":"suburb"},"geometry":{"type":"Point","coordinates":[-47.6193689,-22.7241581]}},{"type":"Feature","properties":{"nome":"Taquaral","osm_id":6539584539,"osm_tipo":"node","tipo_lugar":"neighbourhood"},"geometry":{"type":"Point","coordinates":[-47.6014478,-22.7767376]}},{"type":"Feature","properties":{"nome":"Conceição","osm_id":6539584540,"osm_tipo":"node","tipo_lugar":"suburb"},"geometry":{"type":"Point","coordinates":[-47.5729466,-22.7451559]}},{"type":"Feature","properties":{"nome":"Água Santa","osm_id":6539584541,"osm_tipo":"node","tipo_lugar":"suburb"},"geometry":{"type":"Point","coordinates":[-47.5954557,-22.6877557]}},{"type":"Feature","properties":{"nome":"Capim Fino","osm_id":6539584542,"osm_tipo":"node","tipo_lugar":"neighbourhood"},"geometry":{"type":"Point","coordinates":[-47.6094246,-22.667561]}},{"type":"Feature","properties":{"nome":"Santa Rosa","osm_id":6539584543,"osm_tipo":"node","tipo_lugar":"neighbourhood"},"geometry":{"type":"Point","coordinates":[-47.6235278,-22.6842588]}},{"type":"Feature","properties":{"nome":"Monte Alegre","osm_id":6539584545,"osm_tipo":"node","tipo_lugar":"neighbourhood"},"geometry":{"type":"Point","coordinates":[-47.58748,-22.7020787]}},{"type":"Feature","properties":{"nome":"Dois Córregos","osm_id":6539584547,"osm_tipo":"node","tipo_lugar":"suburb"},"geometry":{"type":"Point","coordinates":[-47.6006699,-22.7444435]}},{"type":"Feature","properties":{"nome":"Santa Rita","osm_id":6539584548,"osm_tipo":"node","tipo_lugar":"suburb"},"geometry":{"type":"Point","coordinates":[-47.5894475,-22.7561087]}},{"type":"Feature","properties":{"nome":"Pompéia","osm_id":6539584549,"osm_tipo":"node","tipo_lugar":"neighbourhood"},"geometry":{"type":"Point","coordinates":[-47.6040816,-22.7618667]}},{"type":"Feature","properties":{"nome":"Cecap","osm_id":6539593408,"osm_tipo":"node","tipo_lugar":"neighbourhood"},"geometry":{"type":"Point","coordinates":[-47.59758,-22.7717992]}},{"type":"Feature","properties":{"nome":"Água das Pedras","osm_id":6539593409,"osm_tipo":"node","tipo_lugar":"suburb"},"geometry":{"type":"Point","coordinates":[-47.6798916,-22.7795052]}},{"type":"Feature","properties":{"nome":"Chicó","osm_id":6539593410,"osm_tipo":"node","tipo_lugar":"suburb"},"geometry":{"type":"Point","coordinates":[-47.6442719,-22.7845699]}},{"type":"Feature","properties":{"nome":"Vila Sônia","osm_id":6539619899,"osm_tipo":"node","tipo_lugar":"neighbourhood"},"geometry":{"type":"Point","coordinates":[-47.7007056,-22.6658186]}},{"type":"Feature","properties":{"nome":"Vale do Sol","osm_id":6539619901,"osm_tipo":"node","tipo_lugar":"neighbourhood"},"geometry":{"type":"Point","coordinates":[-47.7124214,-22.6870233]}},{"type":"Feature","properties":{"nome":"Vila Industrial","osm_id":6539619902,"osm_tipo":"node","tipo_lugar":"suburb"},"geometry":{"type":"Point","coordinates":[-47.6689696,-22.6830835]}},{"type":"Feature","properties":{"nome":"São Jorge","osm_id":6539652142,"osm_tipo":"node","tipo_lugar":"suburb"},"geometry":{"type":"Point","coordinates":[-47.6902157,-22.7476894]}},{"type":"Feature","properties":{"nome":"Morato","osm_id":6539652143,"osm_tipo":"node","tipo_lugar":"suburb"},"geometry":{"type":"Point","coordinates":[-47.6767695,-22.7298977]}},{"type":"Feature","properties":{"nome":"Glebas Califórnia","osm_id":6539652144,"osm_tipo":"node","tipo_lugar":"neighbourhood"},"geometry":{"type":"Point","coordinates":[-47.6833141,-22.7200414]}},{"type":"Feature","properties":{"nome":"Colinas do Piracicaba","osm_id":6539669858,"osm_tipo":"node","tipo_lugar":"suburb"},"geometry":{"type":"Point","coordinates":[-47.7878709,-22.6646583]}},{"type":"Feature","properties":{"nome":"Estância Lagoa Azul","osm_id":6539669859,"osm_tipo":"node","tipo_lugar":"suburb"},"geometry":{"type":"Point","coordinates":[-47.7761507,-22.6646306]}},{"type":"Feature","properties":{"nome":"Jardim Itaiçaba","osm_id":6539669860,"osm_tipo":"node","tipo_lugar":"suburb"},"geometry":{"type":"Point","coordinates":[-47.775904,-22.6886467]}},{"type":"Feature","properties":{"nome":"Parque da Rua do Porto","osm_id":6539674231,"osm_tipo":"node","tipo_lugar":"suburb"},"geometry":{"type":"Point","coordinates":[-47.6589489,-22.7261126]}},{"type":"Feature","properties":{"nome":"Residencial Vivenda do Sol","osm_id":9177301138,"osm_tipo":"node","tipo_lugar":"suburb"},"geometry":{"type":"Point","coordinates":[-47.5877405,-22.8014405]}},{"type":"Feature","properties":{"nome":"Jardim Tomazella","osm_id":10779743994,"osm_tipo":"node","tipo_lugar":"suburb"},"geometry":{"type":"Point","coordinates":[-47.6349834,-22.7571671]}},{"type":"Feature","properties":{"nome":"Agronomia","osm_id":11024111402,"osm_tipo":"node","tipo_lugar":"suburb"},"geometry":{"type":"Point","coordinates":[-47.6265333,-22.7019999]}},{"type":"Feature","properties":{"nome":"Nova América","osm_id":11028171492,"osm_tipo":"node","tipo_lugar":"suburb"},"geometry":{"type":"Point","coordinates":[-47.6332937,-22.7403926]}},{"type":"Feature","properties":{"nome":"Parque São Jorge","osm_id":12451574099,"osm_tipo":"node","tipo_lugar":"suburb"},"geometry":{"type":"Point","coordinates":[-47.6259338,-22.6668707]}},{"type":"Feature","properties":{"nome":"Jardim Nova Iguaçu","osm_id":12457429825,"osm_tipo":"node","tipo_lugar":"suburb"},"geometry":{"type":"Point","coordinates":[-47.5985395,-22.7390355]}},{"type":"Feature","properties":{"nome":"Residencial Alto da Boa Vista","osm_id":12467996051,"osm_tipo":"node","tipo_lugar":"suburb"},"geometry":{"type":"Point","coordinates":[-47.7098862,-22.6846973]}},{"type":"Feature","properties":{"nome":"Residencial Campos do Conde","osm_id":12474406960,"osm_tipo":"node","tipo_lugar":"suburb"},"geometry":{"type":"Point","coordinates":[-47.6038804,-22.7763913]}},{"type":"Feature","properties":{"nome":"Residencial Eldorado","osm_id":12474406961,"osm_tipo":"node","tipo_lugar":"suburb"},"geometry":{"type":"Point","coordinates":[-47.5978882,-22.7741284]}},{"type":"Feature","properties":{"nome":"Recantos dos Pássaros","osm_id":12476174270,"osm_tipo":"node","tipo_lugar":"suburb"},"geometry":{"type":"Point","coordinates":[-47.7227528,-22.6983679]}},{"type":"Feature","properties":{"nome":"Condominio Residencial Parque Damha II","osm_id":12476414313,"osm_tipo":"node","tipo_lugar":"suburb"},"geometry":{"type":"Point","coordinates":[-47.6823131,-22.7067319]}},{"type":"Feature","properties":{"nome":"Parque Residencial Parque Damha I","osm_id":12476414314,"osm_tipo":"node","tipo_lugar":"suburb"},"geometry":{"type":"Point","coordinates":[-47.6796182,-22.7037147]}},{"type":"Feature","properties":{"nome":"Condominio Ondas do Piracicaba","osm_id":12476513245,"osm_tipo":"node","tipo_lugar":"suburb"},"geometry":{"type":"Point","coordinates":[-47.6799179,-22.6968517]}},{"type":"Feature","properties":{"nome":"Residencial Canadá","osm_id":12477005707,"osm_tipo":"node","tipo_lugar":"suburb"},"geometry":{"type":"Point","coordinates":[-47.68231,-22.695265]}},{"type":"Feature","properties":{"nome":"Bosques de Piracicaba","osm_id":12477040032,"osm_tipo":"node","tipo_lugar":"suburb"},"geometry":{"type":"Point","coordinates":[-47.6873774,-22.6945901]}},{"type":"Feature","properties":{"nome":"Residencial Vitória Régia","osm_id":12477100453,"osm_tipo":"node","tipo_lugar":"suburb"},"geometry":{"type":"Point","coordinates":[-47.6918986,-22.6950679]}},{"type":"Feature","properties":{"nome":"Jardim Parque Jupiá","osm_id":12479344264,"osm_tipo":"node","tipo_lugar":"suburb"},"geometry":{"type":"Point","coordinates":[-47.6818514,-22.7119807]}},{"type":"Feature","properties":{"nome":"ComViva 2","osm_id":12485199207,"osm_tipo":"node","tipo_lugar":"suburb"},"geometry":{"type":"Point","coordinates":[-47.7156361,-22.6924891]}},{"type":"Feature","properties":{"nome":"ComViva I","osm_id":12485199209,"osm_tipo":"node","tipo_lugar":"suburb"},"geometry":{"type":"Point","coordinates":[-47.7164378,-22.6850802]}},{"type":"Feature","properties":{"nome":"Jardim Gilda","osm_id":12534683747,"osm_tipo":"node","tipo_lugar":"suburb"},"geometry":{"type":"Point","coordinates":[-47.6558955,-22.6641505]}},{"type":"Feature","properties":{"nome":"Jardim Maria","osm_id":12545542558,"osm_tipo":"node","tipo_lugar":"suburb"},"geometry":{"type":"Point","coordinates":[-47.6932092,-22.6810535]}},{"type":"Feature","properties":{"nome":"Parque Monte Rey","osm_id":12706039225,"osm_tipo":"node","tipo_lugar":"suburb"},"geometry":{"type":"Point","coordinates":[-47.701773,-22.6761781]}},{"type":"Feature","properties":{"nome":"Jardim São Francisco","osm_id":12748811267,"osm_tipo":"node","tipo_lugar":"suburb"},"geometry":{"type":"Point","coordinates":[-47.5878437,-22.7721062]}},{"type":"Feature","properties":{"nome":"Taquaral","osm_id":12748811268,"osm_tipo":"node","tipo_lugar":"suburb"},"geometry":{"type":"Point","coordinates":[-47.5906972,-22.7735352]}},{"type":"Feature","properties":{"nome":"Jardim Algodoal 5ª P.","osm_id":12755564438,"osm_tipo":"node","tipo_lugar":"suburb"},"geometry":{"type":"Point","coordinates":[-47.6669321,-22.6968294]}},{"type":"Feature","properties":{"nome":"Jardim Monte Feliz","osm_id":12952375265,"osm_tipo":"node","tipo_lugar":"suburb"},"geometry":{"type":"Point","coordinates":[-47.6332624,-22.7741297]}},{"type":"Feature","properties":{"nome":"Chácara Água Branca","osm_id":12952375266,"osm_tipo":"node","tipo_lugar":"suburb"},"geometry":{"type":"Point","coordinates":[-47.6355455,-22.7795664]}},{"type":"Feature","properties":{"nome":"Parque Continental","osm_id":12952375267,"osm_tipo":"node","tipo_lugar":"suburb"},"geometry":{"type":"Point","coordinates":[-47.6525485,-22.7919506]}},{"type":"Feature","properties":{"nome":"Residencial Água Branca II","osm_id":12952375268,"osm_tipo":"node","tipo_lugar":"suburb"},"geometry":{"type":"Point","coordinates":[-47.6290652,-22.7708374]}},{"type":"Feature","properties":{"nome":"Residencial Água Branca I","osm_id":12952385590,"osm_tipo":"node","tipo_lugar":"suburb"},"geometry":{"type":"Point","coordinates":[-47.6276594,-22.770438]}},{"type":"Feature","properties":{"nome":"Jardim Oriente","osm_id":12952396338,"osm_tipo":"node","tipo_lugar":"suburb"},"geometry":{"type":"Point","coordinates":[-47.6260318,-22.7696996]}},{"type":"Feature","properties":{"nome":"Jardim Itaberá","osm_id":12952412232,"osm_tipo":"node","tipo_lugar":"suburb"},"geometry":{"type":"Point","coordinates":[-47.6135692,-22.7626892]}},{"type":"Feature","properties":{"nome":"Parque Serra Verde","osm_id":12952412233,"osm_tipo":"node","tipo_lugar":"suburb"},"geometry":{"type":"Point","coordinates":[-47.6227645,-22.764827]}},{"type":"Feature","properties":{"nome":"Central Comercial Agrícola Taquaral","osm_id":12953999091,"osm_tipo":"node","tipo_lugar":"suburb"},"geometry":{"type":"Point","coordinates":[-47.6171681,-22.7954426]}},{"type":"Feature","properties":{"nome":"UNIMEP","osm_id":12954066226,"osm_tipo":"node","tipo_lugar":"suburb"},"geometry":{"type":"Point","coordinates":[-47.5950805,-22.7843872]}},{"type":"Feature","properties":{"nome":"Quebra Dente","osm_id":12954160330,"osm_tipo":"node","tipo_lugar":"neighbourhood"},"geometry":{"type":"Point","coordinates":[-47.5154885,-22.7525977]}},{"type":"Feature","properties":{"nome":"Parque Peória","osm_id":12954224074,"osm_tipo":"node","tipo_lugar":"suburb"},"geometry":{"type":"Point","coordinates":[-47.5202158,-22.7439366]}},{"type":"Feature","properties":{"nome":"Quebra Dente","osm_id":12959408487,"osm_tipo":"node","tipo_lugar":"neighbourhood"},"geometry":{"type":"Point","coordinates":[-47.505402,-22.754558]}},{"type":"Feature","properties":{"nome":"Chácaras Ipê","osm_id":12959467684,"osm_tipo":"node","tipo_lugar":"suburb"},"geometry":{"type":"Point","coordinates":[-47.5743742,-22.7405309]}},{"type":"Feature","properties":{"nome":"Santa Rita Avencas","osm_id":12959514591,"osm_tipo":"node","tipo_lugar":"suburb"},"geometry":{"type":"Point","coordinates":[-47.5809187,-22.7574828]}},{"type":"Feature","properties":{"nome":"Residencial Florinda","osm_id":12959519345,"osm_tipo":"node","tipo_lugar":"suburb"},"geometry":{"type":"Point","coordinates":[-47.5915532,-22.7450523]}},{"type":"Feature","properties":{"nome":"Chácara Primavera","osm_id":12959519351,"osm_tipo":"node","tipo_lugar":"suburb"},"geometry":{"type":"Point","coordinates":[-47.5943476,-22.7401464]}},{"type":"Feature","properties":{"nome":"Desmembramento Caio Paes de Barros","osm_id":12959519355,"osm_tipo":"node","tipo_lugar":"suburb"},"geometry":{"type":"Point","coordinates":[-47.5931871,-22.7405117]}},{"type":"Feature","properties":{"nome":"Jardim Residencial Altafin","osm_id":12959550401,"osm_tipo":"node","tipo_lugar":"suburb"},"geometry":{"type":"Point","coordinates":[-47.5976771,-22.7461403]}},{"type":"Feature","properties":{"nome":"Terras di Treviso","osm_id":12959633402,"osm_tipo":"node","tipo_lugar":"suburb"},"geometry":{"type":"Point","coordinates":[-47.5845669,-22.7646379]}},{"type":"Feature","properties":{"nome":"Santa Rita Garças","osm_id":12959639820,"osm_tipo":"node","tipo_lugar":"suburb"},"geometry":{"type":"Point","coordinates":[-47.5878969,-22.766545]}},{"type":"Feature","properties":{"nome":"Santa Rita Perdizes","osm_id":12959647689,"osm_tipo":"node","tipo_lugar":"suburb"},"geometry":{"type":"Point","coordinates":[-47.5900472,-22.7671832]}},{"type":"Feature","properties":{"nome":"Santa Rita Colibris","osm_id":12959647690,"osm_tipo":"node","tipo_lugar":"suburb"},"geometry":{"type":"Point","coordinates":[-47.5861008,-22.7703043]}},{"type":"Feature","properties":{"nome":"Residencial Bellini","osm_id":12959659423,"osm_tipo":"node","tipo_lugar":"suburb"},"geometry":{"type":"Point","coordinates":[-47.5907967,-22.7713545]}},{"type":"Feature","properties":{"nome":"Residencial Altos do Taquaral","osm_id":12959673752,"osm_tipo":"node","tipo_lugar":"suburb"},"geometry":{"type":"Point","coordinates":[-47.6074657,-22.7692796]}},{"type":"Feature","properties":{"nome":"Parque CECAP II","osm_id":12959703603,"osm_tipo":"node","tipo_lugar":"suburb"},"geometry":{"type":"Point","coordinates":[-47.5985558,-22.7695182]}},{"type":"Feature","properties":{"nome":"Parque CECAP I","osm_id":12959703604,"osm_tipo":"node","tipo_lugar":"suburb"},"geometry":{"type":"Point","coordinates":[-47.5955201,-22.7715284]}},{"type":"Feature","properties":{"nome":"Residencial Itaporanga","osm_id":12959708654,"osm_tipo":"node","tipo_lugar":"suburb"},"geometry":{"type":"Point","coordinates":[-47.6072142,-22.7587183]}},{"type":"Feature","properties":{"nome":"Jardim Sol Nascente II","osm_id":12959728331,"osm_tipo":"node","tipo_lugar":"suburb"},"geometry":{"type":"Point","coordinates":[-47.6074738,-22.7639878]}},{"type":"Feature","properties":{"nome":"Jardim Sol Nascente I","osm_id":12959728340,"osm_tipo":"node","tipo_lugar":"suburb"},"geometry":{"type":"Point","coordinates":[-47.6095152,-22.7613186]}},{"type":"Feature","properties":{"nome":"Alvorada III","osm_id":12959735243,"osm_tipo":"node","tipo_lugar":"suburb"},"geometry":{"type":"Point","coordinates":[-47.6102831,-22.758632]}},{"type":"Feature","properties":{"nome":"Terra Rica I","osm_id":12961018200,"osm_tipo":"node","tipo_lugar":"suburb"},"geometry":{"type":"Point","coordinates":[-47.6019563,-22.7660411]}},{"type":"Feature","properties":{"nome":"Terra Rica III","osm_id":12961102642,"osm_tipo":"node","tipo_lugar":"suburb"},"geometry":{"type":"Point","coordinates":[-47.60232,-22.7684636]}},{"type":"Feature","properties":{"nome":"Terra Rica II","osm_id":12961102839,"osm_tipo":"node","tipo_lugar":"suburb"},"geometry":{"type":"Point","coordinates":[-47.6005208,-22.7649322]}},{"type":"Feature","properties":{"nome":"Conjunto Habitacional Eugênio Montebello","osm_id":12961114110,"osm_tipo":"node","tipo_lugar":"suburb"},"geometry":{"type":"Point","coordinates":[-47.5981226,-22.7657469]}},{"type":"Feature","properties":{"nome":"Residencial Bela Vista","osm_id":12961117546,"osm_tipo":"node","tipo_lugar":"suburb"},"geometry":{"type":"Point","coordinates":[-47.6241657,-22.7632835]}},{"type":"Feature","properties":{"nome":"Alvorada II","osm_id":12961123850,"osm_tipo":"node","tipo_lugar":"suburb"},"geometry":{"type":"Point","coordinates":[-47.6119087,-22.7585171]}},{"type":"Feature","properties":{"nome":"Conjunto Habitacional Alvorada I","osm_id":12961135431,"osm_tipo":"node","tipo_lugar":"suburb"},"geometry":{"type":"Point","coordinates":[-47.6154381,-22.7591837]}},{"type":"Feature","properties":{"nome":"Residencial São Luiz","osm_id":12961149470,"osm_tipo":"node","tipo_lugar":"suburb"},"geometry":{"type":"Point","coordinates":[-47.6309673,-22.7596698]}},{"type":"Feature","properties":{"nome":"Terra Nova","osm_id":12961159433,"osm_tipo":"node","tipo_lugar":"suburb"},"geometry":{"type":"Point","coordinates":[-47.6299093,-22.7522517]}},{"type":"Feature","properties":{"nome":"Residencial Formaggio","osm_id":12961159435,"osm_tipo":"node","tipo_lugar":"suburb"},"geometry":{"type":"Point","coordinates":[-47.6312288,-22.7546517]}},{"type":"Feature","properties":{"nome":"Parque Residencial Primeiro de Maio","osm_id":12961171404,"osm_tipo":"node","tipo_lugar":"suburb"},"geometry":{"type":"Point","coordinates":[-47.6274305,-22.7556448]}},{"type":"Feature","properties":{"nome":"Jardim Astúrias I","osm_id":12961172338,"osm_tipo":"node","tipo_lugar":"suburb"},"geometry":{"type":"Point","coordinates":[-47.6267046,-22.7581909]}},{"type":"Feature","properties":{"nome":"Jardim Astúrias II","osm_id":12961189042,"osm_tipo":"node","tipo_lugar":"suburb"},"geometry":{"type":"Point","coordinates":[-47.6251178,-22.7589577]}},{"type":"Feature","properties":{"nome":"Residencial Nova Água Branca II","osm_id":12961199243,"osm_tipo":"node","tipo_lugar":"suburb"},"geometry":{"type":"Point","coordinates":[-47.6239481,-22.7606456]}},{"type":"Feature","properties":{"nome":"Residencial Parque Água Branca","osm_id":12961202000,"osm_tipo":"node","tipo_lugar":"suburb"},"geometry":{"type":"Point","coordinates":[-47.6320684,-22.7678504]}},{"type":"Feature","properties":{"nome":"Jardim Astúrias III","osm_id":12961202002,"osm_tipo":"node","tipo_lugar":"suburb"},"geometry":{"type":"Point","coordinates":[-47.6252775,-22.7543986]}},{"type":"Feature","properties":{"nome":"Desmembramento Nova Água Branca","osm_id":12961206900,"osm_tipo":"node","tipo_lugar":"suburb"},"geometry":{"type":"Point","coordinates":[-47.6231257,-22.7582184]}},{"type":"Feature","properties":{"nome":"Residencial Vila Real","osm_id":12961362956,"osm_tipo":"node","tipo_lugar":"suburb"},"geometry":{"type":"Point","coordinates":[-47.6435534,-22.7688574]}},{"type":"Feature","properties":{"nome":"Jardim dos Ipês","osm_id":12961362965,"osm_tipo":"node","tipo_lugar":"suburb"},"geometry":{"type":"Point","coordinates":[-47.6454986,-22.7701847]}},{"type":"Feature","properties":{"nome":"Jardim Colonial","osm_id":12961362967,"osm_tipo":"node","tipo_lugar":"suburb"},"geometry":{"type":"Point","coordinates":[-47.6449632,-22.768066]}},{"type":"Feature","properties":{"nome":"Residencial Mônaco","osm_id":12961423180,"osm_tipo":"node","tipo_lugar":"suburb"},"geometry":{"type":"Point","coordinates":[-47.6412332,-22.769057]}},{"type":"Feature","properties":{"nome":"Jardim Água Branca","osm_id":12961424049,"osm_tipo":"node","tipo_lugar":"suburb"},"geometry":{"type":"Point","coordinates":[-47.6339445,-22.7701611]}},{"type":"Feature","properties":{"nome":"Villagio Paulino Martini","osm_id":12961428951,"osm_tipo":"node","tipo_lugar":"suburb"},"geometry":{"type":"Point","coordinates":[-47.6435017,-22.7681665]}},{"type":"Feature","properties":{"nome":"CHIS - Altos da Água Branca","osm_id":12961459421,"osm_tipo":"node","tipo_lugar":"suburb"},"geometry":{"type":"Point","coordinates":[-47.6349811,-22.7683531]}},{"type":"Feature","properties":{"nome":"Residencial Mont Carlo","osm_id":12961464945,"osm_tipo":"node","tipo_lugar":"suburb"},"geometry":{"type":"Point","coordinates":[-47.6406263,-22.7669351]}},{"type":"Feature","properties":{"nome":"Pacaembu","osm_id":12961522787,"osm_tipo":"node","tipo_lugar":"suburb"},"geometry":{"type":"Point","coordinates":[-47.6424721,-22.7551978]}},{"type":"Feature","properties":{"nome":"Residencial Portal da Água Branca","osm_id":12961531840,"osm_tipo":"node","tipo_lugar":"suburb"},"geometry":{"type":"Point","coordinates":[-47.6353624,-22.7609735]}},{"type":"Feature","properties":{"nome":"Vila Paulicéia","osm_id":12961533971,"osm_tipo":"node","tipo_lugar":"suburb"},"geometry":{"type":"Point","coordinates":[-47.6450844,-22.7543012]}},{"type":"Feature","properties":{"nome":"Jardim Brasil","osm_id":12961550059,"osm_tipo":"node","tipo_lugar":"suburb"},"geometry":{"type":"Point","coordinates":[-47.6420265,-22.758033]}},{"type":"Feature","properties":{"nome":"Jardim Paulicéia","osm_id":12961570384,"osm_tipo":"node","tipo_lugar":"suburb"},"geometry":{"type":"Point","coordinates":[-47.6431237,-22.7531758]}},{"type":"Feature","properties":{"nome":"Vila Pauliceia","osm_id":12961588926,"osm_tipo":"node","tipo_lugar":"suburb"},"geometry":{"type":"Point","coordinates":[-47.6446293,-22.7524749]}},{"type":"Feature","properties":{"nome":"Chácara Terra Nova","osm_id":12978719161,"osm_tipo":"node","tipo_lugar":"suburb"},"geometry":{"type":"Point","coordinates":[-47.7378825,-22.7543332]}},{"type":"Feature","properties":{"nome":"Brisa da Serra","osm_id":12978749732,"osm_tipo":"node","tipo_lugar":"suburb"},"geometry":{"type":"Point","coordinates":[-47.7199157,-22.7566215]}},{"type":"Feature","properties":{"nome":"Chácaras Santana","osm_id":12978761618,"osm_tipo":"node","tipo_lugar":"suburb"},"geometry":{"type":"Point","coordinates":[-47.7127634,-22.7519538]}},{"type":"Feature","properties":{"nome":"Residencial Morada do Engenho","osm_id":12978779961,"osm_tipo":"node","tipo_lugar":"suburb"},"geometry":{"type":"Point","coordinates":[-47.6847741,-22.7323163]}},{"type":"Feature","properties":{"nome":"Chácara Santa Joana","osm_id":12978779969,"osm_tipo":"node","tipo_lugar":"suburb"},"geometry":{"type":"Point","coordinates":[-47.6822906,-22.7261091]}},{"type":"Feature","properties":{"nome":"Recanto Nova Suíça","osm_id":12978782934,"osm_tipo":"node","tipo_lugar":"suburb"},"geometry":{"type":"Point","coordinates":[-47.7246419,-22.7471337]}},{"type":"Feature","properties":{"nome":"Residencial Reserva do Engenho","osm_id":12978783760,"osm_tipo":"node","tipo_lugar":"suburb"},"geometry":{"type":"Point","coordinates":[-47.6735544,-22.7379078]}},{"type":"Feature","properties":{"nome":"Chácara São João Batista","osm_id":12978789459,"osm_tipo":"node","tipo_lugar":"suburb"},"geometry":{"type":"Point","coordinates":[-47.6972025,-22.732046]}},{"type":"Feature","properties":{"nome":"Ipanema","osm_id":12978825163,"osm_tipo":"node","tipo_lugar":"suburb"},"geometry":{"type":"Point","coordinates":[-47.6709174,-22.7419203]}},{"type":"Feature","properties":{"nome":"Chácara Nazareth II","osm_id":12978826770,"osm_tipo":"node","tipo_lugar":"suburb"},"geometry":{"type":"Point","coordinates":[-47.6703441,-22.7372415]}},{"type":"Feature","properties":{"nome":"Jardim V. Maria","osm_id":12978851716,"osm_tipo":"node","tipo_lugar":"suburb"},"geometry":{"type":"Point","coordinates":[-47.675063,-22.7429773]}},{"type":"Feature","properties":{"nome":"Jardim Nova Suíça","osm_id":12978852327,"osm_tipo":"node","tipo_lugar":"suburb"},"geometry":{"type":"Point","coordinates":[-47.6761934,-22.7446247]}},{"type":"Feature","properties":{"nome":"Vem Viver Piracicaba II","osm_id":12978870428,"osm_tipo":"node","tipo_lugar":"suburb"},"geometry":{"type":"Point","coordinates":[-47.70693,-22.6633225]}},{"type":"Feature","properties":{"nome":"Vem Viver Piracicaba I","osm_id":12978870429,"osm_tipo":"node","tipo_lugar":"suburb"},"geometry":{"type":"Point","coordinates":[-47.7050947,-22.6654403]}},{"type":"Feature","properties":{"nome":"Jardim São Jorge","osm_id":12978893149,"osm_tipo":"node","tipo_lugar":"suburb"},"geometry":{"type":"Point","coordinates":[-47.6810685,-22.7466065]}},{"type":"Feature","properties":{"nome":"Residencial Terras de Ártemis","osm_id":12978948711,"osm_tipo":"node","tipo_lugar":"suburb"},"geometry":{"type":"Point","coordinates":[-47.7680341,-22.687778]}},{"type":"Feature","properties":{"nome":"Jardim Colina Verde","osm_id":12978959244,"osm_tipo":"node","tipo_lugar":"suburb"},"geometry":{"type":"Point","coordinates":[-47.6933646,-22.6614332]}},{"type":"Feature","properties":{"nome":"Recreio Pirapesca","osm_id":12978985803,"osm_tipo":"node","tipo_lugar":"suburb"},"geometry":{"type":"Point","coordinates":[-47.7750317,-22.6722637]}},{"type":"Feature","properties":{"nome":"Altos de São Francisco","osm_id":12978990396,"osm_tipo":"node","tipo_lugar":"suburb"},"geometry":{"type":"Point","coordinates":[-47.715606,-22.6737829]}},{"type":"Feature","properties":{"nome":"Residencial Parque Orlanda III","osm_id":12979006462,"osm_tipo":"node","tipo_lugar":"suburb"},"geometry":{"type":"Point","coordinates":[-47.6893857,-22.6618589]}},{"type":"Feature","properties":{"nome":"Jardim Residencial Javary II","osm_id":12979011837,"osm_tipo":"node","tipo_lugar":"suburb"},"geometry":{"type":"Point","coordinates":[-47.7066434,-22.670061]}},{"type":"Feature","properties":{"nome":"Park Monte Rey III","osm_id":12979011850,"osm_tipo":"node","tipo_lugar":"suburb"},"geometry":{"type":"Point","coordinates":[-47.7087973,-22.6715634]}},{"type":"Feature","properties":{"nome":"Residencial Parque Piracicaba","osm_id":12979017044,"osm_tipo":"node","tipo_lugar":"suburb"},"geometry":{"type":"Point","coordinates":[-47.7089631,-22.6773526]}},{"type":"Feature","properties":{"nome":"Jardim Residencial Javary III","osm_id":12979020417,"osm_tipo":"node","tipo_lugar":"suburb"},"geometry":{"type":"Point","coordinates":[-47.7112797,-22.6675691]}},{"type":"Feature","properties":{"nome":"Park Monte Rey II","osm_id":12980126145,"osm_tipo":"node","tipo_lugar":"suburb"},"geometry":{"type":"Point","coordinates":[-47.7052173,-22.6747299]}},{"type":"Feature","properties":{"nome":"Conquista","osm_id":12980132703,"osm_tipo":"node","tipo_lugar":"suburb"},"geometry":{"type":"Point","coordinates":[-47.7135173,-22.6876888]}},{"type":"Feature","properties":{"nome":"Vale do Sol","osm_id":12980137909,"osm_tipo":"node","tipo_lugar":"suburb"},"geometry":{"type":"Point","coordinates":[-47.7041596,-22.6862833]}},{"type":"Feature","properties":{"nome":"Parque São Matheus I","osm_id":12980143432,"osm_tipo":"node","tipo_lugar":"suburb"},"geometry":{"type":"Point","coordinates":[-47.6950076,-22.6843454]}},{"type":"Feature","properties":{"nome":"Parque das Águas","osm_id":12980143435,"osm_tipo":"node","tipo_lugar":"suburb"},"geometry":{"type":"Point","coordinates":[-47.692226,-22.685317]}},{"type":"Feature","properties":{"nome":"Jardim Pacaembu","osm_id":12980150900,"osm_tipo":"node","tipo_lugar":"suburb"},"geometry":{"type":"Point","coordinates":[-47.6956088,-22.6796468]}},{"type":"Feature","properties":{"nome":"Parque São Matheus II","osm_id":12980151147,"osm_tipo":"node","tipo_lugar":"suburb"},"geometry":{"type":"Point","coordinates":[-47.6972804,-22.6847849]}},{"type":"Feature","properties":{"nome":"Jardim Boa Esperança (Profilurb)","osm_id":12980193259,"osm_tipo":"node","tipo_lugar":"suburb"},"geometry":{"type":"Point","coordinates":[-47.7024905,-22.6734389]}},{"type":"Feature","properties":{"nome":"Jardim Campos Elíseos","osm_id":12980254763,"osm_tipo":"node","tipo_lugar":"suburb"},"geometry":{"type":"Point","coordinates":[-47.7012962,-22.6710078]}},{"type":"Feature","properties":{"nome":"Jardim São Luís","osm_id":12980254769,"osm_tipo":"node","tipo_lugar":"suburb"},"geometry":{"type":"Point","coordinates":[-47.6983675,-22.6692531]}},{"type":"Feature","properties":{"nome":"Jardim Residencial Javary","osm_id":12980257233,"osm_tipo":"node","tipo_lugar":"suburb"},"geometry":{"type":"Point","coordinates":[-47.6994151,-22.6729428]}},{"type":"Feature","properties":{"nome":"Chácara Espéria","osm_id":12982687739,"osm_tipo":"node","tipo_lugar":"suburb"},"geometry":{"type":"Point","coordinates":[-47.6844076,-22.7230639]}},{"type":"Feature","properties":{"nome":"Chácara Genebra","osm_id":12982730815,"osm_tipo":"node","tipo_lugar":"suburb"},"geometry":{"type":"Point","coordinates":[-47.6882412,-22.721908]}},{"type":"Feature","properties":{"nome":"Canaã","osm_id":12982749217,"osm_tipo":"node","tipo_lugar":"suburb"},"geometry":{"type":"Point","coordinates":[-47.708954,-22.7172677]}},{"type":"Feature","properties":{"nome":"Glebas Califórnia","osm_id":12983207041,"osm_tipo":"node","tipo_lugar":"suburb"},"geometry":{"type":"Point","coordinates":[-47.684938,-22.7186006]}},{"type":"Feature","properties":{"nome":"Glebas Nova Califórnia","osm_id":12983226423,"osm_tipo":"node","tipo_lugar":"suburb"},"geometry":{"type":"Point","coordinates":[-47.6792257,-22.7138536]}},{"type":"Feature","properties":{"nome":"Jardim Helena","osm_id":12983266743,"osm_tipo":"node","tipo_lugar":"suburb"},"geometry":{"type":"Point","coordinates":[-47.683683,-22.7150452]}},{"type":"Feature","properties":{"nome":"Residencial Jardim Parque Jupíá","osm_id":12983267163,"osm_tipo":"node","tipo_lugar":"suburb"},"geometry":{"type":"Point","coordinates":[-47.6844006,-22.7101443]}},{"type":"Feature","properties":{"nome":"Resdidencial Parque Santin","osm_id":12983272793,"osm_tipo":"node","tipo_lugar":"suburb"},"geometry":{"type":"Point","coordinates":[-47.6848745,-22.7143088]}},{"type":"Feature","properties":{"nome":"Reserva das Paineiras","osm_id":12983341584,"osm_tipo":"node","tipo_lugar":"suburb"},"geometry":{"type":"Point","coordinates":[-47.6859146,-22.6977868]}},{"type":"Feature","properties":{"nome":"Jardim Estoril","osm_id":12983417419,"osm_tipo":"node","tipo_lugar":"suburb"},"geometry":{"type":"Point","coordinates":[-47.7028771,-22.6949073]}},{"type":"Feature","properties":{"nome":"Residencial Monte Alegre","osm_id":12987703353,"osm_tipo":"node","tipo_lugar":"suburb"},"geometry":{"type":"Point","coordinates":[-47.5951786,-22.7073455]}},{"type":"Feature","properties":{"nome":"Alphaville Piracicaba","osm_id":12987709596,"osm_tipo":"node","tipo_lugar":"suburb"},"geometry":{"type":"Point","coordinates":[-47.6267907,-22.6881359]}},{"type":"Feature","properties":{"nome":"Residencial e Comercial Villa D'Áquila","osm_id":12987743631,"osm_tipo":"node","tipo_lugar":"suburb"},"geometry":{"type":"Point","coordinates":[-47.6236018,-22.6803185]}},{"type":"Feature","properties":{"nome":"Residencial Villa Bela Vista","osm_id":12987756608,"osm_tipo":"node","tipo_lugar":"suburb"},"geometry":{"type":"Point","coordinates":[-47.6160972,-22.6835765]}},{"type":"Feature","properties":{"nome":"Santa Emília","osm_id":12987759679,"osm_tipo":"node","tipo_lugar":"suburb"},"geometry":{"type":"Point","coordinates":[-47.6252165,-22.6755712]}},{"type":"Feature","properties":{"nome":"Santa Rosa Ipês","osm_id":12987759689,"osm_tipo":"node","tipo_lugar":"suburb"},"geometry":{"type":"Point","coordinates":[-47.6291558,-22.6769374]}},{"type":"Feature","properties":{"nome":"São Gabriel","osm_id":12987769285,"osm_tipo":"node","tipo_lugar":"suburb"},"geometry":{"type":"Point","coordinates":[-47.6270773,-22.6794548]}},{"type":"Feature","properties":{"nome":"Santa Rosa","osm_id":12987786709,"osm_tipo":"node","tipo_lugar":"suburb"},"geometry":{"type":"Point","coordinates":[-47.635687,-22.6855338]}},{"type":"Feature","properties":{"nome":"Bioagri","osm_id":12987807241,"osm_tipo":"node","tipo_lugar":"suburb"},"geometry":{"type":"Point","coordinates":[-47.604707,-22.6471643]}},{"type":"Feature","properties":{"nome":"Distrito Industrial Uninorte","osm_id":12987824479,"osm_tipo":"node","tipo_lugar":"suburb"},"geometry":{"type":"Point","coordinates":[-47.6048559,-22.6633202]}},{"type":"Feature","properties":{"nome":"Glebas Novo Recanto","osm_id":12987831053,"osm_tipo":"node","tipo_lugar":"suburb"},"geometry":{"type":"Point","coordinates":[-47.64864,-22.6600864]}},{"type":"Feature","properties":{"nome":"Parque Automotivo","osm_id":12987841675,"osm_tipo":"node","tipo_lugar":"suburb"},"geometry":{"type":"Point","coordinates":[-47.6121192,-22.6732147]}},{"type":"Feature","properties":{"nome":"Distrito Industrial Uninorte","osm_id":12987843838,"osm_tipo":"node","tipo_lugar":"neighbourhood"},"geometry":{"type":"Point","coordinates":[-47.5992458,-22.661127]}},{"type":"Feature","properties":{"nome":"Distrito Industrial Uninorte II","osm_id":12987843846,"osm_tipo":"node","tipo_lugar":"suburb"},"geometry":{"type":"Point","coordinates":[-47.5985094,-22.653158]}},{"type":"Feature","properties":{"nome":"Bosques do Lenheiro","osm_id":12987847139,"osm_tipo":"node","tipo_lugar":"suburb"},"geometry":{"type":"Point","coordinates":[-47.6605985,-22.6686972]}},{"type":"Feature","properties":{"nome":"Mário Dedini","osm_id":12987874184,"osm_tipo":"node","tipo_lugar":"suburb"},"geometry":{"type":"Point","coordinates":[-47.6590241,-22.6756738]}},{"type":"Feature","properties":{"nome":"Pircacicaba C","osm_id":12987874188,"osm_tipo":"node","tipo_lugar":"suburb"},"geometry":{"type":"Point","coordinates":[-47.6599191,-22.6808492]}},{"type":"Feature","properties":{"nome":"Jardim Monte Castelo","osm_id":12987940889,"osm_tipo":"node","tipo_lugar":"suburb"},"geometry":{"type":"Point","coordinates":[-47.6627242,-22.6898337]}},{"type":"Feature","properties":{"nome":"Jardim matilde","osm_id":12987940900,"osm_tipo":"node","tipo_lugar":"suburb"},"geometry":{"type":"Point","coordinates":[-47.6604695,-22.6920985]}},{"type":"Feature","properties":{"nome":"Jardim Diamante","osm_id":12987950496,"osm_tipo":"node","tipo_lugar":"suburb"},"geometry":{"type":"Point","coordinates":[-47.6611634,-22.688582]}},{"type":"Feature","properties":{"nome":"Nossa Senhora de Fátima","osm_id":12988000745,"osm_tipo":"node","tipo_lugar":"suburb"},"geometry":{"type":"Point","coordinates":[-47.6552697,-22.6877936]}},{"type":"Feature","properties":{"nome":"Nossa Senhora de Fátima","osm_id":12988000749,"osm_tipo":"node","tipo_lugar":"suburb"},"geometry":{"type":"Point","coordinates":[-47.6571347,-22.6911909]}},{"type":"Feature","properties":{"nome":"Desmembramento Irmãoes Coral","osm_id":12988000750,"osm_tipo":"node","tipo_lugar":"suburb"},"geometry":{"type":"Point","coordinates":[-47.6555688,-22.6897104]}},{"type":"Feature","properties":{"nome":"Jardim Dona Luíza","osm_id":12988031611,"osm_tipo":"node","tipo_lugar":"suburb"},"geometry":{"type":"Point","coordinates":[-47.6551027,-22.6854138]}},{"type":"Feature","properties":{"nome":"Nossa Senhora Aparecida","osm_id":12988031625,"osm_tipo":"node","tipo_lugar":"suburb"},"geometry":{"type":"Point","coordinates":[-47.6513813,-22.6814483]}},{"type":"Feature","properties":{"nome":"Vila Industrial","osm_id":12988035220,"osm_tipo":"node","tipo_lugar":"suburb"},"geometry":{"type":"Point","coordinates":[-47.6656424,-22.6853423]}},{"type":"Feature","properties":{"nome":"Jardim Piedade","osm_id":12988035223,"osm_tipo":"node","tipo_lugar":"suburb"},"geometry":{"type":"Point","coordinates":[-47.6679479,-22.6822611]}},{"type":"Feature","properties":{"nome":"Vila Industrial COHAB-Bandeirantes","osm_id":12988043138,"osm_tipo":"node","tipo_lugar":"suburb"},"geometry":{"type":"Point","coordinates":[-47.6660326,-22.680525]}},{"type":"Feature","properties":{"nome":"Desmembramento Chácara Recanto Bello","osm_id":12988043145,"osm_tipo":"node","tipo_lugar":"suburb"},"geometry":{"type":"Point","coordinates":[-47.6688535,-22.6794358]}},{"type":"Feature","properties":{"nome":"Jardim Vila Rio","osm_id":12988048439,"osm_tipo":"node","tipo_lugar":"suburb"},"geometry":{"type":"Point","coordinates":[-47.6690011,-22.6736663]}},{"type":"Feature","properties":{"nome":"Desmembramento Ermor Zambello","osm_id":12988048442,"osm_tipo":"node","tipo_lugar":"suburb"},"geometry":{"type":"Point","coordinates":[-47.6702031,-22.6743259]}},{"type":"Feature","properties":{"nome":"Eldorado","osm_id":12988048581,"osm_tipo":"node","tipo_lugar":"suburb"},"geometry":{"type":"Point","coordinates":[-47.6722819,-22.6745324]}},{"type":"Feature","properties":{"nome":"Residencial Vida Nova","osm_id":12997079376,"osm_tipo":"node","tipo_lugar":"suburb"},"geometry":{"type":"Point","coordinates":[-47.7260586,-22.6812765]}},{"type":"Feature","properties":{"nome":"Chácaras Elizabeth Cristina","osm_id":12997090196,"osm_tipo":"node","tipo_lugar":"suburb"},"geometry":{"type":"Point","coordinates":[-47.7502347,-22.6739443]}},{"type":"Feature","properties":{"nome":"Jardim Itapiru","osm_id":12997101756,"osm_tipo":"node","tipo_lugar":"suburb"},"geometry":{"type":"Point","coordinates":[-47.7570686,-22.6705826]}},{"type":"Feature","properties":{"nome":"Glebas Primavera","osm_id":12997104218,"osm_tipo":"node","tipo_lugar":"suburb"},"geometry":{"type":"Point","coordinates":[-47.7362675,-22.67752]}},{"type":"Feature","properties":{"nome":"Jardim Colorado","osm_id":12997120395,"osm_tipo":"node","tipo_lugar":"suburb"},"geometry":{"type":"Point","coordinates":[-47.7323278,-22.6820105]}},{"type":"Feature","properties":{"nome":"Jardim Diana","osm_id":12997163249,"osm_tipo":"node","tipo_lugar":"suburb"},"geometry":{"type":"Point","coordinates":[-47.6890457,-22.6766014]}},{"type":"Feature","properties":{"nome":"Jardim Nova Capri","osm_id":12997163345,"osm_tipo":"node","tipo_lugar":"suburb"},"geometry":{"type":"Point","coordinates":[-47.6861699,-22.6801059]}},{"type":"Feature","properties":{"nome":"Parque Bela Vista","osm_id":12997187357,"osm_tipo":"node","tipo_lugar":"suburb"},"geometry":{"type":"Point","coordinates":[-47.6929887,-22.6708558]}},{"type":"Feature","properties":{"nome":"Gran Park Residencial","osm_id":12997187479,"osm_tipo":"node","tipo_lugar":"suburb"},"geometry":{"type":"Point","coordinates":[-47.7180911,-22.6880486]}},{"type":"Feature","properties":{"nome":"Corporate Park Piracicaba","osm_id":12997187484,"osm_tipo":"node","tipo_lugar":"suburb"},"geometry":{"type":"Point","coordinates":[-47.7168077,-22.679636]}},{"type":"Feature","properties":{"nome":"Jardim Sônia","osm_id":12997198371,"osm_tipo":"node","tipo_lugar":"suburb"},"geometry":{"type":"Point","coordinates":[-47.6927018,-22.6739891]}},{"type":"Feature","properties":{"nome":"Jardim Nossa Senhora do Carmo","osm_id":12997199535,"osm_tipo":"node","tipo_lugar":"suburb"},"geometry":{"type":"Point","coordinates":[-47.6828293,-22.6812246]}},{"type":"Feature","properties":{"nome":"Jardim Santa Ephigênia","osm_id":12997201106,"osm_tipo":"node","tipo_lugar":"suburb"},"geometry":{"type":"Point","coordinates":[-47.6851966,-22.6823061]}},{"type":"Feature","properties":{"nome":"Jardim dos Antúrios","osm_id":12997202339,"osm_tipo":"node","tipo_lugar":"suburb"},"geometry":{"type":"Point","coordinates":[-47.6952361,-22.6749306]}},{"type":"Feature","properties":{"nome":"Jardim Dom Bosco","osm_id":12997207615,"osm_tipo":"node","tipo_lugar":"suburb"},"geometry":{"type":"Point","coordinates":[-47.6847957,-22.6801886]}},{"type":"Feature","properties":{"nome":"Jardim Boa Esperança","osm_id":12997209006,"osm_tipo":"node","tipo_lugar":"suburb"},"geometry":{"type":"Point","coordinates":[-47.6870709,-22.6780975]}},{"type":"Feature","properties":{"nome":"Jardim Irapuã","osm_id":12997210341,"osm_tipo":"node","tipo_lugar":"suburb"},"geometry":{"type":"Point","coordinates":[-47.6964674,-22.675659]}},{"type":"Feature","properties":{"nome":"Jardim Maria Cláudia","osm_id":12997221872,"osm_tipo":"node","tipo_lugar":"suburb"},"geometry":{"type":"Point","coordinates":[-47.6978232,-22.6718149]}},{"type":"Feature","properties":{"nome":"Jardim dos Manacás","osm_id":12997233081,"osm_tipo":"node","tipo_lugar":"suburb"},"geometry":{"type":"Point","coordinates":[-47.7020603,-22.6684626]}},{"type":"Feature","properties":{"nome":"Jardim Maria Helena","osm_id":12997244313,"osm_tipo":"node","tipo_lugar":"suburb"},"geometry":{"type":"Point","coordinates":[-47.688697,-22.6705696]}},{"type":"Feature","properties":{"nome":"Jardim Maria Helena","osm_id":12997244314,"osm_tipo":"node","tipo_lugar":"suburb"},"geometry":{"type":"Point","coordinates":[-47.686838,-22.6707582]}},{"type":"Feature","properties":{"nome":"Humberto Venturini","osm_id":12997246234,"osm_tipo":"node","tipo_lugar":"suburb"},"geometry":{"type":"Point","coordinates":[-47.6925193,-22.6687413]}},{"type":"Feature","properties":{"nome":"Jardim Itaicy I","osm_id":12997250225,"osm_tipo":"node","tipo_lugar":"suburb"},"geometry":{"type":"Point","coordinates":[-47.7003753,-22.6665076]}},{"type":"Feature","properties":{"nome":"Parque Nossa Senhora das Graças","osm_id":12997250229,"osm_tipo":"node","tipo_lugar":"suburb"},"geometry":{"type":"Point","coordinates":[-47.6961321,-22.6678066]}},{"type":"Feature","properties":{"nome":"Jardim Itaicy II","osm_id":12997250246,"osm_tipo":"node","tipo_lugar":"suburb"},"geometry":{"type":"Point","coordinates":[-47.6962538,-22.6660586]}},{"type":"Feature","properties":{"nome":"Jardim Três Marias","osm_id":12997261930,"osm_tipo":"node","tipo_lugar":"suburb"},"geometry":{"type":"Point","coordinates":[-47.6888149,-22.6675124]}},{"type":"Feature","properties":{"nome":"Jardim Santa Clara","osm_id":12997263819,"osm_tipo":"node","tipo_lugar":"suburb"},"geometry":{"type":"Point","coordinates":[-47.6908267,-22.6679246]}},{"type":"Feature","properties":{"nome":"Parque Orlanda I","osm_id":12997263824,"osm_tipo":"node","tipo_lugar":"suburb"},"geometry":{"type":"Point","coordinates":[-47.6884608,-22.6653574]}},{"type":"Feature","properties":{"nome":"Parque Orlanda II","osm_id":12997263826,"osm_tipo":"node","tipo_lugar":"suburb"},"geometry":{"type":"Point","coordinates":[-47.690229,-22.6648185]}},{"type":"Feature","properties":{"nome":"Jardim Castor","osm_id":12997281447,"osm_tipo":"node","tipo_lugar":"suburb"},"geometry":{"type":"Point","coordinates":[-47.6858428,-22.6682782]}},{"type":"Feature","properties":{"nome":"Jardom São José","osm_id":12997285031,"osm_tipo":"node","tipo_lugar":"suburb"},"geometry":{"type":"Point","coordinates":[-47.6854047,-22.6741071]}},{"type":"Feature","properties":{"nome":"Jardim Taiguara II","osm_id":12997300072,"osm_tipo":"node","tipo_lugar":"suburb"},"geometry":{"type":"Point","coordinates":[-47.6813519,-22.6718636]}},{"type":"Feature","properties":{"nome":"Jardim Bessi","osm_id":12997301501,"osm_tipo":"node","tipo_lugar":"suburb"},"geometry":{"type":"Point","coordinates":[-47.6855442,-22.6714329]}},{"type":"Feature","properties":{"nome":"Jardim Santa Terezinha","osm_id":12997309701,"osm_tipo":"node","tipo_lugar":"suburb"},"geometry":{"type":"Point","coordinates":[-47.6865728,-22.6735386]}},{"type":"Feature","properties":{"nome":"Alto de Santa Thereza","osm_id":12997311277,"osm_tipo":"node","tipo_lugar":"suburb"},"geometry":{"type":"Point","coordinates":[-47.6817871,-22.6731324]}},{"type":"Feature","properties":{"nome":"Jardim São Benedito","osm_id":12997321408,"osm_tipo":"node","tipo_lugar":"suburb"},"geometry":{"type":"Point","coordinates":[-47.6821572,-22.6676423]}},{"type":"Feature","properties":{"nome":"Jardim Conceição","osm_id":12997321826,"osm_tipo":"node","tipo_lugar":"suburb"},"geometry":{"type":"Point","coordinates":[-47.6813681,-22.6688611]}},{"type":"Feature","properties":{"nome":"Chácara Santo Antônio","osm_id":12997323250,"osm_tipo":"node","tipo_lugar":"suburb"},"geometry":{"type":"Point","coordinates":[-47.6780018,-22.6933413]}},{"type":"Feature","properties":{"nome":"Jardim Lídia","osm_id":12997325804,"osm_tipo":"node","tipo_lugar":"suburb"},"geometry":{"type":"Point","coordinates":[-47.6831801,-22.6699913]}},{"type":"Feature","properties":{"nome":"Residencial Andorinhas","osm_id":12997325991,"osm_tipo":"node","tipo_lugar":"suburb"},"geometry":{"type":"Point","coordinates":[-47.6805456,-22.6701622]}},{"type":"Feature","properties":{"nome":"Jardim Taiguara I","osm_id":12997326245,"osm_tipo":"node","tipo_lugar":"suburb"},"geometry":{"type":"Point","coordinates":[-47.6833089,-22.6712416]}},{"type":"Feature","properties":{"nome":"Residencial Caieiras","osm_id":12997337604,"osm_tipo":"node","tipo_lugar":"suburb"},"geometry":{"type":"Point","coordinates":[-47.6817458,-22.6707119]}},{"type":"Feature","properties":{"nome":"Parque das Indústrias","osm_id":12997342852,"osm_tipo":"node","tipo_lugar":"suburb"},"geometry":{"type":"Point","coordinates":[-47.6764888,-22.6679125]}},{"type":"Feature","properties":{"nome":"Jardim São Judas Tadeu","osm_id":12997352961,"osm_tipo":"node","tipo_lugar":"suburb"},"geometry":{"type":"Point","coordinates":[-47.6841971,-22.6755095]}},{"type":"Feature","properties":{"nome":"José Alberico Parente","osm_id":12997355515,"osm_tipo":"node","tipo_lugar":"suburb"},"geometry":{"type":"Point","coordinates":[-47.6822025,-22.674608]}},{"type":"Feature","properties":{"nome":"Jardim São Sebastião","osm_id":12997355521,"osm_tipo":"node","tipo_lugar":"suburb"},"geometry":{"type":"Point","coordinates":[-47.6838007,-22.6743138]}},{"type":"Feature","properties":{"nome":"Jardim Paris","osm_id":12997408777,"osm_tipo":"node","tipo_lugar":"suburb"},"geometry":{"type":"Point","coordinates":[-47.6813119,-22.6786922]}},{"type":"Feature","properties":{"nome":"Jardim Corcovado","osm_id":12997411765,"osm_tipo":"node","tipo_lugar":"suburb"},"geometry":{"type":"Point","coordinates":[-47.6860123,-22.6770097]}},{"type":"Feature","properties":{"nome":"Jardim Nossa Senhora das Graças","osm_id":12997411771,"osm_tipo":"node","tipo_lugar":"suburb"},"geometry":{"type":"Point","coordinates":[-47.6833857,-22.6783939]}},{"type":"Feature","properties":{"nome":"Santa Terezinha","osm_id":12997418640,"osm_tipo":"node","tipo_lugar":"suburb"},"geometry":{"type":"Point","coordinates":[-47.6759893,-22.6784453]}},{"type":"Feature","properties":{"nome":"Chácara Santo Antônio","osm_id":12997423043,"osm_tipo":"node","tipo_lugar":"suburb"},"geometry":{"type":"Point","coordinates":[-47.6801556,-22.6795482]}},{"type":"Feature","properties":{"nome":"Jardim São Francisco","osm_id":12997445577,"osm_tipo":"node","tipo_lugar":"suburb"},"geometry":{"type":"Point","coordinates":[-47.6805313,-22.6910431]}},{"type":"Feature","properties":{"nome":"Residencial e Comercial Santa Terezinha","osm_id":12997446402,"osm_tipo":"node","tipo_lugar":"suburb"},"geometry":{"type":"Point","coordinates":[-47.6784628,-22.6814115]}},{"type":"Feature","properties":{"nome":"Parque Paradiso Condomínio Club","osm_id":12997446409,"osm_tipo":"node","tipo_lugar":"suburb"},"geometry":{"type":"Point","coordinates":[-47.6799547,-22.6832409]}},{"type":"Feature","properties":{"nome":"Jardim Algodoal 2ª P.","osm_id":12997676332,"osm_tipo":"node","tipo_lugar":"suburb"},"geometry":{"type":"Point","coordinates":[-47.6643502,-22.6996051]}},{"type":"Feature","properties":{"nome":"Cristóvão Colombo","osm_id":12997696409,"osm_tipo":"node","tipo_lugar":"suburb"},"geometry":{"type":"Point","coordinates":[-47.6739092,-22.6922772]}},{"type":"Feature","properties":{"nome":"Núcleo Habitacional Jardim Algodoal","osm_id":12997700565,"osm_tipo":"node","tipo_lugar":"suburb"},"geometry":{"type":"Point","coordinates":[-47.6690605,-22.6928454]}},{"type":"Feature","properties":{"nome":"Jardim São Vicente I","osm_id":12997708548,"osm_tipo":"node","tipo_lugar":"suburb"},"geometry":{"type":"Point","coordinates":[-47.671011,-22.6887996]}},{"type":"Feature","properties":{"nome":"Jardom Algodoal 3ª P.","osm_id":12997728331,"osm_tipo":"node","tipo_lugar":"suburb"},"geometry":{"type":"Point","coordinates":[-47.6634523,-22.6966302]}},{"type":"Feature","properties":{"nome":"Jardim Algodoal 1ª P.","osm_id":12997728336,"osm_tipo":"node","tipo_lugar":"suburb"},"geometry":{"type":"Point","coordinates":[-47.6642727,-22.7017301]}},{"type":"Feature","properties":{"nome":"Jardim Alvorada","osm_id":12997730485,"osm_tipo":"node","tipo_lugar":"suburb"},"geometry":{"type":"Point","coordinates":[-47.6603151,-22.6992587]}},{"type":"Feature","properties":{"nome":"Jardim Algodoal 4ª P.","osm_id":12997752519,"osm_tipo":"node","tipo_lugar":"suburb"},"geometry":{"type":"Point","coordinates":[-47.6678319,-22.7032866]}},{"type":"Feature","properties":{"nome":"Jardim Algodoal 6ª P.","osm_id":12997752522,"osm_tipo":"node","tipo_lugar":"suburb"},"geometry":{"type":"Point","coordinates":[-47.6697258,-22.7017541]}},{"type":"Feature","properties":{"nome":"Jardim Itamaraty","osm_id":12997774501,"osm_tipo":"node","tipo_lugar":"suburb"},"geometry":{"type":"Point","coordinates":[-47.6712543,-22.7050631]}},{"type":"Feature","properties":{"nome":"Jardim Mercedes","osm_id":12997775429,"osm_tipo":"node","tipo_lugar":"suburb"},"geometry":{"type":"Point","coordinates":[-47.6698302,-22.708822]}},{"type":"Feature","properties":{"nome":"Jardim São Paulo","osm_id":12997782680,"osm_tipo":"node","tipo_lugar":"suburb"},"geometry":{"type":"Point","coordinates":[-47.6670334,-22.7186019]}},{"type":"Feature","properties":{"nome":"Jardim Witier","osm_id":12997783260,"osm_tipo":"node","tipo_lugar":"suburb"},"geometry":{"type":"Point","coordinates":[-47.6685104,-22.7071853]}},{"type":"Feature","properties":{"nome":"Jardim São Pedro 1ª P.","osm_id":12997787356,"osm_tipo":"node","tipo_lugar":"suburb"},"geometry":{"type":"Point","coordinates":[-47.6608851,-22.7160774]}},{"type":"Feature","properties":{"nome":"Vila Rezende","osm_id":12997791767,"osm_tipo":"node","tipo_lugar":"suburb"},"geometry":{"type":"Point","coordinates":[-47.6659857,-22.7092297]}},{"type":"Feature","properties":{"nome":"Jardim São Pedro 2ª P.","osm_id":12997793916,"osm_tipo":"node","tipo_lugar":"suburb"},"geometry":{"type":"Point","coordinates":[-47.6677756,-22.7128508]}},{"type":"Feature","properties":{"nome":"Vivendas Piracicaba","osm_id":12997795067,"osm_tipo":"node","tipo_lugar":"suburb"},"geometry":{"type":"Point","coordinates":[-47.669357,-22.7171193]}},{"type":"Feature","properties":{"nome":"Nova Piracicaba","osm_id":12997834821,"osm_tipo":"node","tipo_lugar":"suburb"},"geometry":{"type":"Point","coordinates":[-47.6687409,-22.7207636]}},{"type":"Feature","properties":{"nome":"Nova Piracicaba","osm_id":12997834822,"osm_tipo":"node","tipo_lugar":"suburb"},"geometry":{"type":"Point","coordinates":[-47.6738138,-22.7101732]}},{"type":"Feature","properties":{"nome":"Vila Marta","osm_id":13045786870,"osm_tipo":"node","tipo_lugar":"suburb"},"geometry":{"type":"Point","coordinates":[-47.6610265,-22.7076927]}},{"type":"Feature","properties":{"nome":"Vila Ducatti","osm_id":13045799637,"osm_tipo":"node","tipo_lugar":"suburb"},"geometry":{"type":"Point","coordinates":[-47.6606882,-22.7093644]}},{"type":"Feature","properties":{"nome":"Jardim Universitário","osm_id":13045848592,"osm_tipo":"node","tipo_lugar":"suburb"},"geometry":{"type":"Point","coordinates":[-47.6533446,-22.7055946]}},{"type":"Feature","properties":{"nome":"Vila Rezende","osm_id":13045857209,"osm_tipo":"node","tipo_lugar":"suburb"},"geometry":{"type":"Point","coordinates":[-47.6595247,-22.7046658]}},{"type":"Feature","properties":{"nome":"Conjunto Habitacional Cidade Azul","osm_id":13046104318,"osm_tipo":"node","tipo_lugar":"suburb"},"geometry":{"type":"Point","coordinates":[-47.6597957,-22.7120784]}},{"type":"Feature","properties":{"nome":"Recanto Colonial","osm_id":13046110613,"osm_tipo":"node","tipo_lugar":"suburb"},"geometry":{"type":"Point","coordinates":[-47.6584754,-22.7015196]}},{"type":"Feature","properties":{"nome":"Jardim Primavera","osm_id":13046110615,"osm_tipo":"node","tipo_lugar":"suburb"},"geometry":{"type":"Point","coordinates":[-47.6539263,-22.6943936]}},{"type":"Feature","properties":{"nome":"Vila Areião","osm_id":13046112585,"osm_tipo":"node","tipo_lugar":"suburb"},"geometry":{"type":"Point","coordinates":[-47.6544662,-22.7022118]}},{"type":"Feature","properties":{"nome":"Nova Rpública","osm_id":13046143843,"osm_tipo":"node","tipo_lugar":"suburb"},"geometry":{"type":"Point","coordinates":[-47.6489848,-22.6920806]}},{"type":"Feature","properties":{"nome":"Jardim Santana","osm_id":13046153501,"osm_tipo":"node","tipo_lugar":"suburb"},"geometry":{"type":"Point","coordinates":[-47.6632892,-22.7109202]}},{"type":"Feature","properties":{"nome":"Jardim das Carmelitas","osm_id":13046275696,"osm_tipo":"node","tipo_lugar":"suburb"},"geometry":{"type":"Point","coordinates":[-47.646,-22.7150078]}},{"type":"Feature","properties":{"nome":"Clube de Campo","osm_id":13046294855,"osm_tipo":"node","tipo_lugar":"suburb"},"geometry":{"type":"Point","coordinates":[-47.6483928,-22.7118723]}},{"type":"Feature","properties":{"nome":"São Dimas","osm_id":13046310501,"osm_tipo":"node","tipo_lugar":"suburb"},"geometry":{"type":"Point","coordinates":[-47.6430296,-22.7115835]}},{"type":"Feature","properties":{"nome":"Jardim das Oliveiras","osm_id":13070083448,"osm_tipo":"node","tipo_lugar":"suburb"},"geometry":{"type":"Point","coordinates":[-47.5599935,-22.7319572]}},{"type":"Feature","properties":{"nome":"Condomínio Authoria Reserva Jequitibá","osm_id":13267284855,"osm_tipo":"node","tipo_lugar":"suburb"},"geometry":{"type":"Point","coordinates":[-47.6270912,-22.683514]}},{"type":"Feature","properties":{"nome":"Uninoroeste","osm_id":646930524,"osm_tipo":"way","tipo_lugar":"suburb"},"geometry":{"type":"Polygon","coordinates":[[[-47.749229,-22.7010858],[-47.7437521,-22.6969638],[-47.7468169,-22.6894683],[-47.7548301,-22.6950655],[-47.7542629,-22.6973754],[-47.749229,-22.7010858]]]}},{"type":"Feature","properties":{"nome":"Jardim Colina Verde","osm_id":681663667,"osm_tipo":"way","tipo_lugar":"suburb"},"geometry":{"type":"Polygon","coordinates":[[[-47.696201,-22.6593097],[-47.6967664,-22.6607555],[-47.6923092,-22.6640864],[-47.6919859,-22.6612239],[-47.696201,-22.6593097]]]}},{"type":"Feature","properties":{"nome":"São Dimas","osm_id":1419679003,"osm_tipo":"way","tipo_lugar":"suburb"},"geometry":{"type":"Polygon","coordinates":[[[-47.643985,-22.7148294],[-47.6475781,-22.7134974],[-47.6446381,-22.7085106],[-47.6361886,-22.7123009],[-47.6370439,-22.7138106],[-47.6389147,-22.7128989],[-47.6421218,-22.7165987],[-47.6445465,-22.7158474],[-47.643985,-22.7148294]]]}},{"type":"Feature","properties":{"nome":"Vila Independência","osm_id":19382974,"osm_tipo":"relation","tipo_lugar":"suburb"},"geometry":{"type":"Polygon","coordinates":[[[-47.6337693,-22.7252146],[-47.6279809,-22.7258105],[-47.6257554,-22.7243768],[-47.623799,-22.7174514],[-47.6328337,-22.715251],[-47.6337693,-22.7252146]]]}},{"type":"Feature","properties":{"nome":"São Dimas","osm_id":19915742,"osm_tipo":"relation","tipo_lugar":"suburb"},"geometry":{"type":"Polygon","coordinates":[[[-47.6362198,-22.7122526],[-47.6442379,-22.7084035],[-47.6473975,-22.7128626],[-47.642319,-22.7169214],[-47.6388634,-22.7129163],[-47.6370237,-22.7137736],[-47.6362198,-22.7122526]]]}},{"type":"Feature","properties":{"nome":"Jardim Nova Iguaçu","osm_id":19915751,"osm_tipo":"relation","tipo_lugar":"suburb"},"geometry":{"type":"Polygon","coordinates":[[[-47.5958597,-22.7374793],[-47.5992943,-22.7411728],[-47.6002147,-22.7405439],[-47.5976566,-22.7370383],[-47.5958597,-22.7374793]]]}}]}