{"type":"FeatureCollection","features":[{"type":"Feature","properties":{"nome":"Jardim Gumercindo Hentz Soares","osm_id":4281163691,"osm_tipo":"node","tipo_lugar":"suburb"},"geometry":{"type":"Point","coordinates":[-48.2219781,-21.0017224]}},{"type":"Feature","properties":{"nome":"Jardim Veneza","osm_id":4606129725,"osm_tipo":"node","tipo_lugar":"suburb"},"geometry":{"type":"Point","coordinates":[-48.2336337,-21.0182405]}},{"type":"Feature","properties":{"nome":"Residencial Morada do Sol","osm_id":4606129726,"osm_tipo":"node","tipo_lugar":"suburb"},"geometry":{"type":"Point","coordinates":[-48.2220036,-21.0194223]}},{"type":"Feature","properties":{"nome":"Jardim Macedo","osm_id":4606129727,"osm_tipo":"node","tipo_lugar":"suburb"},"geometry":{"type":"Point","coordinates":[-48.2209844,-21.0208144]}},{"type":"Feature","properties":{"nome":"Jardim São Sebastião","osm_id":4606129728,"osm_tipo":"node","tipo_lugar":"suburb"},"geometry":{"type":"Point","coordinates":[-48.2249862,-21.0169686]}},{"type":"Feature","properties":{"nome":"Jardim Bela Vista","osm_id":4606129729,"osm_tipo":"node","tipo_lugar":"suburb"},"geometry":{"type":"Point","coordinates":[-48.2288379,-21.0244697]}},{"type":"Feature","properties":{"nome":"Conjunto Habitacional Padre Plácido Horth","osm_id":4894027079,"osm_tipo":"node","tipo_lugar":"suburb"},"geometry":{"type":"Point","coordinates":[-48.2287198,-21.012612]}},{"type":"Feature","properties":{"nome":"Jardim Alvorada","osm_id":4894027080,"osm_tipo":"node","tipo_lugar":"suburb"},"geometry":{"type":"Point","coordinates":[-48.2269067,-21.0111697]}},{"type":"Feature","properties":{"nome":"Jardim Paraíso","osm_id":4894027081,"osm_tipo":"node","tipo_lugar":"suburb"},"geometry":{"type":"Point","coordinates":[-48.2286716,-21.010714]}},{"type":"Feature","properties":{"nome":"Jardim Canadá","osm_id":4894027082,"osm_tipo":"node","tipo_lugar":"suburb"},"geometry":{"type":"Point","coordinates":[-48.2334834,-21.0120586]}},{"type":"Feature","properties":{"nome":"Cohab Pedro de Felício","osm_id":4972586914,"osm_tipo":"node","tipo_lugar":"suburb"},"geometry":{"type":"Point","coordinates":[-48.2034373,-21.0070583]}},{"type":"Feature","properties":{"nome":"Jardim São João","osm_id":7131189162,"osm_tipo":"node","tipo_lugar":"suburb"},"geometry":{"type":"Point","coordinates":[-48.2090861,-21.0083954]}},{"type":"Feature","properties":{"nome":"Jardim São Benedito","osm_id":7131189163,"osm_tipo":"node","tipo_lugar":"suburb"},"geometry":{"type":"Point","coordinates":[-48.2066613,-21.0082803]}},{"type":"Feature","properties":{"nome":"Distrito Industrial","osm_id":7131189164,"osm_tipo":"node","tipo_lugar":"suburb"},"geometry":{"type":"Point","coordinates":[-48.2045102,-21.002461]}},{"type":"Feature","properties":{"nome":"Jardim Nova Esperança","osm_id":7131189165,"osm_tipo":"node","tipo_lugar":"suburb"},"geometry":{"type":"Point","coordinates":[-48.2084826,-21.0023258]}},{"type":"Feature","properties":{"nome":"Jardim Leone","osm_id":7131189166,"osm_tipo":"node","tipo_lugar":"suburb"},"geometry":{"type":"Point","coordinates":[-48.2115269,-21.0020103]}},{"type":"Feature","properties":{"nome":"Jardim Santa Tereza","osm_id":7131189167,"osm_tipo":"node","tipo_lugar":"suburb"},"geometry":{"type":"Point","coordinates":[-48.2119024,-21.0001273]}},{"type":"Feature","properties":{"nome":"Jardim Gumercindo Hentz Soares 2","osm_id":7131189168,"osm_tipo":"node","tipo_lugar":"suburb"},"geometry":{"type":"Point","coordinates":[-48.2187045,-21.0004929]}},{"type":"Feature","properties":{"nome":"Jardim Santa Ana","osm_id":7131189169,"osm_tipo":"node","tipo_lugar":"suburb"},"geometry":{"type":"Point","coordinates":[-48.216607,-20.9997116]}},{"type":"Feature","properties":{"nome":"Jardim Bothânico","osm_id":7131189170,"osm_tipo":"node","tipo_lugar":"suburb"},"geometry":{"type":"Point","coordinates":[-48.2151103,-21.0004478]}},{"type":"Feature","properties":{"nome":"Green Park","osm_id":7185010352,"osm_tipo":"node","tipo_lugar":"suburb"},"geometry":{"type":"Point","coordinates":[-48.2046014,-21.010699]}},{"type":"Feature","properties":{"nome":"Jardim Bonsucesso 1","osm_id":7703187914,"osm_tipo":"node","tipo_lugar":"suburb"},"geometry":{"type":"Point","coordinates":[-48.2363641,-21.0099729]}},{"type":"Feature","properties":{"nome":"Jardim Bonsucesso 2","osm_id":7703187915,"osm_tipo":"node","tipo_lugar":"suburb"},"geometry":{"type":"Point","coordinates":[-48.2358921,-21.0115253]}},{"type":"Feature","properties":{"nome":"Jardim Nova Aliança","osm_id":7703187916,"osm_tipo":"node","tipo_lugar":"suburb"},"geometry":{"type":"Point","coordinates":[-48.2359672,-21.0136085]}},{"type":"Feature","properties":{"nome":"Jardim Parque dos Ipês","osm_id":7703187953,"osm_tipo":"node","tipo_lugar":"suburb"},"geometry":{"type":"Point","coordinates":[-48.2203567,-21.0265978]}},{"type":"Feature","properties":{"nome":"Jardim São Lourenço","osm_id":7703187954,"osm_tipo":"node","tipo_lugar":"suburb"},"geometry":{"type":"Point","coordinates":[-48.2241225,-21.021931]}},{"type":"Feature","properties":{"nome":"Jardim Brasília","osm_id":7703187959,"osm_tipo":"node","tipo_lugar":"suburb"},"geometry":{"type":"Point","coordinates":[-48.2180232,-21.0154263]}},{"type":"Feature","properties":{"nome":"Jardim Santo Antônio","osm_id":7703187960,"osm_tipo":"node","tipo_lugar":"suburb"},"geometry":{"type":"Point","coordinates":[-48.2125837,-21.013904]}},{"type":"Feature","properties":{"nome":"Jardim Paulista","osm_id":7703187961,"osm_tipo":"node","tipo_lugar":"suburb"},"geometry":{"type":"Point","coordinates":[-48.2091719,-21.0102033]}},{"type":"Feature","properties":{"nome":"Vila Caroni","osm_id":7703187970,"osm_tipo":"node","tipo_lugar":"suburb"},"geometry":{"type":"Point","coordinates":[-48.2131416,-21.0045544]}},{"type":"Feature","properties":{"nome":"Cohab 1","osm_id":7703187971,"osm_tipo":"node","tipo_lugar":"suburb"},"geometry":{"type":"Point","coordinates":[-48.2100463,-21.0042539]}},{"type":"Feature","properties":{"nome":"Jardim Santa Fé","osm_id":7703187972,"osm_tipo":"node","tipo_lugar":"suburb"},"geometry":{"type":"Point","coordinates":[-48.2069028,-21.0040636]}},{"type":"Feature","properties":{"nome":"Jardim Santa Felicidade","osm_id":8910852444,"osm_tipo":"node","tipo_lugar":"suburb"},"geometry":{"type":"Point","coordinates":[-48.2250667,-21.0241643]}},{"type":"Feature","properties":{"nome":"Jardim das Oliveiras","osm_id":9966637580,"osm_tipo":"node","tipo_lugar":"suburb"},"geometry":{"type":"Point","coordinates":[-48.2235003,-21.0202585]}},{"type":"Feature","properties":{"nome":"Condomínio Quinta dos Ventos","osm_id":9966637595,"osm_tipo":"node","tipo_lugar":"suburb"},"geometry":{"type":"Point","coordinates":[-48.2298142,-20.9997967]}},{"type":"Feature","properties":{"nome":"Jardim Deise Foresti","osm_id":9966637596,"osm_tipo":"node","tipo_lugar":"suburb"},"geometry":{"type":"Point","coordinates":[-48.2282907,-21.0013893]}},{"type":"Feature","properties":{"nome":"Jardim Santa Vitória","osm_id":13912114001,"osm_tipo":"node","tipo_lugar":"suburb"},"geometry":{"type":"Point","coordinates":[-48.2292301,-21.0152274]}}]}