{"type":"FeatureCollection","features":[{"type":"Feature","properties":{"nome":"Cidade Kemel","osm_id":368179784,"osm_tipo":"node","tipo_lugar":"suburb"},"geometry":{"type":"Point","coordinates":[-46.363208,-23.5140458]}},{"type":"Feature","properties":{"nome":"Jardim Ivonete","osm_id":4209753700,"osm_tipo":"node","tipo_lugar":"suburb"},"geometry":{"type":"Point","coordinates":[-46.3668778,-23.5185092]}},{"type":"Feature","properties":{"nome":"Vila Anita","osm_id":4212776490,"osm_tipo":"node","tipo_lugar":"suburb"},"geometry":{"type":"Point","coordinates":[-46.3437361,-23.5170585]}},{"type":"Feature","properties":{"nome":"Calmon Viana","osm_id":4213156330,"osm_tipo":"node","tipo_lugar":"suburb"},"geometry":{"type":"Point","coordinates":[-46.3347129,-23.5307123]}},{"type":"Feature","properties":{"nome":"Jardim Itamaraty","osm_id":4213175819,"osm_tipo":"node","tipo_lugar":"suburb"},"geometry":{"type":"Point","coordinates":[-46.3418365,-23.5380942]}},{"type":"Feature","properties":{"nome":"Jardim Santa Helena","osm_id":4495897682,"osm_tipo":"node","tipo_lugar":"suburb"},"geometry":{"type":"Point","coordinates":[-46.3612131,-23.521585]}},{"type":"Feature","properties":{"nome":"Vila Júlia","osm_id":4673242074,"osm_tipo":"node","tipo_lugar":"suburb"},"geometry":{"type":"Point","coordinates":[-46.3487432,-23.5235602]}},{"type":"Feature","properties":{"nome":"Jardim Áurea","osm_id":4829693408,"osm_tipo":"node","tipo_lugar":"suburb"},"geometry":{"type":"Point","coordinates":[-46.3523735,-23.5225757]}},{"type":"Feature","properties":{"nome":"Vila Varela","osm_id":4879076676,"osm_tipo":"node","tipo_lugar":"suburb"},"geometry":{"type":"Point","coordinates":[-46.3350039,-23.5085382]}},{"type":"Feature","properties":{"nome":"Vila Cristelo","osm_id":4934644935,"osm_tipo":"node","tipo_lugar":"suburb"},"geometry":{"type":"Point","coordinates":[-46.3483196,-23.534314]}},{"type":"Feature","properties":{"nome":"Vila Ruth","osm_id":4974299965,"osm_tipo":"node","tipo_lugar":"suburb"},"geometry":{"type":"Point","coordinates":[-46.344461,-23.5299706]}},{"type":"Feature","properties":{"nome":"Centro","osm_id":5607697412,"osm_tipo":"node","tipo_lugar":"suburb"},"geometry":{"type":"Point","coordinates":[-46.340546,-23.5207417]}},{"type":"Feature","properties":{"nome":"Vila Ibar","osm_id":5607755703,"osm_tipo":"node","tipo_lugar":"suburb"},"geometry":{"type":"Point","coordinates":[-46.333819,-23.5217402]}},{"type":"Feature","properties":{"nome":"Vila Bandeirante","osm_id":5793836222,"osm_tipo":"node","tipo_lugar":"suburb"},"geometry":{"type":"Point","coordinates":[-46.3330997,-23.5202889]}},{"type":"Feature","properties":{"nome":"Vila Jaú","osm_id":5793857093,"osm_tipo":"node","tipo_lugar":"suburb"},"geometry":{"type":"Point","coordinates":[-46.3365514,-23.5158069]}},{"type":"Feature","properties":{"nome":"Biritiba","osm_id":5955758823,"osm_tipo":"node","tipo_lugar":"suburb"},"geometry":{"type":"Point","coordinates":[-46.342271,-23.5344311]}},{"type":"Feature","properties":{"nome":"Jardim Nova Poá","osm_id":5955838791,"osm_tipo":"node","tipo_lugar":"suburb"},"geometry":{"type":"Point","coordinates":[-46.3448635,-23.5543206]}},{"type":"Feature","properties":{"nome":"Jardim São José","osm_id":5956021272,"osm_tipo":"node","tipo_lugar":"suburb"},"geometry":{"type":"Point","coordinates":[-46.3536759,-23.5524865]}},{"type":"Feature","properties":{"nome":"Vila Amélia","osm_id":6817600937,"osm_tipo":"node","tipo_lugar":"suburb"},"geometry":{"type":"Point","coordinates":[-46.349347,-23.5353712]}},{"type":"Feature","properties":{"nome":"Jardim Nova Poá","osm_id":9626667877,"osm_tipo":"node","tipo_lugar":"suburb"},"geometry":{"type":"Point","coordinates":[-46.3459866,-23.5520108]}}]}