{"type":"FeatureCollection","features":[{"type":"Feature","properties":{"nome":"Bairro dos Nunes","osm_id":5784322961,"osm_tipo":"node","tipo_lugar":"neighbourhood"},"geometry":{"type":"Point","coordinates":[-48.1120296,-23.1712366]}},{"type":"Feature","properties":{"nome":"Colina Verde","osm_id":5784322962,"osm_tipo":"node","tipo_lugar":"neighbourhood"},"geometry":{"type":"Point","coordinates":[-48.1251891,-23.1899346]}},{"type":"Feature","properties":{"nome":"Vila São Judas Tadeu","osm_id":5784322963,"osm_tipo":"node","tipo_lugar":"neighbourhood"},"geometry":{"type":"Point","coordinates":[-48.123934,-23.1880975]}},{"type":"Feature","properties":{"nome":"Jardim São Luiz","osm_id":5784322964,"osm_tipo":"node","tipo_lugar":"neighbourhood"},"geometry":{"type":"Point","coordinates":[-48.1231258,-23.1829909]}},{"type":"Feature","properties":{"nome":"Vila São Luiz","osm_id":5784322965,"osm_tipo":"node","tipo_lugar":"neighbourhood"},"geometry":{"type":"Point","coordinates":[-48.1201861,-23.181472]}},{"type":"Feature","properties":{"nome":"Jardim Bela Vista","osm_id":7815492679,"osm_tipo":"node","tipo_lugar":"neighbourhood"},"geometry":{"type":"Point","coordinates":[-48.1188169,-23.1715981]}},{"type":"Feature","properties":{"nome":"Vila São Francisco de Assis","osm_id":7815540080,"osm_tipo":"node","tipo_lugar":"neighbourhood"},"geometry":{"type":"Point","coordinates":[-48.1237331,-23.1871384]}},{"type":"Feature","properties":{"nome":"Vila Gutierrez","osm_id":7815540081,"osm_tipo":"node","tipo_lugar":"neighbourhood"},"geometry":{"type":"Point","coordinates":[-48.1166674,-23.1760977]}},{"type":"Feature","properties":{"nome":"Jardim Santo Antônio","osm_id":7815540082,"osm_tipo":"node","tipo_lugar":"neighbourhood"},"geometry":{"type":"Point","coordinates":[-48.1159737,-23.177256]}},{"type":"Feature","properties":{"nome":"Centro","osm_id":7815540083,"osm_tipo":"node","tipo_lugar":"neighbourhood"},"geometry":{"type":"Point","coordinates":[-48.1227198,-23.1757093]}},{"type":"Feature","properties":{"nome":"Residencial Jardim Adonai","osm_id":7815546884,"osm_tipo":"node","tipo_lugar":"neighbourhood"},"geometry":{"type":"Point","coordinates":[-48.1166792,-23.1854707]}},{"type":"Feature","properties":{"nome":"Serrinha","osm_id":13240090519,"osm_tipo":"node","tipo_lugar":"suburb"},"geometry":{"type":"Point","coordinates":[-48.1632781,-23.2359707]}},{"type":"Feature","properties":{"nome":"Capuava","osm_id":13240090520,"osm_tipo":"node","tipo_lugar":"suburb"},"geometry":{"type":"Point","coordinates":[-48.1354942,-23.2410527]}}]}