{"type":"FeatureCollection","features":[{"type":"Feature","properties":{"nome":"Conjunto Habitacional Ana Jacinta","osm_id":368263541,"osm_tipo":"node","tipo_lugar":"suburb"},"geometry":{"type":"Point","coordinates":[-51.4520059,-22.1599822]}},{"type":"Feature","properties":{"nome":"Colina do Sol","osm_id":1818930679,"osm_tipo":"node","tipo_lugar":"suburb"},"geometry":{"type":"Point","coordinates":[-51.35272,-22.1365518]}},{"type":"Feature","properties":{"nome":"Jardim Itapura II","osm_id":1818930687,"osm_tipo":"node","tipo_lugar":"suburb"},"geometry":{"type":"Point","coordinates":[-51.368956,-22.1326937]}},{"type":"Feature","properties":{"nome":"Jardim Marisa","osm_id":1818930690,"osm_tipo":"node","tipo_lugar":"suburb"},"geometry":{"type":"Point","coordinates":[-51.3739445,-22.1425776]}},{"type":"Feature","properties":{"nome":"Parque Alvorada","osm_id":1818930694,"osm_tipo":"node","tipo_lugar":"suburb"},"geometry":{"type":"Point","coordinates":[-51.3746471,-22.1307216]}},{"type":"Feature","properties":{"nome":"Conjunto Brasil Novo","osm_id":1820338442,"osm_tipo":"node","tipo_lugar":"suburb"},"geometry":{"type":"Point","coordinates":[-51.383875,-22.0803639]}},{"type":"Feature","properties":{"nome":"Conjunto Habitacional Augusto de Paula","osm_id":1820338447,"osm_tipo":"node","tipo_lugar":"suburb"},"geometry":{"type":"Point","coordinates":[-51.3986594,-22.0840028]}},{"type":"Feature","properties":{"nome":"Inocoop","osm_id":1820338451,"osm_tipo":"node","tipo_lugar":"suburb"},"geometry":{"type":"Point","coordinates":[-51.3955916,-22.1020478]}},{"type":"Feature","properties":{"nome":"Jardim Barcelona","osm_id":1820338457,"osm_tipo":"node","tipo_lugar":"suburb"},"geometry":{"type":"Point","coordinates":[-51.4104164,-22.0973412]}},{"type":"Feature","properties":{"nome":"Jardim Cobral","osm_id":1820338482,"osm_tipo":"node","tipo_lugar":"suburb"},"geometry":{"type":"Point","coordinates":[-51.4141426,-22.0877364]}},{"type":"Feature","properties":{"nome":"Jardim Estoril","osm_id":1820338485,"osm_tipo":"node","tipo_lugar":"suburb"},"geometry":{"type":"Point","coordinates":[-51.3906711,-22.1017752]}},{"type":"Feature","properties":{"nome":"Jardim Humberto Salvador","osm_id":1820338487,"osm_tipo":"node","tipo_lugar":"suburb"},"geometry":{"type":"Point","coordinates":[-51.3994215,-22.0901708]}},{"type":"Feature","properties":{"nome":"Jardim Iguaçu","osm_id":1820338490,"osm_tipo":"node","tipo_lugar":"suburb"},"geometry":{"type":"Point","coordinates":[-51.3958291,-22.0986816]}},{"type":"Feature","properties":{"nome":"Jardim Novo Bongiovani","osm_id":1820338499,"osm_tipo":"node","tipo_lugar":"suburb"},"geometry":{"type":"Point","coordinates":[-51.4207806,-22.0946417]}},{"type":"Feature","properties":{"nome":"Jardim Regina","osm_id":1820338502,"osm_tipo":"node","tipo_lugar":"suburb"},"geometry":{"type":"Point","coordinates":[-51.3926655,-22.0980493]}},{"type":"Feature","properties":{"nome":"Parque Alexandrina","osm_id":1820338505,"osm_tipo":"node","tipo_lugar":"suburb"},"geometry":{"type":"Point","coordinates":[-51.3740622,-22.0907185]}},{"type":"Feature","properties":{"nome":"Parque Alto da Bela Vista","osm_id":1820338513,"osm_tipo":"node","tipo_lugar":"suburb"},"geometry":{"type":"Point","coordinates":[-51.410243,-22.093025]}},{"type":"Feature","properties":{"nome":"Parque Castelo Branco","osm_id":1820338517,"osm_tipo":"node","tipo_lugar":"suburb"},"geometry":{"type":"Point","coordinates":[-51.3853986,-22.0928196]}},{"type":"Feature","properties":{"nome":"Parque Jabaquara","osm_id":1820338527,"osm_tipo":"node","tipo_lugar":"suburb"},"geometry":{"type":"Point","coordinates":[-51.3885114,-22.0955301]}},{"type":"Feature","properties":{"nome":"Parque Primavera","osm_id":1820338531,"osm_tipo":"node","tipo_lugar":"suburb"},"geometry":{"type":"Point","coordinates":[-51.3819043,-22.0951501]}},{"type":"Feature","properties":{"nome":"Parque São Lucas","osm_id":1820338534,"osm_tipo":"node","tipo_lugar":"suburb"},"geometry":{"type":"Point","coordinates":[-51.4017338,-22.0970565]}},{"type":"Feature","properties":{"nome":"Parque São Matheus","osm_id":1820338537,"osm_tipo":"node","tipo_lugar":"suburb"},"geometry":{"type":"Point","coordinates":[-51.4055847,-22.0984657]}},{"type":"Feature","properties":{"nome":"Parque Watal Ishibashi","osm_id":1820338540,"osm_tipo":"node","tipo_lugar":"suburb"},"geometry":{"type":"Point","coordinates":[-51.3864412,-22.0871762]}},{"type":"Feature","properties":{"nome":"Residencial Monte Rey","osm_id":1820338546,"osm_tipo":"node","tipo_lugar":"suburb"},"geometry":{"type":"Point","coordinates":[-51.3910025,-22.090525]}},{"type":"Feature","properties":{"nome":"Residencial São Paulo","osm_id":1820338553,"osm_tipo":"node","tipo_lugar":"suburb"},"geometry":{"type":"Point","coordinates":[-51.4190352,-22.0899273]}},{"type":"Feature","properties":{"nome":"Residencial São Sebastião","osm_id":1820338556,"osm_tipo":"node","tipo_lugar":"suburb"},"geometry":{"type":"Point","coordinates":[-51.4030185,-22.0919432]}},{"type":"Feature","properties":{"nome":"Sítio São Pedro","osm_id":1820338564,"osm_tipo":"node","tipo_lugar":"suburb"},"geometry":{"type":"Point","coordinates":[-51.408775,-22.0999437]}},{"type":"Feature","properties":{"nome":"Cidade Universitária","osm_id":1820695980,"osm_tipo":"node","tipo_lugar":"suburb"},"geometry":{"type":"Point","coordinates":[-51.4472789,-22.126884]}},{"type":"Feature","properties":{"nome":"Conjunto Habitacional Mário Amato","osm_id":1820695985,"osm_tipo":"node","tipo_lugar":"suburb"},"geometry":{"type":"Point","coordinates":[-51.4525789,-22.1457368]}},{"type":"Feature","properties":{"nome":"Jardim Itaipú","osm_id":1820695987,"osm_tipo":"node","tipo_lugar":"suburb"},"geometry":{"type":"Point","coordinates":[-51.4423088,-22.12931]}},{"type":"Feature","properties":{"nome":"Jardim Prudentino","osm_id":1820695988,"osm_tipo":"node","tipo_lugar":"suburb"},"geometry":{"type":"Point","coordinates":[-51.4484286,-22.1459326]}},{"type":"Feature","properties":{"nome":"Jardim Santa Fé","osm_id":1820695989,"osm_tipo":"node","tipo_lugar":"suburb"},"geometry":{"type":"Point","coordinates":[-51.4525665,-22.1355444]}},{"type":"Feature","properties":{"nome":"Jardim Satélite","osm_id":1820695990,"osm_tipo":"node","tipo_lugar":"suburb"},"geometry":{"type":"Point","coordinates":[-51.4165883,-22.1386711]}},{"type":"Feature","properties":{"nome":"Jardim Tropical","osm_id":1820695991,"osm_tipo":"node","tipo_lugar":"suburb"},"geometry":{"type":"Point","coordinates":[-51.4447638,-22.131166]}},{"type":"Feature","properties":{"nome":"Jardim Vale do Sol","osm_id":1820695993,"osm_tipo":"node","tipo_lugar":"suburb"},"geometry":{"type":"Point","coordinates":[-51.4432076,-22.1215381]}},{"type":"Feature","properties":{"nome":"Jardim Vila Real","osm_id":1820695996,"osm_tipo":"node","tipo_lugar":"suburb"},"geometry":{"type":"Point","coordinates":[-51.4480373,-22.1316104]}},{"type":"Feature","properties":{"nome":"Parque Residencial Servantes II","osm_id":1820696009,"osm_tipo":"node","tipo_lugar":"suburb"},"geometry":{"type":"Point","coordinates":[-51.4410934,-22.1179599]}},{"type":"Feature","properties":{"nome":"Parque Shiraiwa","osm_id":1820696012,"osm_tipo":"node","tipo_lugar":"suburb"},"geometry":{"type":"Point","coordinates":[-51.4370176,-22.1282513]}},{"type":"Feature","properties":{"nome":"Residencial Green Ville","osm_id":1820696017,"osm_tipo":"node","tipo_lugar":"suburb"},"geometry":{"type":"Point","coordinates":[-51.4385792,-22.1028797]}},{"type":"Feature","properties":{"nome":"Residencial Nosaki","osm_id":1820696019,"osm_tipo":"node","tipo_lugar":"suburb"},"geometry":{"type":"Point","coordinates":[-51.4179839,-22.1363291]}},{"type":"Feature","properties":{"nome":"Chácara do Macuco","osm_id":1821743866,"osm_tipo":"node","tipo_lugar":"suburb"},"geometry":{"type":"Point","coordinates":[-51.4080952,-22.1480364]}},{"type":"Feature","properties":{"nome":"Jardim Alto de Boa Vista","osm_id":1821743872,"osm_tipo":"node","tipo_lugar":"suburb"},"geometry":{"type":"Point","coordinates":[-51.40929,-22.1444191]}},{"type":"Feature","properties":{"nome":"Parque Higienópolis","osm_id":1821743888,"osm_tipo":"node","tipo_lugar":"suburb"},"geometry":{"type":"Point","coordinates":[-51.4052719,-22.1465655]}},{"type":"Feature","properties":{"nome":"Residencial Florenza","osm_id":1821743902,"osm_tipo":"node","tipo_lugar":"suburb"},"geometry":{"type":"Point","coordinates":[-51.4233947,-22.1328124]}},{"type":"Feature","properties":{"nome":"Residencial Parque dos Girassóis","osm_id":1821743907,"osm_tipo":"node","tipo_lugar":"suburb"},"geometry":{"type":"Point","coordinates":[-51.4294328,-22.1305087]}},{"type":"Feature","properties":{"nome":"Parque dos Pinheiros I","osm_id":1823073549,"osm_tipo":"node","tipo_lugar":"suburb"},"geometry":{"type":"Point","coordinates":[-51.4166897,-22.0703441]}},{"type":"Feature","properties":{"nome":"Jardim Bongiovani","osm_id":1824161985,"osm_tipo":"node","tipo_lugar":"suburb"},"geometry":{"type":"Point","coordinates":[-51.4011202,-22.140452]}},{"type":"Feature","properties":{"nome":"Vila Formosa","osm_id":1824161993,"osm_tipo":"node","tipo_lugar":"suburb"},"geometry":{"type":"Point","coordinates":[-51.3943794,-22.1413135]}},{"type":"Feature","properties":{"nome":"Centro","osm_id":1825613871,"osm_tipo":"node","tipo_lugar":"suburb"},"geometry":{"type":"Point","coordinates":[-51.3899245,-22.1222412]}},{"type":"Feature","properties":{"nome":"Jardim Aviação","osm_id":1825613878,"osm_tipo":"node","tipo_lugar":"suburb"},"geometry":{"type":"Point","coordinates":[-51.3863034,-22.1074342]}},{"type":"Feature","properties":{"nome":"Jardim Bela Dária","osm_id":1825613881,"osm_tipo":"node","tipo_lugar":"suburb"},"geometry":{"type":"Point","coordinates":[-51.3869831,-22.1366231]}},{"type":"Feature","properties":{"nome":"Jardim Brasília","osm_id":1825613885,"osm_tipo":"node","tipo_lugar":"suburb"},"geometry":{"type":"Point","coordinates":[-51.3832903,-22.1403861]}},{"type":"Feature","properties":{"nome":"Jardim Cambuci","osm_id":1825613888,"osm_tipo":"node","tipo_lugar":"suburb"},"geometry":{"type":"Point","coordinates":[-51.3764827,-22.1505407]}},{"type":"Feature","properties":{"nome":"Jardim Itapura","osm_id":1825613891,"osm_tipo":"node","tipo_lugar":"suburb"},"geometry":{"type":"Point","coordinates":[-51.3713395,-22.1261665]}},{"type":"Feature","properties":{"nome":"Jardim Paraíso","osm_id":1825613895,"osm_tipo":"node","tipo_lugar":"suburb"},"geometry":{"type":"Point","coordinates":[-51.3750538,-22.1472951]}},{"type":"Feature","properties":{"nome":"Jardim Paulista","osm_id":1825613908,"osm_tipo":"node","tipo_lugar":"suburb"},"geometry":{"type":"Point","coordinates":[-51.4011619,-22.114447]}},{"type":"Feature","properties":{"nome":"Jardim Planaltina","osm_id":1825613913,"osm_tipo":"node","tipo_lugar":"suburb"},"geometry":{"type":"Point","coordinates":[-51.382322,-22.1437778]}},{"type":"Feature","properties":{"nome":"Jardim Santa Mônica","osm_id":1825613918,"osm_tipo":"node","tipo_lugar":"suburb"},"geometry":{"type":"Point","coordinates":[-51.3772361,-22.1440955]}},{"type":"Feature","properties":{"nome":"Jardim Sumaré","osm_id":1825613923,"osm_tipo":"node","tipo_lugar":"suburb"},"geometry":{"type":"Point","coordinates":[-51.3710388,-22.1382137]}},{"type":"Feature","properties":{"nome":"Jardim São Bento","osm_id":1825613928,"osm_tipo":"node","tipo_lugar":"suburb"},"geometry":{"type":"Point","coordinates":[-51.3769868,-22.1412659]}},{"type":"Feature","properties":{"nome":"Jardim São Domingos","osm_id":1825613930,"osm_tipo":"node","tipo_lugar":"suburb"},"geometry":{"type":"Point","coordinates":[-51.3766305,-22.1391386]}},{"type":"Feature","properties":{"nome":"Parque Furquim","osm_id":1825613934,"osm_tipo":"node","tipo_lugar":"suburb"},"geometry":{"type":"Point","coordinates":[-51.3747812,-22.1127173]}},{"type":"Feature","properties":{"nome":"Residencial Jarina","osm_id":1825613940,"osm_tipo":"node","tipo_lugar":"suburb"},"geometry":{"type":"Point","coordinates":[-51.3771605,-22.1146512]}},{"type":"Feature","properties":{"nome":"Vila Aurélio","osm_id":1825613943,"osm_tipo":"node","tipo_lugar":"suburb"},"geometry":{"type":"Point","coordinates":[-51.3795823,-22.1506999]}},{"type":"Feature","properties":{"nome":"Vila Brasil","osm_id":1825613954,"osm_tipo":"node","tipo_lugar":"suburb"},"geometry":{"type":"Point","coordinates":[-51.382302,-22.1331452]}},{"type":"Feature","properties":{"nome":"Vila Furquim","osm_id":1825613959,"osm_tipo":"node","tipo_lugar":"suburb"},"geometry":{"type":"Point","coordinates":[-51.3760592,-22.1175621]}},{"type":"Feature","properties":{"nome":"Vila Industrial","osm_id":1825613964,"osm_tipo":"node","tipo_lugar":"suburb"},"geometry":{"type":"Point","coordinates":[-51.3924248,-22.1377242]}},{"type":"Feature","properties":{"nome":"Vila Marcondes","osm_id":1825613968,"osm_tipo":"node","tipo_lugar":"suburb"},"geometry":{"type":"Point","coordinates":[-51.3796869,-22.1240604]}},{"type":"Feature","properties":{"nome":"Vila Maristela","osm_id":1825613973,"osm_tipo":"node","tipo_lugar":"suburb"},"geometry":{"type":"Point","coordinates":[-51.3814692,-22.1126752]}},{"type":"Feature","properties":{"nome":"Vila Nova","osm_id":1825613978,"osm_tipo":"node","tipo_lugar":"suburb"},"geometry":{"type":"Point","coordinates":[-51.3871137,-22.1284023]}},{"type":"Feature","properties":{"nome":"Vila São Jorge","osm_id":1825613981,"osm_tipo":"node","tipo_lugar":"suburb"},"geometry":{"type":"Point","coordinates":[-51.3897319,-22.1305084]}},{"type":"Feature","properties":{"nome":"Bairro do Bosque","osm_id":1826572692,"osm_tipo":"node","tipo_lugar":"suburb"},"geometry":{"type":"Point","coordinates":[-51.3842064,-22.1190023]}},{"type":"Feature","properties":{"nome":"CECAP","osm_id":1826572693,"osm_tipo":"node","tipo_lugar":"suburb"},"geometry":{"type":"Point","coordinates":[-51.4310347,-22.1118943]}},{"type":"Feature","properties":{"nome":"Cidade Universitária","osm_id":1826572695,"osm_tipo":"node","tipo_lugar":"suburb"},"geometry":{"type":"Point","coordinates":[-51.39998,-22.1327951]}},{"type":"Feature","properties":{"nome":"Conjunto Habitacional Bartholomeu Bueno de Miranda","osm_id":1826572696,"osm_tipo":"node","tipo_lugar":"suburb"},"geometry":{"type":"Point","coordinates":[-51.4276812,-22.1094493]}},{"type":"Feature","properties":{"nome":"Jardim América","osm_id":1826572697,"osm_tipo":"node","tipo_lugar":"suburb"},"geometry":{"type":"Point","coordinates":[-51.411312,-22.1004112]}},{"type":"Feature","properties":{"nome":"Jardim Aquinópolis","osm_id":1826572698,"osm_tipo":"node","tipo_lugar":"suburb"},"geometry":{"type":"Point","coordinates":[-51.4097815,-22.1326536]}},{"type":"Feature","properties":{"nome":"Jardim Bela Vista","osm_id":1826572699,"osm_tipo":"node","tipo_lugar":"suburb"},"geometry":{"type":"Point","coordinates":[-51.4198815,-22.1118476]}},{"type":"Feature","properties":{"nome":"Jardim Belo Horizonte","osm_id":1826572700,"osm_tipo":"node","tipo_lugar":"suburb"},"geometry":{"type":"Point","coordinates":[-51.405441,-22.1079616]}},{"type":"Feature","properties":{"nome":"Jardim Caiçára","osm_id":1826572701,"osm_tipo":"node","tipo_lugar":"suburb"},"geometry":{"type":"Point","coordinates":[-51.4028625,-22.1308616]}},{"type":"Feature","properties":{"nome":"Jardim Cambuy","osm_id":1826572702,"osm_tipo":"node","tipo_lugar":"suburb"},"geometry":{"type":"Point","coordinates":[-51.4243577,-22.1270787]}},{"type":"Feature","properties":{"nome":"Jardim Campo Belo","osm_id":1826572703,"osm_tipo":"node","tipo_lugar":"suburb"},"geometry":{"type":"Point","coordinates":[-51.4152382,-22.1234549]}},{"type":"Feature","properties":{"nome":"Jardim Cinquentenário","osm_id":1826572708,"osm_tipo":"node","tipo_lugar":"suburb"},"geometry":{"type":"Point","coordinates":[-51.4109256,-22.1284834]}},{"type":"Feature","properties":{"nome":"Jardim Colina","osm_id":1826572711,"osm_tipo":"node","tipo_lugar":"suburb"},"geometry":{"type":"Point","coordinates":[-51.4123433,-22.1301422]}},{"type":"Feature","properties":{"nome":"Jardim Icaraí","osm_id":1826572712,"osm_tipo":"node","tipo_lugar":"suburb"},"geometry":{"type":"Point","coordinates":[-51.4135716,-22.1251354]}},{"type":"Feature","properties":{"nome":"Jardim Jequitibás","osm_id":1826572714,"osm_tipo":"node","tipo_lugar":"suburb"},"geometry":{"type":"Point","coordinates":[-51.4344174,-22.1174798]}},{"type":"Feature","properties":{"nome":"Jardim Maracanã","osm_id":1826572718,"osm_tipo":"node","tipo_lugar":"suburb"},"geometry":{"type":"Point","coordinates":[-51.4152735,-22.1010032]}},{"type":"Feature","properties":{"nome":"Jardim Monte Alto","osm_id":1826572719,"osm_tipo":"node","tipo_lugar":"suburb"},"geometry":{"type":"Point","coordinates":[-51.4237985,-22.1213054]}},{"type":"Feature","properties":{"nome":"Jardim Ouro Verde","osm_id":1826572721,"osm_tipo":"node","tipo_lugar":"suburb"},"geometry":{"type":"Point","coordinates":[-51.4433901,-22.111078]}},{"type":"Feature","properties":{"nome":"Jardim Paris","osm_id":1826572723,"osm_tipo":"node","tipo_lugar":"suburb"},"geometry":{"type":"Point","coordinates":[-51.411905,-22.1260235]}},{"type":"Feature","properties":{"nome":"Jardim Petrópolis","osm_id":1826572725,"osm_tipo":"node","tipo_lugar":"suburb"},"geometry":{"type":"Point","coordinates":[-51.4161673,-22.1218154]}},{"type":"Feature","properties":{"nome":"Jardim Planalto","osm_id":1826572732,"osm_tipo":"node","tipo_lugar":"suburb"},"geometry":{"type":"Point","coordinates":[-51.3851966,-22.1476573]}},{"type":"Feature","properties":{"nome":"Jardim Sabará","osm_id":1826572734,"osm_tipo":"node","tipo_lugar":"suburb"},"geometry":{"type":"Point","coordinates":[-51.4219402,-22.1154849]}},{"type":"Feature","properties":{"nome":"Jardim Santa Clara","osm_id":1826572736,"osm_tipo":"node","tipo_lugar":"suburb"},"geometry":{"type":"Point","coordinates":[-51.4103536,-22.1043184]}},{"type":"Feature","properties":{"nome":"Jardim Santa Eliza","osm_id":1826572738,"osm_tipo":"node","tipo_lugar":"suburb"},"geometry":{"type":"Point","coordinates":[-51.4194277,-22.1096206]}},{"type":"Feature","properties":{"nome":"Jardim Santa Helena","osm_id":1826572740,"osm_tipo":"node","tipo_lugar":"suburb"},"geometry":{"type":"Point","coordinates":[-51.3954581,-22.1196641]}},{"type":"Feature","properties":{"nome":"Jardim Santa Olga","osm_id":1826572741,"osm_tipo":"node","tipo_lugar":"suburb"},"geometry":{"type":"Point","coordinates":[-51.4077977,-22.1056356]}},{"type":"Feature","properties":{"nome":"Jardim Santa Paula","osm_id":1826572742,"osm_tipo":"node","tipo_lugar":"suburb"},"geometry":{"type":"Point","coordinates":[-51.4264289,-22.114495]}},{"type":"Feature","properties":{"nome":"Jardim São Geraldo","osm_id":1826572744,"osm_tipo":"node","tipo_lugar":"suburb"},"geometry":{"type":"Point","coordinates":[-51.4230801,-22.1068539]}},{"type":"Feature","properties":{"nome":"Jardim São Paulo","osm_id":1826572745,"osm_tipo":"node","tipo_lugar":"suburb"},"geometry":{"type":"Point","coordinates":[-51.4235477,-22.1097591]}},{"type":"Feature","properties":{"nome":"Jardim Vale Verde","osm_id":1826572747,"osm_tipo":"node","tipo_lugar":"suburb"},"geometry":{"type":"Point","coordinates":[-51.4362541,-22.1057427]}},{"type":"Feature","properties":{"nome":"Jardim das Rosas","osm_id":1826572750,"osm_tipo":"node","tipo_lugar":"suburb"},"geometry":{"type":"Point","coordinates":[-51.4092696,-22.1175526]}},{"type":"Feature","properties":{"nome":"Parque Cedral","osm_id":1826572751,"osm_tipo":"node","tipo_lugar":"suburb"},"geometry":{"type":"Point","coordinates":[-51.4280737,-22.1221378]}},{"type":"Feature","properties":{"nome":"Parque Mediterrâneo","osm_id":1826572752,"osm_tipo":"node","tipo_lugar":"suburb"},"geometry":{"type":"Point","coordinates":[-51.4303852,-22.1028462]}},{"type":"Feature","properties":{"nome":"Parque Residencial Funada","osm_id":1826572754,"osm_tipo":"node","tipo_lugar":"suburb"},"geometry":{"type":"Point","coordinates":[-51.4315975,-22.1005114]}},{"type":"Feature","properties":{"nome":"Parque Residencial Servantes","osm_id":1826572756,"osm_tipo":"node","tipo_lugar":"suburb"},"geometry":{"type":"Point","coordinates":[-51.4397185,-22.1089605]}},{"type":"Feature","properties":{"nome":"Parque São Judas Tadeu","osm_id":1826572757,"osm_tipo":"node","tipo_lugar":"suburb"},"geometry":{"type":"Point","coordinates":[-51.4003141,-22.1083821]}},{"type":"Feature","properties":{"nome":"Parque das Cerejeiras","osm_id":1826572758,"osm_tipo":"node","tipo_lugar":"suburb"},"geometry":{"type":"Point","coordinates":[-51.4153528,-22.1300963]}},{"type":"Feature","properties":{"nome":"Residencial Carandá","osm_id":1826572761,"osm_tipo":"node","tipo_lugar":"suburb"},"geometry":{"type":"Point","coordinates":[-51.4258323,-22.095971]}},{"type":"Feature","properties":{"nome":"Vila Charlote","osm_id":1826572767,"osm_tipo":"node","tipo_lugar":"suburb"},"geometry":{"type":"Point","coordinates":[-51.4014424,-22.1217975]}},{"type":"Feature","properties":{"nome":"Vila Geni","osm_id":1826572769,"osm_tipo":"node","tipo_lugar":"suburb"},"geometry":{"type":"Point","coordinates":[-51.4025054,-22.1108911]}},{"type":"Feature","properties":{"nome":"Vila Malama","osm_id":1826572772,"osm_tipo":"node","tipo_lugar":"neighbourhood"},"geometry":{"type":"Point","coordinates":[-51.3967162,-22.1243231]}},{"type":"Feature","properties":{"nome":"Residencial Vivenda","osm_id":1827694679,"osm_tipo":"node","tipo_lugar":"suburb"},"geometry":{"type":"Point","coordinates":[-51.4188994,-22.1225064]}},{"type":"Feature","properties":{"nome":"Jardim Santa Filomena","osm_id":1829708700,"osm_tipo":"node","tipo_lugar":"suburb"},"geometry":{"type":"Point","coordinates":[-51.3816912,-22.1282657]}},{"type":"Feature","properties":{"nome":"Vale das Parreiras","osm_id":1829708702,"osm_tipo":"node","tipo_lugar":"suburb"},"geometry":{"type":"Point","coordinates":[-51.3826272,-22.1046309]}},{"type":"Feature","properties":{"nome":"Vila Centenário","osm_id":1829708703,"osm_tipo":"node","tipo_lugar":"suburb"},"geometry":{"type":"Point","coordinates":[-51.3732726,-22.1300834]}},{"type":"Feature","properties":{"nome":"Vila Lessa","osm_id":1829708704,"osm_tipo":"node","tipo_lugar":"suburb"},"geometry":{"type":"Point","coordinates":[-51.3735784,-22.1202626]}},{"type":"Feature","properties":{"nome":"Vila Luso","osm_id":1829708719,"osm_tipo":"node","tipo_lugar":"suburb"},"geometry":{"type":"Point","coordinates":[-51.3729664,-22.1185762]}},{"type":"Feature","properties":{"nome":"Vila Tazitsu","osm_id":1829708724,"osm_tipo":"node","tipo_lugar":"suburb"},"geometry":{"type":"Point","coordinates":[-51.3925792,-22.1102266]}},{"type":"Feature","properties":{"nome":"Rotta do Sol","osm_id":1846760824,"osm_tipo":"node","tipo_lugar":"suburb"},"geometry":{"type":"Point","coordinates":[-51.464769,-22.1375812]}},{"type":"Feature","properties":{"nome":"Loteamento Terras do Imoplan","osm_id":1959459997,"osm_tipo":"node","tipo_lugar":"suburb"},"geometry":{"type":"Point","coordinates":[-51.3466233,-22.1604299]}},{"type":"Feature","properties":{"nome":"Terras de Yamamoto","osm_id":1959459999,"osm_tipo":"node","tipo_lugar":"suburb"},"geometry":{"type":"Point","coordinates":[-51.3297299,-22.1074622]}},{"type":"Feature","properties":{"nome":"Central Park Residence","osm_id":2214808312,"osm_tipo":"node","tipo_lugar":"suburb"},"geometry":{"type":"Point","coordinates":[-51.4186394,-22.1256386]}},{"type":"Feature","properties":{"nome":"Condomínio Residencial Bela Vista","osm_id":2273936562,"osm_tipo":"node","tipo_lugar":"suburb"},"geometry":{"type":"Point","coordinates":[-51.4120422,-22.0841256]}},{"type":"Feature","properties":{"nome":"Jardim Itapura III","osm_id":2273936565,"osm_tipo":"node","tipo_lugar":"suburb"},"geometry":{"type":"Point","coordinates":[-51.3726929,-22.1194451]}},{"type":"Feature","properties":{"nome":"Bairro Novo Oeste","osm_id":2299538462,"osm_tipo":"node","tipo_lugar":"suburb"},"geometry":{"type":"Point","coordinates":[-51.3596955,-22.0862115]}},{"type":"Feature","properties":{"nome":"Jardim Morada do Sol","osm_id":2299538465,"osm_tipo":"node","tipo_lugar":"suburb"},"geometry":{"type":"Point","coordinates":[-51.3608474,-22.0739236]}},{"type":"Feature","properties":{"nome":"Parque Imperial","osm_id":2299538467,"osm_tipo":"node","tipo_lugar":"suburb"},"geometry":{"type":"Point","coordinates":[-51.4301259,-22.0825845]}},{"type":"Feature","properties":{"nome":"Parque Residencial Francisco Belo Galindo","osm_id":2299538468,"osm_tipo":"node","tipo_lugar":"suburb"},"geometry":{"type":"Point","coordinates":[-51.3585315,-22.075278]}},{"type":"Feature","properties":{"nome":"Residencial Maré Mansa","osm_id":2299538470,"osm_tipo":"node","tipo_lugar":"suburb"},"geometry":{"type":"Point","coordinates":[-51.4334695,-22.084874]}},{"type":"Feature","properties":{"nome":"Vila Rotária \"Arch C. Klumph\"","osm_id":2371869648,"osm_tipo":"node","tipo_lugar":"neighbourhood"},"geometry":{"type":"Point","coordinates":[-51.3827556,-22.1489972]}},{"type":"Feature","properties":{"nome":"Jardim São Luiz","osm_id":2464290586,"osm_tipo":"node","tipo_lugar":"suburb"},"geometry":{"type":"Point","coordinates":[-51.4115429,-22.1373085]}},{"type":"Feature","properties":{"nome":"Bairro Caravina","osm_id":2637035769,"osm_tipo":"node","tipo_lugar":"suburb"},"geometry":{"type":"Point","coordinates":[-51.4729996,-22.1389702]}},{"type":"Feature","properties":{"nome":"Jardim Novo Prudentino","osm_id":2673047385,"osm_tipo":"node","tipo_lugar":"suburb"},"geometry":{"type":"Point","coordinates":[-51.4576244,-22.1618032]}},{"type":"Feature","properties":{"nome":"Chácara Filadélfia","osm_id":2876521391,"osm_tipo":"node","tipo_lugar":"neighbourhood"},"geometry":{"type":"Point","coordinates":[-51.3498612,-22.1259918]}},{"type":"Feature","properties":{"nome":"Jardim Panorâmico","osm_id":3166527397,"osm_tipo":"node","tipo_lugar":"suburb"},"geometry":{"type":"Point","coordinates":[-51.4166478,-22.0806336]}},{"type":"Feature","properties":{"nome":"Santo Expedito I","osm_id":3166527398,"osm_tipo":"node","tipo_lugar":"suburb"},"geometry":{"type":"Point","coordinates":[-51.4080707,-22.0746983]}},{"type":"Feature","properties":{"nome":"Residencial Tapajós","osm_id":3166527399,"osm_tipo":"node","tipo_lugar":"suburb"},"geometry":{"type":"Point","coordinates":[-51.3797827,-22.0836843]}},{"type":"Feature","properties":{"nome":"Residencial Bela Vista I","osm_id":3166527400,"osm_tipo":"node","tipo_lugar":"suburb"},"geometry":{"type":"Point","coordinates":[-51.3790958,-22.0814479]}},{"type":"Feature","properties":{"nome":"Residencial Cremonezi","osm_id":3166527401,"osm_tipo":"node","tipo_lugar":"suburb"},"geometry":{"type":"Point","coordinates":[-51.3797456,-22.0794523]}},{"type":"Feature","properties":{"nome":"Grupo Educacional Esquema","osm_id":3166669309,"osm_tipo":"node","tipo_lugar":"suburb"},"geometry":{"type":"Point","coordinates":[-51.4273289,-22.1019033]}},{"type":"Feature","properties":{"nome":"Jardim Everest","osm_id":3635307054,"osm_tipo":"node","tipo_lugar":"suburb"},"geometry":{"type":"Point","coordinates":[-51.4304335,-22.1064918]}},{"type":"Feature","properties":{"nome":"Vila Nova Prudente","osm_id":3723643886,"osm_tipo":"node","tipo_lugar":"suburb"},"geometry":{"type":"Point","coordinates":[-51.386264,-22.1566494]}},{"type":"Feature","properties":{"nome":"Jardim Morumbi","osm_id":3810062765,"osm_tipo":"node","tipo_lugar":"suburb"},"geometry":{"type":"Point","coordinates":[-51.4157678,-22.1258493]}},{"type":"Feature","properties":{"nome":"Jardim Santana","osm_id":4081947645,"osm_tipo":"node","tipo_lugar":"suburb"},"geometry":{"type":"Point","coordinates":[-51.3877747,-22.1462174]}},{"type":"Feature","properties":{"nome":"Bairro Aviação","osm_id":4265548986,"osm_tipo":"node","tipo_lugar":"suburb"},"geometry":{"type":"Point","coordinates":[-51.4139927,-22.1943023]}},{"type":"Feature","properties":{"nome":"Bairro Córrego do Norte","osm_id":4265549294,"osm_tipo":"node","tipo_lugar":"suburb"},"geometry":{"type":"Point","coordinates":[-51.3139666,-22.0039937]}},{"type":"Feature","properties":{"nome":"Bairro Floresta","osm_id":4265549295,"osm_tipo":"node","tipo_lugar":"suburb"},"geometry":{"type":"Point","coordinates":[-51.3741438,-22.0025621]}},{"type":"Feature","properties":{"nome":"Bairro Magalhães","osm_id":4265549302,"osm_tipo":"node","tipo_lugar":"suburb"},"geometry":{"type":"Point","coordinates":[-51.4648963,-22.1403302]}},{"type":"Feature","properties":{"nome":"Bairro Magalhães","osm_id":4265549303,"osm_tipo":"node","tipo_lugar":"suburb"},"geometry":{"type":"Point","coordinates":[-51.4783432,-22.150436]}},{"type":"Feature","properties":{"nome":"Bairro Mandaguari","osm_id":4265549304,"osm_tipo":"node","tipo_lugar":"suburb"},"geometry":{"type":"Point","coordinates":[-51.3092751,-22.0188865]}},{"type":"Feature","properties":{"nome":"Bairro Primeiro de Maio","osm_id":4265549314,"osm_tipo":"node","tipo_lugar":"suburb"},"geometry":{"type":"Point","coordinates":[-51.3707783,-22.016813]}},{"type":"Feature","properties":{"nome":"Bairro Quilômetro Sete","osm_id":4265549319,"osm_tipo":"node","tipo_lugar":"suburb"},"geometry":{"type":"Point","coordinates":[-51.3674658,-22.0781102]}},{"type":"Feature","properties":{"nome":"Bairro São João","osm_id":4265549322,"osm_tipo":"node","tipo_lugar":"suburb"},"geometry":{"type":"Point","coordinates":[-51.4340533,-22.1326332]}},{"type":"Feature","properties":{"nome":"Bairro Timburi","osm_id":4265549323,"osm_tipo":"node","tipo_lugar":"suburb"},"geometry":{"type":"Point","coordinates":[-51.3621191,-22.0024056]}},{"type":"Feature","properties":{"nome":"Bairro do Cedro","osm_id":4265549328,"osm_tipo":"node","tipo_lugar":"suburb"},"geometry":{"type":"Point","coordinates":[-51.4238464,-22.1573116]}},{"type":"Feature","properties":{"nome":"Parque José Rotta","osm_id":4265549377,"osm_tipo":"node","tipo_lugar":"suburb"},"geometry":{"type":"Point","coordinates":[-51.3727604,-22.1479986]}},{"type":"Feature","properties":{"nome":"Residencial Anita Tiezzi","osm_id":4265549378,"osm_tipo":"node","tipo_lugar":"suburb"},"geometry":{"type":"Point","coordinates":[-51.4609148,-22.1435769]}},{"type":"Feature","properties":{"nome":"Residencial Monte Carlo","osm_id":4265549379,"osm_tipo":"node","tipo_lugar":"suburb"},"geometry":{"type":"Point","coordinates":[-51.4584949,-22.1526435]}},{"type":"Feature","properties":{"nome":"Vila Boscoli","osm_id":4697462771,"osm_tipo":"node","tipo_lugar":"neighbourhood"},"geometry":{"type":"Point","coordinates":[-51.3969406,-22.12535]}},{"type":"Feature","properties":{"nome":"Residencial Bongiovani","osm_id":8785588621,"osm_tipo":"node","tipo_lugar":"suburb"},"geometry":{"type":"Point","coordinates":[-51.4214973,-22.0858758]}},{"type":"Feature","properties":{"nome":"Residencial Anitta Bongiovani","osm_id":8785588622,"osm_tipo":"node","tipo_lugar":"suburb"},"geometry":{"type":"Point","coordinates":[-51.4223326,-22.0846427]}},{"type":"Feature","properties":{"nome":"Porto Madero Residence","osm_id":8825928847,"osm_tipo":"node","tipo_lugar":"suburb"},"geometry":{"type":"Point","coordinates":[-51.4291549,-22.144664]}},{"type":"Feature","properties":{"nome":"Damha Belvedere","osm_id":8825928848,"osm_tipo":"node","tipo_lugar":"suburb"},"geometry":{"type":"Point","coordinates":[-51.426847,-22.1413055]}},{"type":"Feature","properties":{"nome":"Damha Beatriz","osm_id":8825928849,"osm_tipo":"node","tipo_lugar":"suburb"},"geometry":{"type":"Point","coordinates":[-51.4263844,-22.1445932]}},{"type":"Feature","properties":{"nome":"Damha II","osm_id":8825928850,"osm_tipo":"node","tipo_lugar":"suburb"},"geometry":{"type":"Point","coordinates":[-51.426507,-22.1496918]}},{"type":"Feature","properties":{"nome":"Damha I","osm_id":8825928851,"osm_tipo":"node","tipo_lugar":"suburb"},"geometry":{"type":"Point","coordinates":[-51.4203511,-22.146313]}},{"type":"Feature","properties":{"nome":"Damha III","osm_id":8825928852,"osm_tipo":"node","tipo_lugar":"suburb"},"geometry":{"type":"Point","coordinates":[-51.4163026,-22.1477456]}},{"type":"Feature","properties":{"nome":"Damha IV","osm_id":8825928853,"osm_tipo":"node","tipo_lugar":"suburb"},"geometry":{"type":"Point","coordinates":[-51.4290838,-22.1545962]}},{"type":"Feature","properties":{"nome":"Golden Village","osm_id":8825928854,"osm_tipo":"node","tipo_lugar":"suburb"},"geometry":{"type":"Point","coordinates":[-51.405566,-22.1550023]}},{"type":"Feature","properties":{"nome":"Bourbon Parc","osm_id":8825928855,"osm_tipo":"node","tipo_lugar":"suburb"},"geometry":{"type":"Point","coordinates":[-51.4026899,-22.1608819]}},{"type":"Feature","properties":{"nome":"Quinta das Flores","osm_id":8825928856,"osm_tipo":"node","tipo_lugar":"suburb"},"geometry":{"type":"Point","coordinates":[-51.4094264,-22.1660707]}},{"type":"Feature","properties":{"nome":"Tamboré Prudente","osm_id":8825928857,"osm_tipo":"node","tipo_lugar":"suburb"},"geometry":{"type":"Point","coordinates":[-51.4067188,-22.1656716]}},{"type":"Feature","properties":{"nome":"Parque dos Resedás","osm_id":9181364205,"osm_tipo":"node","tipo_lugar":"suburb"},"geometry":{"type":"Point","coordinates":[-51.3665562,-22.1466389]}},{"type":"Feature","properties":{"nome":"Parque dos Buritis","osm_id":942223448,"osm_tipo":"way","tipo_lugar":"suburb"},"geometry":{"type":"Polygon","coordinates":[[[-51.4571198,-22.1210926],[-51.4535061,-22.1288491],[-51.4550179,-22.1290454],[-51.4542521,-22.1309177],[-51.462849,-22.131958],[-51.4633199,-22.1266195],[-51.4594673,-22.1262017],[-51.4594935,-22.1242972],[-51.456944,-22.1241457],[-51.4571198,-22.1210926]]]}},{"type":"Feature","properties":{"nome":"Residencial Minerva 2","osm_id":1186951680,"osm_tipo":"way","tipo_lugar":"suburb"},"geometry":{"type":"Polygon","coordinates":[[[-51.475099,-22.1469962],[-51.4773163,-22.1486166],[-51.4764128,-22.1529739],[-51.4697096,-22.1581824],[-51.4689112,-22.1560732],[-51.475099,-22.1469962]]]}},{"type":"Feature","properties":{"nome":"Parque Príncipe de Astúrias","osm_id":3149128,"osm_tipo":"relation","tipo_lugar":"suburb"},"geometry":{"type":"Polygon","coordinates":[[[-51.4098882,-22.1092816],[-51.4096798,-22.1081877],[-51.410689,-22.1080287],[-51.4098882,-22.1092816]]]}},{"type":"Feature","properties":{"nome":"Parque Residencial Damha III","osm_id":3224671,"osm_tipo":"relation","tipo_lugar":"suburb"},"geometry":{"type":"MultiPolygon","coordinates":[[[[-51.4167925,-22.1485676],[-51.416897,-22.1486688],[-51.4188353,-22.1496991],[-51.4167925,-22.1485676]]],[[[-51.4173899,-22.1474093],[-51.4193965,-22.1493862],[-51.4188353,-22.1496991],[-51.4173899,-22.1474093]]],[[[-51.4170554,-22.1470579],[-51.4170839,-22.1470866],[-51.4173899,-22.1474093],[-51.4170554,-22.1470579]]],[[[-51.4203907,-22.1523221],[-51.4179608,-22.1538548],[-51.4120938,-22.147091],[-51.4134437,-22.1459209],[-51.4167015,-22.1466141],[-51.4203907,-22.1523221]]],[[[-51.4203907,-22.1523221],[-51.4148654,-22.1490149],[-51.4156496,-22.1481939],[-51.4203907,-22.1523221]]],[[[-51.4156496,-22.1481939],[-51.4159844,-22.1484658],[-51.4167057,-22.1485066],[-51.4156496,-22.1481939]]]]}},{"type":"Feature","properties":{"nome":"Jardim Marupiara","osm_id":3304101,"osm_tipo":"relation","tipo_lugar":"suburb"},"geometry":{"type":"MultiPolygon","coordinates":[[[[-51.4043155,-22.1231626],[-51.4055976,-22.1241341],[-51.4058007,-22.1251968],[-51.4043155,-22.1231626]]],[[[-51.4058007,-22.1251968],[-51.4057641,-22.1253822],[-51.4057356,-22.125467],[-51.4058007,-22.1251968]]],[[[-51.4081768,-22.1244586],[-51.4066848,-22.1249354],[-51.4058259,-22.1254728],[-51.4081768,-22.1244586]]],[[[-51.4082068,-22.1242778],[-51.4081882,-22.1244003],[-51.4081768,-22.1244586],[-51.4082068,-22.1242778]]],[[[-51.405829,-22.1223511],[-51.4055028,-22.1224955],[-51.4043225,-22.123037],[-51.405829,-22.1223511]]]]}},{"type":"Feature","properties":{"nome":"Conjunto Habitacional José de Souza Reis","osm_id":6357682,"osm_tipo":"relation","tipo_lugar":"suburb"},"geometry":{"type":"MultiPolygon","coordinates":[[[[-51.3674622,-22.1398883],[-51.3676131,-22.1398283],[-51.3677023,-22.1398154],[-51.3674622,-22.1398883]]],[[[-51.3687293,-22.1392037],[-51.3677779,-22.1393224],[-51.3677023,-22.1398154],[-51.3687293,-22.1392037]]],[[[-51.3697444,-22.1390681],[-51.3691938,-22.1391413],[-51.3687293,-22.1392037],[-51.3697444,-22.1390681]]],[[[-51.370111,-22.1395888],[-51.3699111,-22.1392992],[-51.3697444,-22.1390681],[-51.370111,-22.1395888]]],[[[-51.3693671,-22.1411382],[-51.3690713,-22.1408753],[-51.3691109,-22.1406787],[-51.3693671,-22.1411382]]],[[[-51.3676175,-22.1403398],[-51.3674363,-22.140196],[-51.367419,-22.1399322],[-51.3676175,-22.1403398]]]]}},{"type":"Feature","properties":{"nome":"Conjunto Habitacional Pedro Cassimiro da Motta","osm_id":6357683,"osm_tipo":"relation","tipo_lugar":"suburb"},"geometry":{"type":"Polygon","coordinates":[[[-51.4097363,-22.0900439],[-51.406667,-22.0886498],[-51.4071827,-22.0880829],[-51.4097363,-22.0900439]]]}},{"type":"Feature","properties":{"nome":"Jardim Paraíso","osm_id":6357684,"osm_tipo":"relation","tipo_lugar":"suburb"},"geometry":{"type":"MultiPolygon","coordinates":[[[[-51.3772027,-22.1513437],[-51.3773076,-22.1512571],[-51.3773887,-22.1511524],[-51.3772027,-22.1513437]]],[[[-51.3773887,-22.1511524],[-51.3774424,-22.1510959],[-51.3775606,-22.150796],[-51.3773887,-22.1511524]]],[[[-51.3775606,-22.150796],[-51.3775385,-22.1498644],[-51.3754017,-22.1459933],[-51.3775606,-22.150796]]],[[[-51.3754017,-22.1459933],[-51.3745067,-22.1461008],[-51.3743217,-22.146106],[-51.3754017,-22.1459933]]],[[[-51.3743217,-22.146106],[-51.3739097,-22.1459426],[-51.372649,-22.1451801],[-51.3743217,-22.146106]]],[[[-51.3721489,-22.1450743],[-51.3728312,-22.1468218],[-51.3733389,-22.1479311],[-51.3721489,-22.1450743]]],[[[-51.3733389,-22.1479311],[-51.3738139,-22.1490181],[-51.3740582,-22.1496156],[-51.3733389,-22.1479311]]],[[[-51.3740582,-22.1496156],[-51.3745338,-22.1508152],[-51.3754255,-22.1503899],[-51.3740582,-22.1496156]]],[[[-51.3756883,-22.1508579],[-51.3747985,-22.1512291],[-51.3753214,-22.1526854],[-51.3756883,-22.1508579]]],[[[-51.3763515,-22.1519767],[-51.3767129,-22.1516223],[-51.3772027,-22.1513437],[-51.3763515,-22.1519767]]]]}},{"type":"Feature","properties":{"nome":"Parque José Rotta","osm_id":6357685,"osm_tipo":"relation","tipo_lugar":"suburb"},"geometry":{"type":"MultiPolygon","coordinates":[[[[-51.3721489,-22.1450743],[-51.3728312,-22.1468218],[-51.3733389,-22.1479311],[-51.3721489,-22.1450743]]],[[[-51.3733389,-22.1479311],[-51.3738139,-22.1490181],[-51.3740582,-22.1496156],[-51.3733389,-22.1479311]]],[[[-51.3740582,-22.1496156],[-51.3734824,-22.15112],[-51.3725536,-22.1503391],[-51.3740582,-22.1496156]]],[[[-51.3725536,-22.1503391],[-51.3722153,-22.1489175],[-51.3721165,-22.1485305],[-51.3725536,-22.1503391]]],[[[-51.3721165,-22.1485305],[-51.3716061,-22.1465296],[-51.3715031,-22.1461261],[-51.3721165,-22.1485305]]],[[[-51.3715031,-22.1461261],[-51.3711808,-22.1449253],[-51.3721489,-22.1450743],[-51.3715031,-22.1461261]]]]}},{"type":"Feature","properties":{"nome":"Parque Residencial Damha I","osm_id":6357686,"osm_tipo":"relation","tipo_lugar":"suburb"},"geometry":{"type":"Polygon","coordinates":[[[-51.4124805,-22.1432769],[-51.4169913,-22.14154],[-51.4200893,-22.144533],[-51.4250631,-22.1445746],[-51.4244432,-22.1477247],[-51.4207309,-22.1502726],[-51.4124805,-22.1432769]]]}},{"type":"Feature","properties":{"nome":"Parque Residencial Damha II","osm_id":6357687,"osm_tipo":"relation","tipo_lugar":"suburb"},"geometry":{"type":"Polygon","coordinates":[[[-51.4226665,-22.1506323],[-51.4245153,-22.1534132],[-51.429526,-22.1520246],[-51.4299781,-22.1468194],[-51.4252765,-22.1462651],[-51.4226665,-22.1506323]]]}},{"type":"Feature","properties":{"nome":"Residencial Anita Tiezzi","osm_id":6357688,"osm_tipo":"relation","tipo_lugar":"suburb"},"geometry":{"type":"MultiPolygon","coordinates":[[[[-51.4626048,-22.1416101],[-51.4628767,-22.1415172],[-51.4632989,-22.1455842],[-51.4626048,-22.1416101]]],[[[-51.4590614,-22.1427766],[-51.4617681,-22.1418918],[-51.4626048,-22.1416101],[-51.4590614,-22.1427766]]],[[[-51.4601086,-22.1440485],[-51.4594205,-22.1447743],[-51.4576385,-22.1432606],[-51.4601086,-22.1440485]]],[[[-51.4624459,-22.1456914],[-51.4622875,-22.1458785],[-51.4601086,-22.1440485],[-51.4624459,-22.1456914]]],[[[-51.4624459,-22.1456914],[-51.4625365,-22.1456439],[-51.4630725,-22.1455859],[-51.4624459,-22.1456914]]]]}},{"type":"Feature","properties":{"nome":"Residencial Beatriz","osm_id":6357689,"osm_tipo":"relation","tipo_lugar":"suburb"},"geometry":{"type":"Polygon","coordinates":[[[-51.4262211,-22.1459995],[-51.4274145,-22.144361],[-51.4256454,-22.1438595],[-51.4262211,-22.1459995]]]}},{"type":"Feature","properties":{"nome":"Residencial Golden Village","osm_id":6357690,"osm_tipo":"relation","tipo_lugar":"suburb"},"geometry":{"type":"Polygon","coordinates":[[[-51.4060636,-22.1549916],[-51.4069454,-22.1565821],[-51.4047528,-22.1571705],[-51.4039831,-22.1537056],[-51.4049774,-22.1530621],[-51.4060636,-22.1549916]]]}},{"type":"Feature","properties":{"nome":"Residencial Jardins do Anahy","osm_id":6357691,"osm_tipo":"relation","tipo_lugar":"suburb"},"geometry":{"type":"Polygon","coordinates":[[[-51.4226103,-22.1380697],[-51.4208782,-22.136503],[-51.42033,-22.1374233],[-51.4226103,-22.1380697]]]}},{"type":"Feature","properties":{"nome":"Residencial Monte Carlo","osm_id":6357692,"osm_tipo":"relation","tipo_lugar":"suburb"},"geometry":{"type":"MultiPolygon","coordinates":[[[[-51.4572371,-22.1547653],[-51.4589586,-22.1566281],[-51.459338,-22.1543857],[-51.4572371,-22.1547653]]],[[[-51.459338,-22.1543857],[-51.4599665,-22.1504019],[-51.457856,-22.1494785],[-51.4571476,-22.1546517],[-51.459338,-22.1543857]]]]}}]}