{"type":"FeatureCollection","features":[{"type":"Feature","properties":{"nome":"Centro","osm_id":5779375887,"osm_tipo":"node","tipo_lugar":"neighbourhood"},"geometry":{"type":"Point","coordinates":[-48.0556434,-23.299115]}},{"type":"Feature","properties":{"nome":"Jardim Tonico Vieira","osm_id":7810614845,"osm_tipo":"node","tipo_lugar":"suburb"},"geometry":{"type":"Point","coordinates":[-48.0549601,-23.302178]}},{"type":"Feature","properties":{"nome":"Jardim Santo Antônio","osm_id":7810614846,"osm_tipo":"node","tipo_lugar":"suburb"},"geometry":{"type":"Point","coordinates":[-48.0570884,-23.3016949]}},{"type":"Feature","properties":{"nome":"Tijuco Preto","osm_id":7881375004,"osm_tipo":"node","tipo_lugar":"suburb"},"geometry":{"type":"Point","coordinates":[-48.0401504,-23.3654389]}},{"type":"Feature","properties":{"nome":"Guarapó","osm_id":7881375005,"osm_tipo":"node","tipo_lugar":"suburb"},"geometry":{"type":"Point","coordinates":[-48.0382657,-23.3498259]}},{"type":"Feature","properties":{"nome":"Campininha","osm_id":7881375006,"osm_tipo":"node","tipo_lugar":"suburb"},"geometry":{"type":"Point","coordinates":[-48.0835694,-23.3576177]}},{"type":"Feature","properties":{"nome":"Palmeiras","osm_id":13240090521,"osm_tipo":"node","tipo_lugar":"suburb"},"geometry":{"type":"Point","coordinates":[-48.0149904,-23.2901559]}},{"type":"Feature","properties":{"nome":"Aleluia dos Carneiros","osm_id":13240090522,"osm_tipo":"node","tipo_lugar":"suburb"},"geometry":{"type":"Point","coordinates":[-48.0656873,-23.2580824]}},{"type":"Feature","properties":{"nome":"Cruz de Cedro","osm_id":13240090523,"osm_tipo":"node","tipo_lugar":"suburb"},"geometry":{"type":"Point","coordinates":[-48.0302066,-23.2763997]}}]}