{"type":"FeatureCollection","features":[{"type":"Feature","properties":{"nome":"Garden Village","osm_id":4018971591,"osm_tipo":"node","tipo_lugar":"neighbourhood"},"geometry":{"type":"Point","coordinates":[-51.2927043,-22.2035788]}},{"type":"Feature","properties":{"nome":"Vila Nova","osm_id":4265549226,"osm_tipo":"node","tipo_lugar":"suburb"},"geometry":{"type":"Point","coordinates":[-51.314733,-22.2231103]}},{"type":"Feature","properties":{"nome":"Bairro Córrego Santo Anastácio","osm_id":4265549291,"osm_tipo":"node","tipo_lugar":"suburb"},"geometry":{"type":"Point","coordinates":[-51.3919728,-22.2075549]}},{"type":"Feature","properties":{"nome":"Bairro Palmitalzinho","osm_id":4265549312,"osm_tipo":"node","tipo_lugar":"suburb"},"geometry":{"type":"Point","coordinates":[-51.3671574,-22.2417485]}},{"type":"Feature","properties":{"nome":"Morada do Sol","osm_id":7862140464,"osm_tipo":"node","tipo_lugar":"suburb"},"geometry":{"type":"Point","coordinates":[-51.2934816,-22.2125715]}},{"type":"Feature","properties":{"nome":"Condominio Garden Village","osm_id":185984843,"osm_tipo":"way","tipo_lugar":"neighbourhood"},"geometry":{"type":"Polygon","coordinates":[[[-51.2898452,-22.2034573],[-51.291147,-22.2045579],[-51.2953826,-22.2037063],[-51.2945422,-22.2025251],[-51.2898452,-22.2034573]]]}}]}