{"type":"FeatureCollection","features":[{"type":"Feature","properties":{"nome":"Saltinho","osm_id":3370243634,"osm_tipo":"node","tipo_lugar":"suburb"},"geometry":{"type":"Point","coordinates":[-48.9760195,-24.6068345]}},{"type":"Feature","properties":{"nome":"Catas Altas","osm_id":3391756968,"osm_tipo":"node","tipo_lugar":"suburb"},"geometry":{"type":"Point","coordinates":[-49.0365419,-24.630458]}},{"type":"Feature","properties":{"nome":"Vilariño","osm_id":4419245403,"osm_tipo":"node","tipo_lugar":"neighbourhood"},"geometry":{"type":"Point","coordinates":[-9.0214744,42.5494175]}},{"type":"Feature","properties":{"nome":"Campo","osm_id":5184200629,"osm_tipo":"node","tipo_lugar":"neighbourhood"},"geometry":{"type":"Point","coordinates":[-8.3298265,41.700014]}},{"type":"Feature","properties":{"nome":"Casal de Cima","osm_id":8596873104,"osm_tipo":"node","tipo_lugar":"neighbourhood"},"geometry":{"type":"Point","coordinates":[-8.325262,41.7016217]}},{"type":"Feature","properties":{"nome":"Real","osm_id":8596873108,"osm_tipo":"node","tipo_lugar":"neighbourhood"},"geometry":{"type":"Point","coordinates":[-8.3241977,41.7018695]}},{"type":"Feature","properties":{"nome":"Vau","osm_id":8596873109,"osm_tipo":"node","tipo_lugar":"neighbourhood"},"geometry":{"type":"Point","coordinates":[-8.3354622,41.7039858]}},{"type":"Feature","properties":{"nome":"Casal de Baixo","osm_id":8596873113,"osm_tipo":"node","tipo_lugar":"neighbourhood"},"geometry":{"type":"Point","coordinates":[-8.3357257,41.6986477]}},{"type":"Feature","properties":{"nome":"Testudo","osm_id":8596873114,"osm_tipo":"node","tipo_lugar":"neighbourhood"},"geometry":{"type":"Point","coordinates":[-8.3326593,41.6974951]}},{"type":"Feature","properties":{"nome":"Louredo","osm_id":8596873116,"osm_tipo":"node","tipo_lugar":"neighbourhood"},"geometry":{"type":"Point","coordinates":[-8.3317741,41.6991631]}},{"type":"Feature","properties":{"nome":"Assento","osm_id":8596931524,"osm_tipo":"node","tipo_lugar":"neighbourhood"},"geometry":{"type":"Point","coordinates":[-8.330125,41.6968735]}},{"type":"Feature","properties":{"nome":"Calvário","osm_id":8596931542,"osm_tipo":"node","tipo_lugar":"neighbourhood"},"geometry":{"type":"Point","coordinates":[-8.3311313,41.6958703]}},{"type":"Feature","properties":{"nome":"Outeiro","osm_id":8596931543,"osm_tipo":"node","tipo_lugar":"neighbourhood"},"geometry":{"type":"Point","coordinates":[-8.3331651,41.6951386]}},{"type":"Feature","properties":{"nome":"Coroso","osm_id":8976668397,"osm_tipo":"node","tipo_lugar":"neighbourhood"},"geometry":{"type":"Point","coordinates":[-8.9855375,42.5685821]}},{"type":"Feature","properties":{"nome":"As Agras","osm_id":10584023337,"osm_tipo":"node","tipo_lugar":"neighbourhood"},"geometry":{"type":"Point","coordinates":[-9.0779725,42.5727647]}},{"type":"Feature","properties":{"nome":"Baleeiros","osm_id":10584023350,"osm_tipo":"node","tipo_lugar":"neighbourhood"},"geometry":{"type":"Point","coordinates":[-9.0798882,42.5760167]}},{"type":"Feature","properties":{"nome":"Baleeiriños","osm_id":10584023351,"osm_tipo":"node","tipo_lugar":"neighbourhood"},"geometry":{"type":"Point","coordinates":[-9.0775651,42.5751046]}},{"type":"Feature","properties":{"nome":"Os Barreiros","osm_id":10584023355,"osm_tipo":"node","tipo_lugar":"neighbourhood"},"geometry":{"type":"Point","coordinates":[-9.0713475,42.579025]}},{"type":"Feature","properties":{"nome":"Os Pozos","osm_id":10584023357,"osm_tipo":"node","tipo_lugar":"neighbourhood"},"geometry":{"type":"Point","coordinates":[-9.0660851,42.5803273]}},{"type":"Feature","properties":{"nome":"Torreiro","osm_id":10584023359,"osm_tipo":"node","tipo_lugar":"neighbourhood"},"geometry":{"type":"Point","coordinates":[-9.0735844,42.5726315]}},{"type":"Feature","properties":{"nome":"O Prado","osm_id":10584023360,"osm_tipo":"node","tipo_lugar":"neighbourhood"},"geometry":{"type":"Point","coordinates":[-9.0748846,42.5727767]}},{"type":"Feature","properties":{"nome":"O Adro","osm_id":10584023362,"osm_tipo":"node","tipo_lugar":"neighbourhood"},"geometry":{"type":"Point","coordinates":[-9.0735905,42.5736298]}},{"type":"Feature","properties":{"nome":"O Porto","osm_id":10584023364,"osm_tipo":"node","tipo_lugar":"neighbourhood"},"geometry":{"type":"Point","coordinates":[-9.072523,42.5735679]}},{"type":"Feature","properties":{"nome":"O Canaval","osm_id":10584023374,"osm_tipo":"node","tipo_lugar":"neighbourhood"},"geometry":{"type":"Point","coordinates":[-9.0704151,42.5756431]}},{"type":"Feature","properties":{"nome":"A Ramalleira","osm_id":10584023376,"osm_tipo":"node","tipo_lugar":"neighbourhood"},"geometry":{"type":"Point","coordinates":[-9.0610076,42.5946706]}},{"type":"Feature","properties":{"nome":"O Anovado","osm_id":10584191579,"osm_tipo":"node","tipo_lugar":"neighbourhood"},"geometry":{"type":"Point","coordinates":[-9.0519346,42.5879938]}},{"type":"Feature","properties":{"nome":"A Bragán","osm_id":10584191593,"osm_tipo":"node","tipo_lugar":"neighbourhood"},"geometry":{"type":"Point","coordinates":[-9.0241544,42.6009149]}},{"type":"Feature","properties":{"nome":"A Granxa da Graña","osm_id":10584329133,"osm_tipo":"node","tipo_lugar":"neighbourhood"},"geometry":{"type":"Point","coordinates":[-9.031153,42.5331522]}},{"type":"Feature","properties":{"nome":"O Pomar","osm_id":10586845560,"osm_tipo":"node","tipo_lugar":"neighbourhood"},"geometry":{"type":"Point","coordinates":[-8.9962458,42.6269171]}},{"type":"Feature","properties":{"nome":"Os Muíños de Arriba","osm_id":10586845562,"osm_tipo":"node","tipo_lugar":"neighbourhood"},"geometry":{"type":"Point","coordinates":[-8.9916713,42.6200553]}},{"type":"Feature","properties":{"nome":"A Cheda","osm_id":10586845563,"osm_tipo":"node","tipo_lugar":"neighbourhood"},"geometry":{"type":"Point","coordinates":[-8.9901529,42.6108966]}},{"type":"Feature","properties":{"nome":"O Campo da Feira","osm_id":10586845570,"osm_tipo":"node","tipo_lugar":"neighbourhood"},"geometry":{"type":"Point","coordinates":[-9.0051239,42.6093284]}},{"type":"Feature","properties":{"nome":"A Pedreira","osm_id":10586845571,"osm_tipo":"node","tipo_lugar":"neighbourhood"},"geometry":{"type":"Point","coordinates":[-9.0094177,42.6103679]}},{"type":"Feature","properties":{"nome":"O Canaveiro","osm_id":10586845592,"osm_tipo":"node","tipo_lugar":"neighbourhood"},"geometry":{"type":"Point","coordinates":[-9.0060959,42.593483]}},{"type":"Feature","properties":{"nome":"A Gándara","osm_id":10586845602,"osm_tipo":"node","tipo_lugar":"neighbourhood"},"geometry":{"type":"Point","coordinates":[-9.0064446,42.5895087]}},{"type":"Feature","properties":{"nome":"A Casa da Agra","osm_id":10586845603,"osm_tipo":"node","tipo_lugar":"neighbourhood"},"geometry":{"type":"Point","coordinates":[-9.0045264,42.5887322]}},{"type":"Feature","properties":{"nome":"Os Lavegos","osm_id":10586852205,"osm_tipo":"node","tipo_lugar":"neighbourhood"},"geometry":{"type":"Point","coordinates":[-9.0014544,42.5883518]}},{"type":"Feature","properties":{"nome":"O Robalo","osm_id":10588752785,"osm_tipo":"node","tipo_lugar":"neighbourhood"},"geometry":{"type":"Point","coordinates":[-9.0160659,42.5241871]}},{"type":"Feature","properties":{"nome":"O Carreiro","osm_id":10588752786,"osm_tipo":"node","tipo_lugar":"neighbourhood"},"geometry":{"type":"Point","coordinates":[-9.0175043,42.5234195]}},{"type":"Feature","properties":{"nome":"A Tasca","osm_id":10588752790,"osm_tipo":"node","tipo_lugar":"neighbourhood"},"geometry":{"type":"Point","coordinates":[-9.014895,42.5250503]}},{"type":"Feature","properties":{"nome":"A Catía","osm_id":10588752791,"osm_tipo":"node","tipo_lugar":"neighbourhood"},"geometry":{"type":"Point","coordinates":[-9.01288,42.5251275]}},{"type":"Feature","properties":{"nome":"A Ribeira","osm_id":10588752795,"osm_tipo":"node","tipo_lugar":"neighbourhood"},"geometry":{"type":"Point","coordinates":[-9.0104419,42.5278603]}},{"type":"Feature","properties":{"nome":"O Lagarto","osm_id":10588752796,"osm_tipo":"node","tipo_lugar":"neighbourhood"},"geometry":{"type":"Point","coordinates":[-9.0137024,42.5272071]}},{"type":"Feature","properties":{"nome":"Basanta","osm_id":10588752804,"osm_tipo":"node","tipo_lugar":"neighbourhood"},"geometry":{"type":"Point","coordinates":[-9.0178829,42.5315994]}},{"type":"Feature","properties":{"nome":"O Rabelo","osm_id":10588988213,"osm_tipo":"node","tipo_lugar":"neighbourhood"},"geometry":{"type":"Point","coordinates":[-8.9864496,42.5424533]}},{"type":"Feature","properties":{"nome":"As Laxes do Castelo","osm_id":10588988271,"osm_tipo":"node","tipo_lugar":"neighbourhood"},"geometry":{"type":"Point","coordinates":[-8.991542,42.5570499]}},{"type":"Feature","properties":{"nome":"O Castelo","osm_id":10588988272,"osm_tipo":"node","tipo_lugar":"neighbourhood"},"geometry":{"type":"Point","coordinates":[-8.9927549,42.5582026]}},{"type":"Feature","properties":{"nome":"O Ameneiro","osm_id":10588988273,"osm_tipo":"node","tipo_lugar":"neighbourhood"},"geometry":{"type":"Point","coordinates":[-8.9949421,42.5572024]}},{"type":"Feature","properties":{"nome":"O Pombal","osm_id":10588988274,"osm_tipo":"node","tipo_lugar":"neighbourhood"},"geometry":{"type":"Point","coordinates":[-8.9920926,42.5539733]}},{"type":"Feature","properties":{"nome":"As Avesadas","osm_id":10588988275,"osm_tipo":"node","tipo_lugar":"neighbourhood"},"geometry":{"type":"Point","coordinates":[-8.995278,42.5533375]}},{"type":"Feature","properties":{"nome":"Padín","osm_id":10588988277,"osm_tipo":"node","tipo_lugar":"neighbourhood"},"geometry":{"type":"Point","coordinates":[-8.9933072,42.5610845]}},{"type":"Feature","properties":{"nome":"As Carolinas","osm_id":10588988278,"osm_tipo":"node","tipo_lugar":"neighbourhood"},"geometry":{"type":"Point","coordinates":[-8.9908049,42.5650794]}},{"type":"Feature","properties":{"nome":"O Areeiro","osm_id":10589060566,"osm_tipo":"node","tipo_lugar":"neighbourhood"},"geometry":{"type":"Point","coordinates":[-8.9663531,42.5696869]}},{"type":"Feature","properties":{"nome":"O Grao","osm_id":10594778684,"osm_tipo":"node","tipo_lugar":"neighbourhood"},"geometry":{"type":"Point","coordinates":[-8.9544538,42.5875853]}},{"type":"Feature","properties":{"nome":"As Mámoas","osm_id":10594778685,"osm_tipo":"node","tipo_lugar":"neighbourhood"},"geometry":{"type":"Point","coordinates":[-8.9601466,42.5851282]}},{"type":"Feature","properties":{"nome":"A Pedra da Aiga","osm_id":10594778691,"osm_tipo":"node","tipo_lugar":"neighbourhood"},"geometry":{"type":"Point","coordinates":[-8.9646042,42.574275]}},{"type":"Feature","properties":{"nome":"O Norte","osm_id":13620355106,"osm_tipo":"node","tipo_lugar":"neighbourhood"},"geometry":{"type":"Point","coordinates":[-8.9573634,42.5842419]}},{"type":"Feature","properties":{"nome":"Banda ó Río","osm_id":13620355107,"osm_tipo":"node","tipo_lugar":"neighbourhood"},"geometry":{"type":"Point","coordinates":[-8.9572468,42.583081]}},{"type":"Feature","properties":{"nome":"O Cruceiro de Marcos","osm_id":13620355114,"osm_tipo":"node","tipo_lugar":"neighbourhood"},"geometry":{"type":"Point","coordinates":[-8.9600286,42.5795507]}},{"type":"Feature","properties":{"nome":"O Vilar","osm_id":13620355115,"osm_tipo":"node","tipo_lugar":"neighbourhood"},"geometry":{"type":"Point","coordinates":[-8.9608989,42.5788315]}},{"type":"Feature","properties":{"nome":"O Rueiro do Adro","osm_id":13620355116,"osm_tipo":"node","tipo_lugar":"neighbourhood"},"geometry":{"type":"Point","coordinates":[-8.9595003,42.5789025]}},{"type":"Feature","properties":{"nome":"O Porto","osm_id":13620355117,"osm_tipo":"node","tipo_lugar":"neighbourhood"},"geometry":{"type":"Point","coordinates":[-8.9586907,42.5798176]}},{"type":"Feature","properties":{"nome":"Callao","osm_id":13620355118,"osm_tipo":"node","tipo_lugar":"neighbourhood"},"geometry":{"type":"Point","coordinates":[-8.9587569,42.5794428]}},{"type":"Feature","properties":{"nome":"O Cruceiro de Cruces","osm_id":13620355119,"osm_tipo":"node","tipo_lugar":"neighbourhood"},"geometry":{"type":"Point","coordinates":[-8.9591366,42.5801136]}},{"type":"Feature","properties":{"nome":"Caticovas","osm_id":13620355127,"osm_tipo":"node","tipo_lugar":"neighbourhood"},"geometry":{"type":"Point","coordinates":[-8.9626514,42.57786]}},{"type":"Feature","properties":{"nome":"Fontíns","osm_id":13620355128,"osm_tipo":"node","tipo_lugar":"neighbourhood"},"geometry":{"type":"Point","coordinates":[-8.9682097,42.5797128]}},{"type":"Feature","properties":{"nome":"Chamuín","osm_id":13620355129,"osm_tipo":"node","tipo_lugar":"neighbourhood"},"geometry":{"type":"Point","coordinates":[-8.9652325,42.5783983]}},{"type":"Feature","properties":{"nome":"O Sobreiral","osm_id":13620355132,"osm_tipo":"node","tipo_lugar":"neighbourhood"},"geometry":{"type":"Point","coordinates":[-8.979628,42.5745978]}},{"type":"Feature","properties":{"nome":"As Pedriñas","osm_id":13620355133,"osm_tipo":"node","tipo_lugar":"neighbourhood"},"geometry":{"type":"Point","coordinates":[-8.9799388,42.5726095]}},{"type":"Feature","properties":{"nome":"A Gandariña","osm_id":13620355134,"osm_tipo":"node","tipo_lugar":"neighbourhood"},"geometry":{"type":"Point","coordinates":[-8.9785165,42.5714014]}},{"type":"Feature","properties":{"nome":"Insuela de Abaixo","osm_id":13620355135,"osm_tipo":"node","tipo_lugar":"neighbourhood"},"geometry":{"type":"Point","coordinates":[-8.9637372,42.5703155]}},{"type":"Feature","properties":{"nome":"A Revolta","osm_id":13620355136,"osm_tipo":"node","tipo_lugar":"neighbourhood"},"geometry":{"type":"Point","coordinates":[-8.9703872,42.5723432]}},{"type":"Feature","properties":{"nome":"O Rueiro do Porto","osm_id":13620355137,"osm_tipo":"node","tipo_lugar":"neighbourhood"},"geometry":{"type":"Point","coordinates":[-8.9593354,42.5781176]}},{"type":"Feature","properties":{"nome":"A Canle","osm_id":13620355138,"osm_tipo":"node","tipo_lugar":"neighbourhood"},"geometry":{"type":"Point","coordinates":[-8.9594518,42.5796381]}},{"type":"Feature","properties":{"nome":"O Bacelo","osm_id":13620355139,"osm_tipo":"node","tipo_lugar":"neighbourhood"},"geometry":{"type":"Point","coordinates":[-8.9590075,42.5806636]}},{"type":"Feature","properties":{"nome":"Banda ó Río","osm_id":13620416181,"osm_tipo":"node","tipo_lugar":"neighbourhood"},"geometry":{"type":"Point","coordinates":[-8.9887632,42.5523851]}},{"type":"Feature","properties":{"nome":"O Cruceiro","osm_id":13620416182,"osm_tipo":"node","tipo_lugar":"neighbourhood"},"geometry":{"type":"Point","coordinates":[-8.987191,42.5517092]}},{"type":"Feature","properties":{"nome":"Vilanova","osm_id":13620433121,"osm_tipo":"node","tipo_lugar":"neighbourhood"},"geometry":{"type":"Point","coordinates":[-8.9964548,42.5629902]}},{"type":"Feature","properties":{"nome":"O Curreliño","osm_id":13620433123,"osm_tipo":"node","tipo_lugar":"neighbourhood"},"geometry":{"type":"Point","coordinates":[-8.996778,42.5613135]}},{"type":"Feature","properties":{"nome":"A Encrucillada","osm_id":13620433124,"osm_tipo":"node","tipo_lugar":"neighbourhood"},"geometry":{"type":"Point","coordinates":[-8.9966872,42.5607308]}},{"type":"Feature","properties":{"nome":"A Habana","osm_id":13620433126,"osm_tipo":"node","tipo_lugar":"neighbourhood"},"geometry":{"type":"Point","coordinates":[-8.9966913,42.5598563]}},{"type":"Feature","properties":{"nome":"O Cochón","osm_id":13620433127,"osm_tipo":"node","tipo_lugar":"neighbourhood"},"geometry":{"type":"Point","coordinates":[-8.9945465,42.5601062]}},{"type":"Feature","properties":{"nome":"A Barreira","osm_id":13620433128,"osm_tipo":"node","tipo_lugar":"neighbourhood"},"geometry":{"type":"Point","coordinates":[-8.9942911,42.55945]}},{"type":"Feature","properties":{"nome":"Os Pumariños","osm_id":13620433129,"osm_tipo":"node","tipo_lugar":"neighbourhood"},"geometry":{"type":"Point","coordinates":[-8.9953279,42.5645495]}},{"type":"Feature","properties":{"nome":"O Cachopal","osm_id":13620433130,"osm_tipo":"node","tipo_lugar":"neighbourhood"},"geometry":{"type":"Point","coordinates":[-8.9953912,42.566649]}},{"type":"Feature","properties":{"nome":"Deán de Arriba","osm_id":13620433133,"osm_tipo":"node","tipo_lugar":"neighbourhood"},"geometry":{"type":"Point","coordinates":[-8.9930715,42.5717089]}},{"type":"Feature","properties":{"nome":"Deán de Abaixo","osm_id":13620433134,"osm_tipo":"node","tipo_lugar":"neighbourhood"},"geometry":{"type":"Point","coordinates":[-8.9920744,42.5713618]}},{"type":"Feature","properties":{"nome":"A Raíña","osm_id":13620433135,"osm_tipo":"node","tipo_lugar":"neighbourhood"},"geometry":{"type":"Point","coordinates":[-8.9928433,42.5712413]}},{"type":"Feature","properties":{"nome":"Os Munises","osm_id":13620433137,"osm_tipo":"node","tipo_lugar":"neighbourhood"},"geometry":{"type":"Point","coordinates":[-8.9917718,42.5720962]}},{"type":"Feature","properties":{"nome":"O Carballal","osm_id":13620433138,"osm_tipo":"node","tipo_lugar":"neighbourhood"},"geometry":{"type":"Point","coordinates":[-8.9886315,42.5725674]}},{"type":"Feature","properties":{"nome":"Poi de Arriba","osm_id":13621275525,"osm_tipo":"node","tipo_lugar":"neighbourhood"},"geometry":{"type":"Point","coordinates":[-8.996524,42.5391565]}},{"type":"Feature","properties":{"nome":"Poi de Abaixo","osm_id":13621275526,"osm_tipo":"node","tipo_lugar":"neighbourhood"},"geometry":{"type":"Point","coordinates":[-8.9972373,42.5375132]}},{"type":"Feature","properties":{"nome":"Os Fornos","osm_id":13621275533,"osm_tipo":"node","tipo_lugar":"neighbourhood"},"geometry":{"type":"Point","coordinates":[-8.9993101,42.5333911]}},{"type":"Feature","properties":{"nome":"O Rial de Arriba","osm_id":13621275534,"osm_tipo":"node","tipo_lugar":"neighbourhood"},"geometry":{"type":"Point","coordinates":[-8.9980017,42.5349162]}},{"type":"Feature","properties":{"nome":"O Rial de Abaixo","osm_id":13621275535,"osm_tipo":"node","tipo_lugar":"neighbourhood"},"geometry":{"type":"Point","coordinates":[-8.9962212,42.5338802]}},{"type":"Feature","properties":{"nome":"O Alto do Rial","osm_id":13621275536,"osm_tipo":"node","tipo_lugar":"neighbourhood"},"geometry":{"type":"Point","coordinates":[-8.9978001,42.5340118]}},{"type":"Feature","properties":{"nome":"A Pedra da Raia","osm_id":13621275537,"osm_tipo":"node","tipo_lugar":"neighbourhood"},"geometry":{"type":"Point","coordinates":[-8.9922741,42.5357527]}},{"type":"Feature","properties":{"nome":"O Quinteiro","osm_id":13623094698,"osm_tipo":"node","tipo_lugar":"neighbourhood"},"geometry":{"type":"Point","coordinates":[-9.0231073,42.5849244]}},{"type":"Feature","properties":{"nome":"A Sorralleira","osm_id":13623094700,"osm_tipo":"node","tipo_lugar":"neighbourhood"},"geometry":{"type":"Point","coordinates":[-9.0260771,42.5932068]}},{"type":"Feature","properties":{"nome":"O Rueiro de Abaixo","osm_id":13623112101,"osm_tipo":"node","tipo_lugar":"neighbourhood"},"geometry":{"type":"Point","coordinates":[-9.0254161,42.5926693]}},{"type":"Feature","properties":{"nome":"O Concheiro","osm_id":13623112102,"osm_tipo":"node","tipo_lugar":"neighbourhood"},"geometry":{"type":"Point","coordinates":[-9.0249952,42.5921539]}},{"type":"Feature","properties":{"nome":"O Rueiro de Arriba","osm_id":13623112103,"osm_tipo":"node","tipo_lugar":"neighbourhood"},"geometry":{"type":"Point","coordinates":[-9.0241963,42.5925207]}},{"type":"Feature","properties":{"nome":"A Abelleira","osm_id":13623112104,"osm_tipo":"node","tipo_lugar":"neighbourhood"},"geometry":{"type":"Point","coordinates":[-9.0240331,42.5916796]}},{"type":"Feature","properties":{"nome":"A Poza dos Gatos","osm_id":13623112105,"osm_tipo":"node","tipo_lugar":"neighbourhood"},"geometry":{"type":"Point","coordinates":[-9.0265285,42.5919674]}},{"type":"Feature","properties":{"nome":"A Molinera","osm_id":13623112106,"osm_tipo":"node","tipo_lugar":"neighbourhood"},"geometry":{"type":"Point","coordinates":[-9.0320554,42.5917372]}},{"type":"Feature","properties":{"nome":"O Zapateiro","osm_id":13623112107,"osm_tipo":"node","tipo_lugar":"neighbourhood"},"geometry":{"type":"Point","coordinates":[-9.0293726,42.5931279]}},{"type":"Feature","properties":{"nome":"Cartas","osm_id":13623112108,"osm_tipo":"node","tipo_lugar":"neighbourhood"},"geometry":{"type":"Point","coordinates":[-9.0298651,42.5941985]}},{"type":"Feature","properties":{"nome":"Caselas","osm_id":13623112110,"osm_tipo":"node","tipo_lugar":"neighbourhood"},"geometry":{"type":"Point","coordinates":[-9.0350492,42.5959085]}},{"type":"Feature","properties":{"nome":"O Outón","osm_id":13626916108,"osm_tipo":"node","tipo_lugar":"neighbourhood"},"geometry":{"type":"Point","coordinates":[-9.0191,42.5222593]}},{"type":"Feature","properties":{"nome":"A Viña Nova","osm_id":13626940052,"osm_tipo":"node","tipo_lugar":"neighbourhood"},"geometry":{"type":"Point","coordinates":[-9.0045088,42.5720504]}},{"type":"Feature","properties":{"nome":"O Castro de Abaixo","osm_id":13626940053,"osm_tipo":"node","tipo_lugar":"neighbourhood"},"geometry":{"type":"Point","coordinates":[-9.0091292,42.5730473]}},{"type":"Feature","properties":{"nome":"O Castro de Arriba","osm_id":13626940054,"osm_tipo":"node","tipo_lugar":"neighbourhood"},"geometry":{"type":"Point","coordinates":[-9.0078225,42.5726508]}},{"type":"Feature","properties":{"nome":"O Souto","osm_id":13626940055,"osm_tipo":"node","tipo_lugar":"neighbourhood"},"geometry":{"type":"Point","coordinates":[-9.0216414,42.5816693]}},{"type":"Feature","properties":{"nome":"As Canles","osm_id":13758714623,"osm_tipo":"node","tipo_lugar":"neighbourhood"},"geometry":{"type":"Point","coordinates":[-9.0015895,42.5933909]}},{"type":"Feature","properties":{"nome":"As Cruciñas","osm_id":13758714624,"osm_tipo":"node","tipo_lugar":"neighbourhood"},"geometry":{"type":"Point","coordinates":[-8.9956039,42.6009031]}},{"type":"Feature","properties":{"nome":"A Rúa Nova","osm_id":13758714625,"osm_tipo":"node","tipo_lugar":"neighbourhood"},"geometry":{"type":"Point","coordinates":[-8.9905878,42.6116083]}},{"type":"Feature","properties":{"nome":"A Estalla","osm_id":13758714626,"osm_tipo":"node","tipo_lugar":"neighbourhood"},"geometry":{"type":"Point","coordinates":[-8.991042,42.6209396]}},{"type":"Feature","properties":{"nome":"Vila Ito","osm_id":13952120409,"osm_tipo":"node","tipo_lugar":"suburb"},"geometry":{"type":"Point","coordinates":[-49.0031096,-24.6398032]}},{"type":"Feature","properties":{"nome":"Vau","osm_id":12541138,"osm_tipo":"relation","tipo_lugar":"neighbourhood"},"geometry":{"type":"MultiPolygon","coordinates":[[[[-8.334399,41.7042565],[-8.3340074,41.7026194],[-8.3356053,41.7007242],[-8.3353281,41.6994988],[-8.334399,41.7042565]]],[[[-8.334399,41.7042565],[-8.3347942,41.7043247],[-8.335648,41.7045923],[-8.334399,41.7042565]]],[[[-8.3371093,41.7034692],[-8.3365449,41.7040296],[-8.3356496,41.7044555],[-8.3371093,41.7034692]]],[[[-8.3380931,41.7022182],[-8.3379515,41.7023452],[-8.3377217,41.7027163],[-8.3371093,41.7034692],[-8.3380931,41.7022182]]],[[[-8.3373288,41.6995682],[-8.3373058,41.7003538],[-8.3380288,41.7020242],[-8.3373288,41.6995682]]],[[[-8.3353281,41.6994988],[-8.3360365,41.699702],[-8.3363157,41.6994738],[-8.3373288,41.6995682],[-8.3353281,41.6994988]]]]}}]}