{"type":"FeatureCollection","features":[{"type":"Feature","properties":{"nome":"Batovi","osm_id":368179859,"osm_tipo":"node","tipo_lugar":"suburb"},"geometry":{"type":"Point","coordinates":[-47.61437,-22.39095]}},{"type":"Feature","properties":{"nome":"Xarapa","osm_id":3116559999,"osm_tipo":"node","tipo_lugar":"suburb"},"geometry":{"type":"Point","coordinates":[-44.1762804,-22.8005049]}},{"type":"Feature","properties":{"nome":"Itaoca","osm_id":3116561228,"osm_tipo":"node","tipo_lugar":"suburb"},"geometry":{"type":"Point","coordinates":[-44.1301206,-22.8311771]}},{"type":"Feature","properties":{"nome":"Cachoeira","osm_id":7198954977,"osm_tipo":"node","tipo_lugar":"suburb"},"geometry":{"type":"Point","coordinates":[-47.5427785,-22.3219513]}},{"type":"Feature","properties":{"nome":"Pouso Seco","osm_id":7516141559,"osm_tipo":"node","tipo_lugar":"suburb"},"geometry":{"type":"Point","coordinates":[-44.1595625,-22.6806035]}},{"type":"Feature","properties":{"nome":"Chácara Bom Retiro","osm_id":12191031155,"osm_tipo":"node","tipo_lugar":"suburb"},"geometry":{"type":"Point","coordinates":[-47.5882316,-22.4075471]}},{"type":"Feature","properties":{"nome":"Saúde","osm_id":12193644776,"osm_tipo":"node","tipo_lugar":"suburb"},"geometry":{"type":"Point","coordinates":[-47.5546135,-22.4155813]}},{"type":"Feature","properties":{"nome":"Bela Vista","osm_id":12193671383,"osm_tipo":"node","tipo_lugar":"suburb"},"geometry":{"type":"Point","coordinates":[-47.5500978,-22.399999]}},{"type":"Feature","properties":{"nome":"Jardim Centenário","osm_id":12195637684,"osm_tipo":"node","tipo_lugar":"suburb"},"geometry":{"type":"Point","coordinates":[-47.5860655,-22.4151881]}},{"type":"Feature","properties":{"nome":"Cidade Nova","osm_id":12195897700,"osm_tipo":"node","tipo_lugar":"suburb"},"geometry":{"type":"Point","coordinates":[-47.5569536,-22.4049643]}},{"type":"Feature","properties":{"nome":"Dona Angela","osm_id":12197485124,"osm_tipo":"node","tipo_lugar":"suburb"},"geometry":{"type":"Point","coordinates":[-47.55886,-22.4202041]}},{"type":"Feature","properties":{"nome":"Parada Cardin","osm_id":12253134630,"osm_tipo":"node","tipo_lugar":"suburb"},"geometry":{"type":"Point","coordinates":[-44.1342344,-22.6653966]}},{"type":"Feature","properties":{"nome":"Jardim Panorama","osm_id":12272190069,"osm_tipo":"node","tipo_lugar":"suburb"},"geometry":{"type":"Point","coordinates":[-47.590283,-22.3871125]}},{"type":"Feature","properties":{"nome":"Jardim Residencial Santa Eliza","osm_id":12272236832,"osm_tipo":"node","tipo_lugar":"suburb"},"geometry":{"type":"Point","coordinates":[-47.5911284,-22.3965518]}},{"type":"Feature","properties":{"nome":"Santana","osm_id":12273491486,"osm_tipo":"node","tipo_lugar":"suburb"},"geometry":{"type":"Point","coordinates":[-47.5714827,-22.3986458]}},{"type":"Feature","properties":{"nome":"Jardim  Bela Vista","osm_id":12276930068,"osm_tipo":"node","tipo_lugar":"suburb"},"geometry":{"type":"Point","coordinates":[-47.5783905,-22.3984855]}},{"type":"Feature","properties":{"nome":"Parque Flórida","osm_id":12290360705,"osm_tipo":"node","tipo_lugar":"suburb"},"geometry":{"type":"Point","coordinates":[-47.5434221,-22.4412456]}},{"type":"Feature","properties":{"nome":"Distrito Indústrial","osm_id":12300316433,"osm_tipo":"node","tipo_lugar":"suburb"},"geometry":{"type":"Point","coordinates":[-47.5550887,-22.3658088]}},{"type":"Feature","properties":{"nome":"Jardim Nova Rio Claro","osm_id":12305208694,"osm_tipo":"node","tipo_lugar":"suburb"},"geometry":{"type":"Point","coordinates":[-47.594933,-22.4301774]}},{"type":"Feature","properties":{"nome":"Parque Mãe Preta","osm_id":12305475826,"osm_tipo":"node","tipo_lugar":"suburb"},"geometry":{"type":"Point","coordinates":[-47.5397437,-22.3716432]}}]}