{"type":"FeatureCollection","features":[{"type":"Feature","properties":{"nome":"Jardim Morada do Sol","osm_id":3540588819,"osm_tipo":"node","tipo_lugar":"neighbourhood"},"geometry":{"type":"Point","coordinates":[-51.0039771,-20.1692094]}},{"type":"Feature","properties":{"nome":"Loteamento \"O Clone\"","osm_id":3540588820,"osm_tipo":"node","tipo_lugar":"neighbourhood"},"geometry":{"type":"Point","coordinates":[-50.9994271,-20.1472242]}},{"type":"Feature","properties":{"nome":"Loteamento Ipanema","osm_id":3540588821,"osm_tipo":"node","tipo_lugar":"neighbourhood"},"geometry":{"type":"Point","coordinates":[-51.0176198,-20.1810744]}},{"type":"Feature","properties":{"nome":"Loteamento Paraíso das Águas","osm_id":3540588822,"osm_tipo":"node","tipo_lugar":"neighbourhood"},"geometry":{"type":"Point","coordinates":[-51.0205531,-20.1814562]}},{"type":"Feature","properties":{"nome":"Loteamento Praia do Sol","osm_id":3540588823,"osm_tipo":"node","tipo_lugar":"neighbourhood"},"geometry":{"type":"Point","coordinates":[-50.9965645,-20.1841374]}},{"type":"Feature","properties":{"nome":"Loteamento Residencial Lagoa da Garça","osm_id":3540588824,"osm_tipo":"node","tipo_lugar":"neighbourhood"},"geometry":{"type":"Point","coordinates":[-51.0059462,-20.1471341]}},{"type":"Feature","properties":{"nome":"Loteamento Residencial Rubinéia","osm_id":3540588825,"osm_tipo":"node","tipo_lugar":"neighbourhood"},"geometry":{"type":"Point","coordinates":[-50.9911634,-20.1858431]}}]}