{"type":"FeatureCollection","features":[{"type":"Feature","properties":{"nome":"Condomínio Lago Azul","osm_id":3495577253,"osm_tipo":"node","tipo_lugar":"suburb"},"geometry":{"type":"Point","coordinates":[-49.5244454,-21.234773]}},{"type":"Feature","properties":{"nome":"Jardim Beira Rio","osm_id":3495577273,"osm_tipo":"node","tipo_lugar":"suburb"},"geometry":{"type":"Point","coordinates":[-49.4786321,-21.3623505]}},{"type":"Feature","properties":{"nome":"Jardim Itália","osm_id":3495577274,"osm_tipo":"node","tipo_lugar":"suburb"},"geometry":{"type":"Point","coordinates":[-49.4807536,-21.3638599]}},{"type":"Feature","properties":{"nome":"Jardim Moraes","osm_id":3495577275,"osm_tipo":"node","tipo_lugar":"suburb"},"geometry":{"type":"Point","coordinates":[-49.5005732,-21.3374052]}},{"type":"Feature","properties":{"nome":"Jardim Nossa Senhora Aparecida","osm_id":3495577276,"osm_tipo":"node","tipo_lugar":"suburb"},"geometry":{"type":"Point","coordinates":[-49.4931193,-21.3394983]}},{"type":"Feature","properties":{"nome":"Jardim Sales","osm_id":3495577277,"osm_tipo":"node","tipo_lugar":"suburb"},"geometry":{"type":"Point","coordinates":[-49.4932296,-21.3398913]}},{"type":"Feature","properties":{"nome":"Loteamento Associação Sítio do Lago Azul","osm_id":3495577278,"osm_tipo":"node","tipo_lugar":"suburb"},"geometry":{"type":"Point","coordinates":[-49.4782285,-21.3473648]}},{"type":"Feature","properties":{"nome":"Loteamento Jatobá","osm_id":3495577279,"osm_tipo":"node","tipo_lugar":"suburb"},"geometry":{"type":"Point","coordinates":[-49.5068796,-21.3422739]}},{"type":"Feature","properties":{"nome":"Loteamento Recanto Barra Mansa","osm_id":3495577280,"osm_tipo":"node","tipo_lugar":"suburb"},"geometry":{"type":"Point","coordinates":[-49.5225799,-21.2356795]}},{"type":"Feature","properties":{"nome":"Loteamento Residencial Morumbi","osm_id":3495577281,"osm_tipo":"node","tipo_lugar":"suburb"},"geometry":{"type":"Point","coordinates":[-49.5257463,-21.2467907]}},{"type":"Feature","properties":{"nome":"Loteamento Riviera Náutica","osm_id":3495577282,"osm_tipo":"node","tipo_lugar":"suburb"},"geometry":{"type":"Point","coordinates":[-49.5126296,-21.3886725]}},{"type":"Feature","properties":{"nome":"Marinas do Tietê","osm_id":3495577283,"osm_tipo":"node","tipo_lugar":"suburb"},"geometry":{"type":"Point","coordinates":[-49.5593635,-21.3743059]}},{"type":"Feature","properties":{"nome":"Mirante do Tietê","osm_id":3495577284,"osm_tipo":"node","tipo_lugar":"suburb"},"geometry":{"type":"Point","coordinates":[-49.555236,-21.3808111]}},{"type":"Feature","properties":{"nome":"Portal do Tietê","osm_id":3495577285,"osm_tipo":"node","tipo_lugar":"suburb"},"geometry":{"type":"Point","coordinates":[-49.5584848,-21.3768538]}},{"type":"Feature","properties":{"nome":"Praia do Torres","osm_id":3495577287,"osm_tipo":"node","tipo_lugar":"suburb"},"geometry":{"type":"Point","coordinates":[-49.5292689,-21.4086213]}},{"type":"Feature","properties":{"nome":"Condomínio Lago Azul","osm_id":4860281,"osm_tipo":"relation","tipo_lugar":"suburb"},"geometry":{"type":"MultiPolygon","coordinates":[[[[-49.5253905,-21.2331426],[-49.5249636,-21.2336789],[-49.5249477,-21.2358195],[-49.5253905,-21.2331426]]],[[[-49.5239815,-21.2359829],[-49.5238983,-21.2337837],[-49.5238627,-21.2337038],[-49.5239815,-21.2359829]]]]}},{"type":"Feature","properties":{"nome":"Loteamento Recanto Barra Mansa","osm_id":4860282,"osm_tipo":"relation","tipo_lugar":"suburb"},"geometry":{"type":"MultiPolygon","coordinates":[[[[-49.5238627,-21.2337038],[-49.5206799,-21.2348298],[-49.5219223,-21.2381034],[-49.5237319,-21.2374785],[-49.5238627,-21.2337038]]],[[[-49.5239815,-21.2359829],[-49.5238983,-21.2337837],[-49.5238627,-21.2337038],[-49.5239815,-21.2359829]]]]}},{"type":"Feature","properties":{"nome":"Praia do Torres","osm_id":4860283,"osm_tipo":"relation","tipo_lugar":"suburb"},"geometry":{"type":"MultiPolygon","coordinates":[[[[-49.5300762,-21.409964],[-49.5298659,-21.4101215],[-49.529707,-21.4102726],[-49.5297447,-21.4103087],[-49.5294489,-21.4105148],[-49.5294569,-21.4105637],[-49.5290458,-21.4109243],[-49.5300762,-21.409964]]],[[[-49.5317125,-21.4087291],[-49.5311459,-21.4094161],[-49.5300762,-21.409964],[-49.5317125,-21.4087291]]],[[[-49.5320275,-21.4074148],[-49.5324162,-21.4086522],[-49.5317125,-21.4087291],[-49.5320275,-21.4074148]]],[[[-49.5320653,-21.4071325],[-49.5320169,-21.4071836],[-49.5320275,-21.4074148],[-49.5320653,-21.4071325]]],[[[-49.5320653,-21.4071325],[-49.5308162,-21.4060357],[-49.5260587,-21.4107246],[-49.5320653,-21.4071325]]],[[[-49.5264021,-21.4110186],[-49.5276729,-21.4104724],[-49.5290458,-21.4109243],[-49.5264021,-21.4110186]]]]}}]}