{"type":"FeatureCollection","features":[{"type":"Feature","properties":{"nome":"Santa Cruz dos Matos","osm_id":368179897,"osm_tipo":"node","tipo_lugar":"suburb"},"geometry":{"type":"Point","coordinates":[-47.9620352,-23.7522033]}},{"type":"Feature","properties":{"nome":"Justinadas","osm_id":368179898,"osm_tipo":"node","tipo_lugar":"suburb"},"geometry":{"type":"Point","coordinates":[-47.89458,-23.951162]}},{"type":"Feature","properties":{"nome":"Turvo da Lagoa","osm_id":2710715803,"osm_tipo":"node","tipo_lugar":"suburb"},"geometry":{"type":"Point","coordinates":[-48.0979881,-23.9435584]}},{"type":"Feature","properties":{"nome":"Ferreirada","osm_id":5235109293,"osm_tipo":"node","tipo_lugar":"suburb"},"geometry":{"type":"Point","coordinates":[-47.9100659,-23.9745143]}},{"type":"Feature","properties":{"nome":"Turvo dos Hilários","osm_id":5285661346,"osm_tipo":"node","tipo_lugar":"suburb"},"geometry":{"type":"Point","coordinates":[-48.1535605,-23.8891751]}},{"type":"Feature","properties":{"nome":"Jardim Monte Verde","osm_id":6875890135,"osm_tipo":"node","tipo_lugar":"suburb"},"geometry":{"type":"Point","coordinates":[-48.0058357,-23.8753608]}},{"type":"Feature","properties":{"nome":"Sol Poente","osm_id":6875890136,"osm_tipo":"node","tipo_lugar":"suburb"},"geometry":{"type":"Point","coordinates":[-48.0078966,-23.8780817]}},{"type":"Feature","properties":{"nome":"Portal Califórnia","osm_id":6875890137,"osm_tipo":"node","tipo_lugar":"suburb"},"geometry":{"type":"Point","coordinates":[-48.0072572,-23.8799632]}},{"type":"Feature","properties":{"nome":"Vila Idelina Prandini Ribas","osm_id":6875890138,"osm_tipo":"node","tipo_lugar":"suburb"},"geometry":{"type":"Point","coordinates":[-48.006016,-23.8816182]}},{"type":"Feature","properties":{"nome":"Francisco Pezzato","osm_id":6875890139,"osm_tipo":"node","tipo_lugar":"suburb"},"geometry":{"type":"Point","coordinates":[-48.0053907,-23.8859867]}},{"type":"Feature","properties":{"nome":"Jardim Sao Carlos","osm_id":6875890140,"osm_tipo":"node","tipo_lugar":"suburb"},"geometry":{"type":"Point","coordinates":[-48.0129646,-23.8887308]}},{"type":"Feature","properties":{"nome":"Jardim Nova Esperanca","osm_id":6875890141,"osm_tipo":"node","tipo_lugar":"suburb"},"geometry":{"type":"Point","coordinates":[-47.9979465,-23.888067]}},{"type":"Feature","properties":{"nome":"Vila Nova","osm_id":6875890142,"osm_tipo":"node","tipo_lugar":"suburb"},"geometry":{"type":"Point","coordinates":[-47.9983621,-23.8857057]}},{"type":"Feature","properties":{"nome":"Vila Rica","osm_id":6875890143,"osm_tipo":"node","tipo_lugar":"suburb"},"geometry":{"type":"Point","coordinates":[-47.991888,-23.8862007]}},{"type":"Feature","properties":{"nome":"Vila Nova Bela Vista","osm_id":6875890144,"osm_tipo":"node","tipo_lugar":"suburb"},"geometry":{"type":"Point","coordinates":[-47.9908075,-23.890652]}},{"type":"Feature","properties":{"nome":"Jardim Picapau","osm_id":6875890162,"osm_tipo":"node","tipo_lugar":"suburb"},"geometry":{"type":"Point","coordinates":[-47.9880122,-23.8880963]}},{"type":"Feature","properties":{"nome":"Vila Tomaz","osm_id":6875890163,"osm_tipo":"node","tipo_lugar":"suburb"},"geometry":{"type":"Point","coordinates":[-47.9869756,-23.8859299]}},{"type":"Feature","properties":{"nome":"Vila Nova Vila Rica","osm_id":6875890164,"osm_tipo":"node","tipo_lugar":"suburb"},"geometry":{"type":"Point","coordinates":[-47.9898699,-23.8832417]}},{"type":"Feature","properties":{"nome":"Jardim Nova São Miguel Arcanjo","osm_id":6875890165,"osm_tipo":"node","tipo_lugar":"suburb"},"geometry":{"type":"Point","coordinates":[-47.9908594,-23.8811112]}},{"type":"Feature","properties":{"nome":"Vila Creso Fraga Moreira","osm_id":6875890167,"osm_tipo":"node","tipo_lugar":"suburb"},"geometry":{"type":"Point","coordinates":[-48.0009572,-23.8750957]}},{"type":"Feature","properties":{"nome":"Serra dos Touros","osm_id":6875890169,"osm_tipo":"node","tipo_lugar":"suburb"},"geometry":{"type":"Point","coordinates":[-48.0305017,-23.8583064]}},{"type":"Feature","properties":{"nome":"Capão Rico","osm_id":6875890170,"osm_tipo":"node","tipo_lugar":"suburb"},"geometry":{"type":"Point","coordinates":[-48.0601741,-23.8943241]}},{"type":"Feature","properties":{"nome":"Centro","osm_id":7307690272,"osm_tipo":"node","tipo_lugar":"suburb"},"geometry":{"type":"Point","coordinates":[-47.9944644,-23.8760385]}},{"type":"Feature","properties":{"nome":"Coelhos","osm_id":7881375506,"osm_tipo":"node","tipo_lugar":"suburb"},"geometry":{"type":"Point","coordinates":[-47.8921228,-23.8175667]}},{"type":"Feature","properties":{"nome":"Cuiabana","osm_id":7881375507,"osm_tipo":"node","tipo_lugar":"suburb"},"geometry":{"type":"Point","coordinates":[-47.8935191,-23.8367889]}},{"type":"Feature","properties":{"nome":"Barrinha","osm_id":7881375508,"osm_tipo":"node","tipo_lugar":"suburb"},"geometry":{"type":"Point","coordinates":[-47.8512793,-23.8370442]}},{"type":"Feature","properties":{"nome":"Brejauva","osm_id":7881383196,"osm_tipo":"node","tipo_lugar":"suburb"},"geometry":{"type":"Point","coordinates":[-47.9740831,-23.8303505]}},{"type":"Feature","properties":{"nome":"Sapezal","osm_id":7881400858,"osm_tipo":"node","tipo_lugar":"suburb"},"geometry":{"type":"Point","coordinates":[-47.9762901,-23.857524]}},{"type":"Feature","properties":{"nome":"Santa Elisa","osm_id":7881400859,"osm_tipo":"node","tipo_lugar":"suburb"},"geometry":{"type":"Point","coordinates":[-47.9401621,-23.8671152]}},{"type":"Feature","properties":{"nome":"Campos da Serra Vermelha","osm_id":7881400860,"osm_tipo":"node","tipo_lugar":"suburb"},"geometry":{"type":"Point","coordinates":[-47.8829813,-23.8700658]}},{"type":"Feature","properties":{"nome":"Sertãozinho","osm_id":7881400861,"osm_tipo":"node","tipo_lugar":"suburb"},"geometry":{"type":"Point","coordinates":[-47.9364941,-23.9092413]}},{"type":"Feature","properties":{"nome":"Capão Rico","osm_id":7881400862,"osm_tipo":"node","tipo_lugar":"suburb"},"geometry":{"type":"Point","coordinates":[-48.0540486,-23.8994446]}},{"type":"Feature","properties":{"nome":"Medeiros","osm_id":7881400863,"osm_tipo":"node","tipo_lugar":"suburb"},"geometry":{"type":"Point","coordinates":[-48.0837051,-23.9109355]}},{"type":"Feature","properties":{"nome":"Brizolas","osm_id":7881400864,"osm_tipo":"node","tipo_lugar":"suburb"},"geometry":{"type":"Point","coordinates":[-48.1041383,-23.918581]}},{"type":"Feature","properties":{"nome":"Demétrio","osm_id":7881400865,"osm_tipo":"node","tipo_lugar":"suburb"},"geometry":{"type":"Point","coordinates":[-48.0133501,-23.8224354]}},{"type":"Feature","properties":{"nome":"Machados","osm_id":7881400866,"osm_tipo":"node","tipo_lugar":"suburb"},"geometry":{"type":"Point","coordinates":[-47.9753198,-23.7921434]}},{"type":"Feature","properties":{"nome":"Lavrilha","osm_id":7881400867,"osm_tipo":"node","tipo_lugar":"suburb"},"geometry":{"type":"Point","coordinates":[-47.9493885,-23.7980565]}},{"type":"Feature","properties":{"nome":"Soares de Baixo","osm_id":7881400868,"osm_tipo":"node","tipo_lugar":"suburb"},"geometry":{"type":"Point","coordinates":[-47.9239955,-23.7957562]}},{"type":"Feature","properties":{"nome":"Soares","osm_id":7881400869,"osm_tipo":"node","tipo_lugar":"suburb"},"geometry":{"type":"Point","coordinates":[-47.9390686,-23.7955741]}},{"type":"Feature","properties":{"nome":"Meia Légua","osm_id":7881400870,"osm_tipo":"node","tipo_lugar":"suburb"},"geometry":{"type":"Point","coordinates":[-47.8756314,-23.7938545]}},{"type":"Feature","properties":{"nome":"Rio Acima","osm_id":7881400871,"osm_tipo":"node","tipo_lugar":"suburb"},"geometry":{"type":"Point","coordinates":[-47.9098219,-23.8135357]}},{"type":"Feature","properties":{"nome":"Boa vista","osm_id":7881400872,"osm_tipo":"node","tipo_lugar":"suburb"},"geometry":{"type":"Point","coordinates":[-47.9011428,-23.7952609]}},{"type":"Feature","properties":{"nome":"Barro Branco","osm_id":7881400873,"osm_tipo":"node","tipo_lugar":"suburb"},"geometry":{"type":"Point","coordinates":[-48.0517241,-23.9934093]}},{"type":"Feature","properties":{"nome":"Forquilha","osm_id":7881400874,"osm_tipo":"node","tipo_lugar":"suburb"},"geometry":{"type":"Point","coordinates":[-47.9827496,-24.0091231]}},{"type":"Feature","properties":{"nome":"Turvinho","osm_id":7881400875,"osm_tipo":"node","tipo_lugar":"suburb"},"geometry":{"type":"Point","coordinates":[-47.9244592,-24.0044321]}},{"type":"Feature","properties":{"nome":"Rufinadas","osm_id":7881400876,"osm_tipo":"node","tipo_lugar":"suburb"},"geometry":{"type":"Point","coordinates":[-47.8973332,-23.963998]}},{"type":"Feature","properties":{"nome":"Ferreirada","osm_id":7881400877,"osm_tipo":"node","tipo_lugar":"suburb"},"geometry":{"type":"Point","coordinates":[-47.8933713,-23.9770296]}},{"type":"Feature","properties":{"nome":"Tombo D'água","osm_id":7881400878,"osm_tipo":"node","tipo_lugar":"suburb"},"geometry":{"type":"Point","coordinates":[-47.9628794,-23.94702]}},{"type":"Feature","properties":{"nome":"Santa Rosa","osm_id":7881400879,"osm_tipo":"node","tipo_lugar":"suburb"},"geometry":{"type":"Point","coordinates":[-48.0516455,-23.9604859]}}]}