{"type":"FeatureCollection","features":[{"type":"Feature","properties":{"nome":"Parque das Amoras","osm_id":2343944140,"osm_tipo":"node","tipo_lugar":"neighbourhood"},"geometry":{"type":"Point","coordinates":[-49.3135099,-20.8635901]}},{"type":"Feature","properties":{"nome":"Residencial Cidade Jardim","osm_id":2343953716,"osm_tipo":"node","tipo_lugar":"neighbourhood"},"geometry":{"type":"Point","coordinates":[-49.3665383,-20.846635]}},{"type":"Feature","properties":{"nome":"Estância Jockey Clube","osm_id":2343953717,"osm_tipo":"node","tipo_lugar":"suburb"},"geometry":{"type":"Point","coordinates":[-49.3466608,-20.8563178]}},{"type":"Feature","properties":{"nome":"Jardim São Marco","osm_id":2343953718,"osm_tipo":"node","tipo_lugar":"neighbourhood"},"geometry":{"type":"Point","coordinates":[-49.3591998,-20.8392954]}},{"type":"Feature","properties":{"nome":"Vila Toninho","osm_id":2343953719,"osm_tipo":"node","tipo_lugar":"suburb"},"geometry":{"type":"Point","coordinates":[-49.3386004,-20.8471564]}},{"type":"Feature","properties":{"nome":"Conjunto Habitacional Cristo Rei","osm_id":2343953720,"osm_tipo":"node","tipo_lugar":"neighbourhood"},"geometry":{"type":"Point","coordinates":[-49.3498442,-20.8359664]}},{"type":"Feature","properties":{"nome":"Chácara Bela Vista 2ª parte","osm_id":2350383200,"osm_tipo":"node","tipo_lugar":"neighbourhood"},"geometry":{"type":"Point","coordinates":[-49.3172238,-20.8711216]}},{"type":"Feature","properties":{"nome":"Brejo Alegre","osm_id":2356783664,"osm_tipo":"node","tipo_lugar":"neighbourhood"},"geometry":{"type":"Point","coordinates":[-49.3409124,-20.8348162]}},{"type":"Feature","properties":{"nome":"Loteamento Morada Campestre","osm_id":2356783666,"osm_tipo":"node","tipo_lugar":"neighbourhood"},"geometry":{"type":"Point","coordinates":[-49.3285748,-20.8381854]}},{"type":"Feature","properties":{"nome":"Parque Residencial Lauriano Tebar II","osm_id":2356783667,"osm_tipo":"node","tipo_lugar":"neighbourhood"},"geometry":{"type":"Point","coordinates":[-49.3486081,-20.8319738]}},{"type":"Feature","properties":{"nome":"Parque das Aroeiras II","osm_id":2361072639,"osm_tipo":"node","tipo_lugar":"neighbourhood"},"geometry":{"type":"Point","coordinates":[-49.4393319,-20.7870631]}},{"type":"Feature","properties":{"nome":"Parque das Aroeiras","osm_id":2361072640,"osm_tipo":"node","tipo_lugar":"neighbourhood"},"geometry":{"type":"Point","coordinates":[-49.4332518,-20.7858677]}},{"type":"Feature","properties":{"nome":"Residencial Gabriela","osm_id":2361072642,"osm_tipo":"node","tipo_lugar":"neighbourhood"},"geometry":{"type":"Point","coordinates":[-49.4289569,-20.7904648]}},{"type":"Feature","properties":{"nome":"Residencial Monte Verde","osm_id":2361072643,"osm_tipo":"node","tipo_lugar":"neighbourhood"},"geometry":{"type":"Point","coordinates":[-49.4320301,-20.78778]}},{"type":"Feature","properties":{"nome":"Bosque da Saúde","osm_id":2362602085,"osm_tipo":"node","tipo_lugar":"neighbourhood"},"geometry":{"type":"Point","coordinates":[-49.3982201,-20.8249479]}},{"type":"Feature","properties":{"nome":"Jardim Panorama","osm_id":2362602086,"osm_tipo":"node","tipo_lugar":"neighbourhood"},"geometry":{"type":"Point","coordinates":[-49.402346,-20.827516]}},{"type":"Feature","properties":{"nome":"Loteamento São João","osm_id":2362602087,"osm_tipo":"node","tipo_lugar":"neighbourhood"},"geometry":{"type":"Point","coordinates":[-49.4010462,-20.8331796]}},{"type":"Feature","properties":{"nome":"Vila Santa Cândida","osm_id":2362602088,"osm_tipo":"node","tipo_lugar":"neighbourhood"},"geometry":{"type":"Point","coordinates":[-49.3987076,-20.8293423]}},{"type":"Feature","properties":{"nome":"Vila São Manoel","osm_id":2362602089,"osm_tipo":"node","tipo_lugar":"neighbourhood"},"geometry":{"type":"Point","coordinates":[-49.401891,-20.8309509]}},{"type":"Feature","properties":{"nome":"Vila São Pedro","osm_id":2362602090,"osm_tipo":"node","tipo_lugar":"neighbourhood"},"geometry":{"type":"Point","coordinates":[-49.3951326,-20.8250959]}},{"type":"Feature","properties":{"nome":"Vila Sinibaldi","osm_id":2363808458,"osm_tipo":"node","tipo_lugar":"suburb"},"geometry":{"type":"Point","coordinates":[-49.3805447,-20.8251918]}},{"type":"Feature","properties":{"nome":"Vila São Joaquim","osm_id":2363823911,"osm_tipo":"node","tipo_lugar":"suburb"},"geometry":{"type":"Point","coordinates":[-49.376962,-20.8265347]}},{"type":"Feature","properties":{"nome":"Chácara Municipal","osm_id":2363922168,"osm_tipo":"node","tipo_lugar":"neighbourhood"},"geometry":{"type":"Point","coordinates":[-49.3953504,-20.830656]}},{"type":"Feature","properties":{"nome":"Jardim Morumbi","osm_id":2363922169,"osm_tipo":"node","tipo_lugar":"neighbourhood"},"geometry":{"type":"Point","coordinates":[-49.3957331,-20.8356389]}},{"type":"Feature","properties":{"nome":"Jardim do Centro","osm_id":2363922172,"osm_tipo":"node","tipo_lugar":"neighbourhood"},"geometry":{"type":"Point","coordinates":[-49.389954,-20.8260309]}},{"type":"Feature","properties":{"nome":"Jardim do Norte","osm_id":2363922173,"osm_tipo":"node","tipo_lugar":"neighbourhood"},"geometry":{"type":"Point","coordinates":[-49.3918909,-20.8240009]}},{"type":"Feature","properties":{"nome":"Jardim do Sul","osm_id":2363922174,"osm_tipo":"node","tipo_lugar":"neighbourhood"},"geometry":{"type":"Point","coordinates":[-49.3924955,-20.8257275]}},{"type":"Feature","properties":{"nome":"Nova Redentora","osm_id":2363922175,"osm_tipo":"node","tipo_lugar":"neighbourhood"},"geometry":{"type":"Point","coordinates":[-49.3906034,-20.8280819]}},{"type":"Feature","properties":{"nome":"Vila São José","osm_id":2363922177,"osm_tipo":"node","tipo_lugar":"neighbourhood"},"geometry":{"type":"Point","coordinates":[-49.3939845,-20.8265541]}},{"type":"Feature","properties":{"nome":"Jardim João Paulo II","osm_id":2369868285,"osm_tipo":"node","tipo_lugar":"suburb"},"geometry":{"type":"Point","coordinates":[-49.3651665,-20.7722564]}},{"type":"Feature","properties":{"nome":"Residencial Garcia II","osm_id":2369868286,"osm_tipo":"node","tipo_lugar":"neighbourhood"},"geometry":{"type":"Point","coordinates":[-49.3642354,-20.7681401]}},{"type":"Feature","properties":{"nome":"Bosque da Felicidade","osm_id":2369996416,"osm_tipo":"node","tipo_lugar":"neighbourhood"},"geometry":{"type":"Point","coordinates":[-49.359565,-20.7750041]}},{"type":"Feature","properties":{"nome":"Jardim Castelinho","osm_id":2369996417,"osm_tipo":"node","tipo_lugar":"neighbourhood"},"geometry":{"type":"Point","coordinates":[-49.3565081,-20.7754017]}},{"type":"Feature","properties":{"nome":"Parque Residencial Castelinho","osm_id":2370014604,"osm_tipo":"node","tipo_lugar":"suburb"},"geometry":{"type":"Point","coordinates":[-49.3609452,-20.7775878]}},{"type":"Feature","properties":{"nome":"Jardim Nazareth","osm_id":2370040025,"osm_tipo":"node","tipo_lugar":"suburb"},"geometry":{"type":"Point","coordinates":[-49.358338,-20.7826888]}},{"type":"Feature","properties":{"nome":"Jardim Santa Rosa II","osm_id":2371445062,"osm_tipo":"node","tipo_lugar":"neighbourhood"},"geometry":{"type":"Point","coordinates":[-49.3670751,-20.7838736]}},{"type":"Feature","properties":{"nome":"Jardim Alto Alegre","osm_id":2371452687,"osm_tipo":"node","tipo_lugar":"neighbourhood"},"geometry":{"type":"Point","coordinates":[-49.3577852,-20.7901311]}},{"type":"Feature","properties":{"nome":"Jardim Municipal","osm_id":2371453562,"osm_tipo":"node","tipo_lugar":"neighbourhood"},"geometry":{"type":"Point","coordinates":[-49.3585643,-20.7925099]}},{"type":"Feature","properties":{"nome":"Parque Industrial Tancredo Neves","osm_id":2376119217,"osm_tipo":"node","tipo_lugar":"neighbourhood"},"geometry":{"type":"Point","coordinates":[-49.3532187,-20.8374848]}},{"type":"Feature","properties":{"nome":"Jardim Santa Maria","osm_id":2376674509,"osm_tipo":"node","tipo_lugar":"neighbourhood"},"geometry":{"type":"Point","coordinates":[-49.3644623,-20.8299407]}},{"type":"Feature","properties":{"nome":"Jardim Santa Luzia","osm_id":2376675623,"osm_tipo":"node","tipo_lugar":"neighbourhood"},"geometry":{"type":"Point","coordinates":[-49.3728415,-20.8253053]}},{"type":"Feature","properties":{"nome":"Jardim Santa Catarina","osm_id":2376676499,"osm_tipo":"node","tipo_lugar":"neighbourhood"},"geometry":{"type":"Point","coordinates":[-49.3694831,-20.8277787]}},{"type":"Feature","properties":{"nome":"Parque Quinta das Paineiras","osm_id":2377253949,"osm_tipo":"node","tipo_lugar":"neighbourhood"},"geometry":{"type":"Point","coordinates":[-49.3685014,-20.8325054]}},{"type":"Feature","properties":{"nome":"Parque Residencial Mançor Daud","osm_id":2377264882,"osm_tipo":"node","tipo_lugar":"neighbourhood"},"geometry":{"type":"Point","coordinates":[-49.3613838,-20.8237584]}},{"type":"Feature","properties":{"nome":"Parque Celeste","osm_id":2377280510,"osm_tipo":"node","tipo_lugar":"neighbourhood"},"geometry":{"type":"Point","coordinates":[-49.3645813,-20.8187086]}},{"type":"Feature","properties":{"nome":"Roseiral","osm_id":2377305088,"osm_tipo":"node","tipo_lugar":"neighbourhood"},"geometry":{"type":"Point","coordinates":[-49.3608337,-20.8172243]}},{"type":"Feature","properties":{"nome":"Vila Diniz","osm_id":2377920570,"osm_tipo":"node","tipo_lugar":"neighbourhood"},"geometry":{"type":"Point","coordinates":[-49.3682012,-20.8202125]}},{"type":"Feature","properties":{"nome":"Loteamento Vila Nova","osm_id":2377940214,"osm_tipo":"node","tipo_lugar":"neighbourhood"},"geometry":{"type":"Point","coordinates":[-49.3690605,-20.8129732]}},{"type":"Feature","properties":{"nome":"Vila Ercília","osm_id":2377940217,"osm_tipo":"node","tipo_lugar":"neighbourhood"},"geometry":{"type":"Point","coordinates":[-49.3705773,-20.814187]}},{"type":"Feature","properties":{"nome":"Vila Santa Cruz","osm_id":2378248643,"osm_tipo":"node","tipo_lugar":"neighbourhood"},"geometry":{"type":"Point","coordinates":[-49.3741208,-20.818403]}},{"type":"Feature","properties":{"nome":"Vila Aurora","osm_id":2378258330,"osm_tipo":"node","tipo_lugar":"neighbourhood"},"geometry":{"type":"Point","coordinates":[-49.3784353,-20.8220486]}},{"type":"Feature","properties":{"nome":"Vila Santo Antônio","osm_id":2378262568,"osm_tipo":"node","tipo_lugar":"neighbourhood"},"geometry":{"type":"Point","coordinates":[-49.3805649,-20.822391]}},{"type":"Feature","properties":{"nome":"Jardim Europa","osm_id":2378271299,"osm_tipo":"node","tipo_lugar":"neighbourhood"},"geometry":{"type":"Point","coordinates":[-49.3830727,-20.8218082]}},{"type":"Feature","properties":{"nome":"Vila Bom Jesus","osm_id":2378279182,"osm_tipo":"node","tipo_lugar":"neighbourhood"},"geometry":{"type":"Point","coordinates":[-49.3788642,-20.8167229]}},{"type":"Feature","properties":{"nome":"Jardim Alto Rio Preto","osm_id":2378292825,"osm_tipo":"node","tipo_lugar":"neighbourhood"},"geometry":{"type":"Point","coordinates":[-49.405554,-20.8210606]}},{"type":"Feature","properties":{"nome":"Jardim Maria Cândida","osm_id":2378292826,"osm_tipo":"node","tipo_lugar":"neighbourhood"},"geometry":{"type":"Point","coordinates":[-49.4090214,-20.8208312]}},{"type":"Feature","properties":{"nome":"Santos Dumont","osm_id":2378300109,"osm_tipo":"node","tipo_lugar":"neighbourhood"},"geometry":{"type":"Point","coordinates":[-49.3989722,-20.8176585]}},{"type":"Feature","properties":{"nome":"Jardim Tangará","osm_id":2379529783,"osm_tipo":"node","tipo_lugar":"neighbourhood"},"geometry":{"type":"Point","coordinates":[-49.3734757,-20.8409025]}},{"type":"Feature","properties":{"nome":"São Francisco","osm_id":2379537068,"osm_tipo":"node","tipo_lugar":"neighbourhood"},"geometry":{"type":"Point","coordinates":[-49.3828593,-20.8476014]}},{"type":"Feature","properties":{"nome":"Jardim Viena","osm_id":2379538448,"osm_tipo":"node","tipo_lugar":"neighbourhood"},"geometry":{"type":"Point","coordinates":[-49.3822474,-20.8489155]}},{"type":"Feature","properties":{"nome":"Jardim Francisco Fernandes","osm_id":2379573373,"osm_tipo":"node","tipo_lugar":"neighbourhood"},"geometry":{"type":"Point","coordinates":[-49.3975324,-20.8407933]}},{"type":"Feature","properties":{"nome":"Residencial Maza","osm_id":2388033176,"osm_tipo":"node","tipo_lugar":"neighbourhood"},"geometry":{"type":"Point","coordinates":[-49.3056362,-20.8667783]}},{"type":"Feature","properties":{"nome":"Chácara Bela Vista 1ª parte","osm_id":2388035274,"osm_tipo":"node","tipo_lugar":"neighbourhood"},"geometry":{"type":"Point","coordinates":[-49.3195794,-20.8669289]}},{"type":"Feature","properties":{"nome":"Residencial Santa Regina","osm_id":2388037170,"osm_tipo":"node","tipo_lugar":"neighbourhood"},"geometry":{"type":"Point","coordinates":[-49.3297334,-20.8583565]}},{"type":"Feature","properties":{"nome":"Jardim Veneza","osm_id":2388041037,"osm_tipo":"node","tipo_lugar":"neighbourhood"},"geometry":{"type":"Point","coordinates":[-49.3292169,-20.8820509]}},{"type":"Feature","properties":{"nome":"Residencial Cortina D'Ampezzo","osm_id":2388047542,"osm_tipo":"node","tipo_lugar":"neighbourhood"},"geometry":{"type":"Point","coordinates":[-49.3419459,-20.8915079]}},{"type":"Feature","properties":{"nome":"Residencial Mirante","osm_id":2402042512,"osm_tipo":"node","tipo_lugar":"neighbourhood"},"geometry":{"type":"Point","coordinates":[-49.4409396,-20.7850565]}},{"type":"Feature","properties":{"nome":"Residencial Santa Cruz","osm_id":2402042685,"osm_tipo":"node","tipo_lugar":"neighbourhood"},"geometry":{"type":"Point","coordinates":[-49.445591,-20.7877748]}},{"type":"Feature","properties":{"nome":"Residencial Santa Ana","osm_id":2908341518,"osm_tipo":"node","tipo_lugar":"neighbourhood"},"geometry":{"type":"Point","coordinates":[-49.3657852,-20.7559503]}},{"type":"Feature","properties":{"nome":"Conjunto Habitacional S.J.do Rio Preto I","osm_id":2909967790,"osm_tipo":"node","tipo_lugar":"neighbourhood"},"geometry":{"type":"Point","coordinates":[-49.3625749,-20.7615494]}},{"type":"Feature","properties":{"nome":"Residencial Machado","osm_id":2911007591,"osm_tipo":"node","tipo_lugar":"neighbourhood"},"geometry":{"type":"Point","coordinates":[-49.3563199,-20.7639523]}},{"type":"Feature","properties":{"nome":"Residencial Amazonas","osm_id":2911127592,"osm_tipo":"node","tipo_lugar":"neighbourhood"},"geometry":{"type":"Point","coordinates":[-49.3545705,-20.7629726]}},{"type":"Feature","properties":{"nome":"Estância Bosque Verde","osm_id":2911143532,"osm_tipo":"node","tipo_lugar":"neighbourhood"},"geometry":{"type":"Point","coordinates":[-49.3537858,-20.7372577]}},{"type":"Feature","properties":{"nome":"Estância Santa Clara","osm_id":2911143594,"osm_tipo":"node","tipo_lugar":"neighbourhood"},"geometry":{"type":"Point","coordinates":[-49.3531399,-20.7439695]}},{"type":"Feature","properties":{"nome":"Estância Gramado","osm_id":2911176468,"osm_tipo":"node","tipo_lugar":"neighbourhood"},"geometry":{"type":"Point","coordinates":[-49.3576858,-20.7220981]}},{"type":"Feature","properties":{"nome":"Residencial Nato Vetorazzo","osm_id":2984801372,"osm_tipo":"node","tipo_lugar":"suburb"},"geometry":{"type":"Point","coordinates":[-49.4417625,-20.7902641]}},{"type":"Feature","properties":{"nome":"Parque Residencial J Macedo","osm_id":2984857605,"osm_tipo":"node","tipo_lugar":"neighbourhood"},"geometry":{"type":"Point","coordinates":[-49.4288349,-20.7992059]}},{"type":"Feature","properties":{"nome":"Jardim Fuscaldo","osm_id":3012700633,"osm_tipo":"node","tipo_lugar":"neighbourhood"},"geometry":{"type":"Point","coordinates":[-49.3580678,-20.8053957]}},{"type":"Feature","properties":{"nome":"Vila Ideal","osm_id":3012700634,"osm_tipo":"node","tipo_lugar":"neighbourhood"},"geometry":{"type":"Point","coordinates":[-49.3620905,-20.8030088]}},{"type":"Feature","properties":{"nome":"Jardim Bela Vista","osm_id":3012700635,"osm_tipo":"node","tipo_lugar":"neighbourhood"},"geometry":{"type":"Point","coordinates":[-49.3624268,-20.7992718]}},{"type":"Feature","properties":{"nome":"Vila Goyos","osm_id":3012724634,"osm_tipo":"node","tipo_lugar":"suburb"},"geometry":{"type":"Point","coordinates":[-49.3643508,-20.8051391]}},{"type":"Feature","properties":{"nome":"Jardim Paulista","osm_id":3012724635,"osm_tipo":"node","tipo_lugar":"neighbourhood"},"geometry":{"type":"Point","coordinates":[-49.3675264,-20.8020134]}},{"type":"Feature","properties":{"nome":"Jardim São Vicente","osm_id":3012743851,"osm_tipo":"node","tipo_lugar":"neighbourhood"},"geometry":{"type":"Point","coordinates":[-49.3685524,-20.8001691]}},{"type":"Feature","properties":{"nome":"Vila Angélica","osm_id":3012743853,"osm_tipo":"node","tipo_lugar":"neighbourhood"},"geometry":{"type":"Point","coordinates":[-49.3755761,-20.8033822]}},{"type":"Feature","properties":{"nome":"Vila Lisboa","osm_id":3012779200,"osm_tipo":"node","tipo_lugar":"neighbourhood"},"geometry":{"type":"Point","coordinates":[-49.3724939,-20.797672]}},{"type":"Feature","properties":{"nome":"Vila Santa Isabel","osm_id":3012779201,"osm_tipo":"node","tipo_lugar":"neighbourhood"},"geometry":{"type":"Point","coordinates":[-49.3691128,-20.7961178]}},{"type":"Feature","properties":{"nome":"Vila Anchieta","osm_id":3012779202,"osm_tipo":"node","tipo_lugar":"suburb"},"geometry":{"type":"Point","coordinates":[-49.3736894,-20.7952097]}},{"type":"Feature","properties":{"nome":"Jardim América","osm_id":3012779203,"osm_tipo":"node","tipo_lugar":"neighbourhood"},"geometry":{"type":"Point","coordinates":[-49.3662228,-20.7954894]}},{"type":"Feature","properties":{"nome":"Jardim Bordon","osm_id":3012779204,"osm_tipo":"node","tipo_lugar":"neighbourhood"},"geometry":{"type":"Point","coordinates":[-49.3642661,-20.7973055]}},{"type":"Feature","properties":{"nome":"Jardim Americano","osm_id":3012779205,"osm_tipo":"node","tipo_lugar":"neighbourhood"},"geometry":{"type":"Point","coordinates":[-49.3620563,-20.7983931]}},{"type":"Feature","properties":{"nome":"Jardim São Paulo","osm_id":3012830038,"osm_tipo":"node","tipo_lugar":"neighbourhood"},"geometry":{"type":"Point","coordinates":[-49.3566357,-20.7976086]}},{"type":"Feature","properties":{"nome":"Eldorado","osm_id":3025608987,"osm_tipo":"node","tipo_lugar":"suburb"},"geometry":{"type":"Point","coordinates":[-49.4004559,-20.78816]}},{"type":"Feature","properties":{"nome":"Residencial Santa Angela","osm_id":3025608988,"osm_tipo":"node","tipo_lugar":"neighbourhood"},"geometry":{"type":"Point","coordinates":[-49.4037407,-20.795378]}},{"type":"Feature","properties":{"nome":"Jardim Los Angeles","osm_id":3025608989,"osm_tipo":"node","tipo_lugar":"neighbourhood"},"geometry":{"type":"Point","coordinates":[-49.3993204,-20.7937932]}},{"type":"Feature","properties":{"nome":"Vila Nossa Senhora da Penha","osm_id":3025608990,"osm_tipo":"node","tipo_lugar":"neighbourhood"},"geometry":{"type":"Point","coordinates":[-49.3943422,-20.7893599]}},{"type":"Feature","properties":{"nome":"Jardim Costa do Sol","osm_id":3025608991,"osm_tipo":"node","tipo_lugar":"neighbourhood"},"geometry":{"type":"Point","coordinates":[-49.3914454,-20.7881362]}},{"type":"Feature","properties":{"nome":"Residencial Vista Alegre","osm_id":3160958147,"osm_tipo":"node","tipo_lugar":"neighbourhood"},"geometry":{"type":"Point","coordinates":[-49.3912,-20.7693677]}},{"type":"Feature","properties":{"nome":"Recanto Duas Vendas","osm_id":3160995892,"osm_tipo":"node","tipo_lugar":"neighbourhood"},"geometry":{"type":"Point","coordinates":[-49.3808418,-20.7609336]}},{"type":"Feature","properties":{"nome":"Jardim Simões","osm_id":3160995893,"osm_tipo":"node","tipo_lugar":"neighbourhood"},"geometry":{"type":"Point","coordinates":[-49.3833778,-20.7680916]}},{"type":"Feature","properties":{"nome":"Mini Distrito Centenário da Emancipação","osm_id":3160995894,"osm_tipo":"node","tipo_lugar":"neighbourhood"},"geometry":{"type":"Point","coordinates":[-49.3816107,-20.762615]}},{"type":"Feature","properties":{"nome":"Residencial Jéssica","osm_id":3161032145,"osm_tipo":"node","tipo_lugar":"suburb"},"geometry":{"type":"Point","coordinates":[-49.3846874,-20.7596726]}},{"type":"Feature","properties":{"nome":"Estância Alvorada","osm_id":3199901960,"osm_tipo":"node","tipo_lugar":"neighbourhood"},"geometry":{"type":"Point","coordinates":[-49.4288117,-20.7524584]}},{"type":"Feature","properties":{"nome":"Estância Bela Vista","osm_id":3204837813,"osm_tipo":"node","tipo_lugar":"neighbourhood"},"geometry":{"type":"Point","coordinates":[-49.4378106,-20.7606236]}},{"type":"Feature","properties":{"nome":"Estância Santa Edwirges I","osm_id":3204837814,"osm_tipo":"node","tipo_lugar":"neighbourhood"},"geometry":{"type":"Point","coordinates":[-49.4491498,-20.7306848]}},{"type":"Feature","properties":{"nome":"Jardim Nunes","osm_id":3214373274,"osm_tipo":"node","tipo_lugar":"suburb"},"geometry":{"type":"Point","coordinates":[-49.387686,-20.7499716]}},{"type":"Feature","properties":{"nome":"Residencial Caetano","osm_id":3214373275,"osm_tipo":"node","tipo_lugar":"neighbourhood"},"geometry":{"type":"Point","coordinates":[-49.3852977,-20.7566562]}},{"type":"Feature","properties":{"nome":"Residencial Luzia Poloto","osm_id":3214373276,"osm_tipo":"node","tipo_lugar":"neighbourhood"},"geometry":{"type":"Point","coordinates":[-49.3922244,-20.7554058]}},{"type":"Feature","properties":{"nome":"Jardim Antunes","osm_id":3214405523,"osm_tipo":"node","tipo_lugar":"suburb"},"geometry":{"type":"Point","coordinates":[-49.404434,-20.7700758]}},{"type":"Feature","properties":{"nome":"Jardim Manoel Del Arco","osm_id":3214405524,"osm_tipo":"node","tipo_lugar":"neighbourhood"},"geometry":{"type":"Point","coordinates":[-49.392678,-20.767325]}},{"type":"Feature","properties":{"nome":"Jardim Maria Lucia","osm_id":3214405525,"osm_tipo":"node","tipo_lugar":"neighbourhood"},"geometry":{"type":"Point","coordinates":[-49.4049768,-20.7672804]}},{"type":"Feature","properties":{"nome":"Jardim Planalto","osm_id":3214405526,"osm_tipo":"node","tipo_lugar":"neighbourhood"},"geometry":{"type":"Point","coordinates":[-49.3866174,-20.7644695]}},{"type":"Feature","properties":{"nome":"Jardim Zé Menino","osm_id":3214405527,"osm_tipo":"node","tipo_lugar":"neighbourhood"},"geometry":{"type":"Point","coordinates":[-49.3924654,-20.7659336]}},{"type":"Feature","properties":{"nome":"Mini Distrito Professor Adail Vetorazzo","osm_id":3214405528,"osm_tipo":"node","tipo_lugar":"neighbourhood"},"geometry":{"type":"Point","coordinates":[-49.3956069,-20.7684072]}},{"type":"Feature","properties":{"nome":"Parque das Perdizes","osm_id":3214405529,"osm_tipo":"node","tipo_lugar":"suburb"},"geometry":{"type":"Point","coordinates":[-49.3896074,-20.7632254]}},{"type":"Feature","properties":{"nome":"Residencial Padilha","osm_id":3214405530,"osm_tipo":"node","tipo_lugar":"neighbourhood"},"geometry":{"type":"Point","coordinates":[-49.383106,-20.7651244]}},{"type":"Feature","properties":{"nome":"Jardim Arroyo","osm_id":3214428456,"osm_tipo":"node","tipo_lugar":"neighbourhood"},"geometry":{"type":"Point","coordinates":[-49.4053967,-20.7631305]}},{"type":"Feature","properties":{"nome":"Jardim Santo Antônio I","osm_id":3214428457,"osm_tipo":"node","tipo_lugar":"suburb"},"geometry":{"type":"Point","coordinates":[-49.3974536,-20.7600821]}},{"type":"Feature","properties":{"nome":"Jardim das Oliveiras","osm_id":3214428458,"osm_tipo":"node","tipo_lugar":"neighbourhood"},"geometry":{"type":"Point","coordinates":[-49.4116468,-20.7721022]}},{"type":"Feature","properties":{"nome":"Residencial Califórnia","osm_id":3214428459,"osm_tipo":"node","tipo_lugar":"neighbourhood"},"geometry":{"type":"Point","coordinates":[-49.414281,-20.7677689]}},{"type":"Feature","properties":{"nome":"Residencial Colorado","osm_id":3214428460,"osm_tipo":"node","tipo_lugar":"neighbourhood"},"geometry":{"type":"Point","coordinates":[-49.4147534,-20.7707794]}},{"type":"Feature","properties":{"nome":"Jardim Asturias","osm_id":3214465976,"osm_tipo":"node","tipo_lugar":"suburb"},"geometry":{"type":"Point","coordinates":[-49.4160369,-20.782933]}},{"type":"Feature","properties":{"nome":"Jardim Residencial das Laranjeiras","osm_id":3214465977,"osm_tipo":"node","tipo_lugar":"neighbourhood"},"geometry":{"type":"Point","coordinates":[-49.4120326,-20.7872322]}},{"type":"Feature","properties":{"nome":"Parque Residencial João da Silva","osm_id":3214465978,"osm_tipo":"node","tipo_lugar":"neighbourhood"},"geometry":{"type":"Point","coordinates":[-49.4090332,-20.7870761]}},{"type":"Feature","properties":{"nome":"Residencial Bom Sucesso","osm_id":3214465979,"osm_tipo":"node","tipo_lugar":"neighbourhood"},"geometry":{"type":"Point","coordinates":[-49.4141995,-20.7646786]}},{"type":"Feature","properties":{"nome":"Solo Sagrado I","osm_id":3214465981,"osm_tipo":"node","tipo_lugar":"neighbourhood"},"geometry":{"type":"Point","coordinates":[-49.4146338,-20.7765757]}},{"type":"Feature","properties":{"nome":"Solo Sagrado","osm_id":3214465982,"osm_tipo":"node","tipo_lugar":"suburb"},"geometry":{"type":"Point","coordinates":[-49.4079304,-20.7809435]}},{"type":"Feature","properties":{"nome":"Vila Mafalda II","osm_id":3214465983,"osm_tipo":"node","tipo_lugar":"neighbourhood"},"geometry":{"type":"Point","coordinates":[-49.4197446,-20.77339]}},{"type":"Feature","properties":{"nome":"Vila União","osm_id":3214465984,"osm_tipo":"node","tipo_lugar":"neighbourhood"},"geometry":{"type":"Point","coordinates":[-49.4020038,-20.7815253]}},{"type":"Feature","properties":{"nome":"Jardim Antonieta","osm_id":3214541402,"osm_tipo":"node","tipo_lugar":"neighbourhood"},"geometry":{"type":"Point","coordinates":[-49.4332716,-20.7970857]}},{"type":"Feature","properties":{"nome":"Jardim Bianco","osm_id":3214541403,"osm_tipo":"node","tipo_lugar":"neighbourhood"},"geometry":{"type":"Point","coordinates":[-49.4254931,-20.7879696]}},{"type":"Feature","properties":{"nome":"Jardim Gisete","osm_id":3214541404,"osm_tipo":"node","tipo_lugar":"neighbourhood"},"geometry":{"type":"Point","coordinates":[-49.4226429,-20.7876476]}},{"type":"Feature","properties":{"nome":"Parque Residencial Maria Zorita","osm_id":3214541405,"osm_tipo":"node","tipo_lugar":"neighbourhood"},"geometry":{"type":"Point","coordinates":[-49.4237078,-20.7833686]}},{"type":"Feature","properties":{"nome":"Parque do Sol","osm_id":3214541406,"osm_tipo":"node","tipo_lugar":"neighbourhood"},"geometry":{"type":"Point","coordinates":[-49.4194556,-20.7997861]}},{"type":"Feature","properties":{"nome":"Residencial Etemp","osm_id":3214541407,"osm_tipo":"node","tipo_lugar":"neighbourhood"},"geometry":{"type":"Point","coordinates":[-49.4205801,-20.7849553]}},{"type":"Feature","properties":{"nome":"Residencial Macedo Teles I","osm_id":3214541408,"osm_tipo":"node","tipo_lugar":"neighbourhood"},"geometry":{"type":"Point","coordinates":[-49.4183366,-20.8012694]}},{"type":"Feature","properties":{"nome":"Residencial Palestra","osm_id":3214541409,"osm_tipo":"node","tipo_lugar":"suburb"},"geometry":{"type":"Point","coordinates":[-49.4312128,-20.8023695]}},{"type":"Feature","properties":{"nome":"Residencial Quinta da Mata","osm_id":3220663286,"osm_tipo":"node","tipo_lugar":"neighbourhood"},"geometry":{"type":"Point","coordinates":[-49.3555377,-20.830241]}},{"type":"Feature","properties":{"nome":"Jardim Soraia","osm_id":3222095208,"osm_tipo":"node","tipo_lugar":"neighbourhood"},"geometry":{"type":"Point","coordinates":[-49.3551322,-20.8168553]}},{"type":"Feature","properties":{"nome":"Condomínio Residencial Damha II","osm_id":3222184468,"osm_tipo":"node","tipo_lugar":"neighbourhood"},"geometry":{"type":"Point","coordinates":[-49.3422932,-20.8189668]}},{"type":"Feature","properties":{"nome":"Condomínio Residencial Damha III","osm_id":3222184469,"osm_tipo":"node","tipo_lugar":"neighbourhood"},"geometry":{"type":"Point","coordinates":[-49.3342685,-20.8159759]}},{"type":"Feature","properties":{"nome":"Condomínio Residencial Damha IV","osm_id":3222184470,"osm_tipo":"node","tipo_lugar":"neighbourhood"},"geometry":{"type":"Point","coordinates":[-49.3362031,-20.821898]}},{"type":"Feature","properties":{"nome":"Condomínio Residencial Damha V","osm_id":3222184471,"osm_tipo":"node","tipo_lugar":"neighbourhood"},"geometry":{"type":"Point","coordinates":[-49.3345209,-20.8117071]}},{"type":"Feature","properties":{"nome":"Condomínio Residencial Damha","osm_id":3222184472,"osm_tipo":"node","tipo_lugar":"suburb"},"geometry":{"type":"Point","coordinates":[-49.344319,-20.8126031]}},{"type":"Feature","properties":{"nome":"Condomínio Residencial Gaivota I","osm_id":3222184473,"osm_tipo":"node","tipo_lugar":"neighbourhood"},"geometry":{"type":"Point","coordinates":[-49.3391316,-20.8034555]}},{"type":"Feature","properties":{"nome":"Condomínio Residencial Gaivota II","osm_id":3222184474,"osm_tipo":"node","tipo_lugar":"neighbourhood"},"geometry":{"type":"Point","coordinates":[-49.3369727,-20.8084806]}},{"type":"Feature","properties":{"nome":"Jardim Yolanda","osm_id":3222184475,"osm_tipo":"node","tipo_lugar":"neighbourhood"},"geometry":{"type":"Point","coordinates":[-49.3489105,-20.8038256]}},{"type":"Feature","properties":{"nome":"Vista Alegre","osm_id":3222184476,"osm_tipo":"node","tipo_lugar":"neighbourhood"},"geometry":{"type":"Point","coordinates":[-49.3450289,-20.8052802]}},{"type":"Feature","properties":{"nome":"Condomínio Residencial Damha VI","osm_id":3230081321,"osm_tipo":"node","tipo_lugar":"suburb"},"geometry":{"type":"Point","coordinates":[-49.3259876,-20.8088959]}},{"type":"Feature","properties":{"nome":"Jardim Marambaia","osm_id":3230081322,"osm_tipo":"node","tipo_lugar":"neighbourhood"},"geometry":{"type":"Point","coordinates":[-49.3519918,-20.7928831]}},{"type":"Feature","properties":{"nome":"Parque São Miguel","osm_id":3230081323,"osm_tipo":"node","tipo_lugar":"neighbourhood"},"geometry":{"type":"Point","coordinates":[-49.3488204,-20.797817]}},{"type":"Feature","properties":{"nome":"Residencial Vila Flora","osm_id":3230081324,"osm_tipo":"node","tipo_lugar":"neighbourhood"},"geometry":{"type":"Point","coordinates":[-49.3490037,-20.7884083]}},{"type":"Feature","properties":{"nome":"São Deocleciano","osm_id":3230081325,"osm_tipo":"node","tipo_lugar":"suburb"},"geometry":{"type":"Point","coordinates":[-49.3438623,-20.7905867]}},{"type":"Feature","properties":{"nome":"Condomínio Jardins de Barcelona","osm_id":3230470829,"osm_tipo":"node","tipo_lugar":"neighbourhood"},"geometry":{"type":"Point","coordinates":[-49.3466371,-20.7804878]}},{"type":"Feature","properties":{"nome":"Condomínio Belvedere","osm_id":3230470830,"osm_tipo":"node","tipo_lugar":"neighbourhood"},"geometry":{"type":"Point","coordinates":[-49.3463154,-20.7785015]}},{"type":"Feature","properties":{"nome":"Condomínio Garden Village II","osm_id":3230470831,"osm_tipo":"node","tipo_lugar":"neighbourhood"},"geometry":{"type":"Point","coordinates":[-49.3503835,-20.7738313]}},{"type":"Feature","properties":{"nome":"Condomínio Garden Village","osm_id":3230470832,"osm_tipo":"node","tipo_lugar":"neighbourhood"},"geometry":{"type":"Point","coordinates":[-49.3488089,-20.776577]}},{"type":"Feature","properties":{"nome":"Condomínio Jardins de Athenas","osm_id":3230470833,"osm_tipo":"node","tipo_lugar":"neighbourhood"},"geometry":{"type":"Point","coordinates":[-49.3452229,-20.7805827]}},{"type":"Feature","properties":{"nome":"Village Maria Stella","osm_id":3230470834,"osm_tipo":"node","tipo_lugar":"neighbourhood"},"geometry":{"type":"Point","coordinates":[-49.3461341,-20.7825078]}},{"type":"Feature","properties":{"nome":"Condomínio Village Damha II","osm_id":3230470835,"osm_tipo":"node","tipo_lugar":"neighbourhood"},"geometry":{"type":"Point","coordinates":[-49.3442069,-20.7757008]}},{"type":"Feature","properties":{"nome":"Condomínio Village Damha","osm_id":3230470836,"osm_tipo":"node","tipo_lugar":"neighbourhood"},"geometry":{"type":"Point","coordinates":[-49.3402947,-20.7801905]}},{"type":"Feature","properties":{"nome":"Jardim Jandira","osm_id":3230489222,"osm_tipo":"node","tipo_lugar":"suburb"},"geometry":{"type":"Point","coordinates":[-49.3527348,-20.7822841]}},{"type":"Feature","properties":{"nome":"Jardim do Lago","osm_id":3230489223,"osm_tipo":"node","tipo_lugar":"neighbourhood"},"geometry":{"type":"Point","coordinates":[-49.353302,-20.7724927]}},{"type":"Feature","properties":{"nome":"Residencial Vale Verde","osm_id":3230489224,"osm_tipo":"node","tipo_lugar":"neighbourhood"},"geometry":{"type":"Point","coordinates":[-49.3541071,-20.7776529]}},{"type":"Feature","properties":{"nome":"Santa Filomena","osm_id":3230489225,"osm_tipo":"node","tipo_lugar":"neighbourhood"},"geometry":{"type":"Point","coordinates":[-49.3503083,-20.7840208]}},{"type":"Feature","properties":{"nome":"Estancia São João","osm_id":3230551334,"osm_tipo":"node","tipo_lugar":"neighbourhood"},"geometry":{"type":"Point","coordinates":[-49.3710499,-20.7719332]}},{"type":"Feature","properties":{"nome":"Jardim Flor do Bairro","osm_id":3230551335,"osm_tipo":"node","tipo_lugar":"neighbourhood"},"geometry":{"type":"Point","coordinates":[-49.3701385,-20.7700286]}},{"type":"Feature","properties":{"nome":"Jardim Seyon","osm_id":3230551336,"osm_tipo":"node","tipo_lugar":"neighbourhood"},"geometry":{"type":"Point","coordinates":[-49.3696944,-20.7780824]}},{"type":"Feature","properties":{"nome":"Jardim Sônia","osm_id":3230551337,"osm_tipo":"node","tipo_lugar":"neighbourhood"},"geometry":{"type":"Point","coordinates":[-49.372874,-20.784685]}},{"type":"Feature","properties":{"nome":"Jardim Suzana","osm_id":3230551338,"osm_tipo":"node","tipo_lugar":"neighbourhood"},"geometry":{"type":"Point","coordinates":[-49.3766555,-20.7818085]}},{"type":"Feature","properties":{"nome":"Jardim Urupês","osm_id":3230551339,"osm_tipo":"node","tipo_lugar":"neighbourhood"},"geometry":{"type":"Point","coordinates":[-49.3720797,-20.7742376]}},{"type":"Feature","properties":{"nome":"Loteamento Caparroz","osm_id":3230551340,"osm_tipo":"node","tipo_lugar":"neighbourhood"},"geometry":{"type":"Point","coordinates":[-49.3731418,-20.7824476]}},{"type":"Feature","properties":{"nome":"Mini Distrito Jaguaré","osm_id":3230551341,"osm_tipo":"node","tipo_lugar":"neighbourhood"},"geometry":{"type":"Point","coordinates":[-49.3698294,-20.7767155]}},{"type":"Feature","properties":{"nome":"Parque Jaguaré","osm_id":3230551342,"osm_tipo":"node","tipo_lugar":"suburb"},"geometry":{"type":"Point","coordinates":[-49.3684483,-20.7741124]}},{"type":"Feature","properties":{"nome":"Parque das Flores 1","osm_id":3230551343,"osm_tipo":"node","tipo_lugar":"neighbourhood"},"geometry":{"type":"Point","coordinates":[-49.3747112,-20.7778665]}},{"type":"Feature","properties":{"nome":"Parque das Flores 2","osm_id":3230551344,"osm_tipo":"node","tipo_lugar":"neighbourhood"},"geometry":{"type":"Point","coordinates":[-49.3725918,-20.7779158]}},{"type":"Feature","properties":{"nome":"Vila Clementina","osm_id":3230551345,"osm_tipo":"node","tipo_lugar":"neighbourhood"},"geometry":{"type":"Point","coordinates":[-49.3754267,-20.7738621]}},{"type":"Feature","properties":{"nome":"Vila Elmaz","osm_id":3230551346,"osm_tipo":"node","tipo_lugar":"suburb"},"geometry":{"type":"Point","coordinates":[-49.3756275,-20.7696217]}},{"type":"Feature","properties":{"nome":"Estância Navarrete 2","osm_id":3244963678,"osm_tipo":"node","tipo_lugar":"neighbourhood"},"geometry":{"type":"Point","coordinates":[-49.3740114,-20.8755755]}},{"type":"Feature","properties":{"nome":"Estância Santa Inês","osm_id":3244963679,"osm_tipo":"node","tipo_lugar":"neighbourhood"},"geometry":{"type":"Point","coordinates":[-49.3973191,-20.8667023]}},{"type":"Feature","properties":{"nome":"Estância Santa Maria","osm_id":3244963680,"osm_tipo":"node","tipo_lugar":"neighbourhood"},"geometry":{"type":"Point","coordinates":[-49.3916768,-20.8648586]}},{"type":"Feature","properties":{"nome":"Estancia São Marcos 2","osm_id":3244963681,"osm_tipo":"node","tipo_lugar":"neighbourhood"},"geometry":{"type":"Point","coordinates":[-49.3870434,-20.8655184]}},{"type":"Feature","properties":{"nome":"Estancia São Pedro","osm_id":3244963682,"osm_tipo":"node","tipo_lugar":"neighbourhood"},"geometry":{"type":"Point","coordinates":[-49.3794924,-20.8615917]}},{"type":"Feature","properties":{"nome":"Vista Alegre I","osm_id":3244963683,"osm_tipo":"node","tipo_lugar":"neighbourhood"},"geometry":{"type":"Point","coordinates":[-49.3868822,-20.8742527]}},{"type":"Feature","properties":{"nome":"Vista Alegre II","osm_id":3244963684,"osm_tipo":"node","tipo_lugar":"neighbourhood"},"geometry":{"type":"Point","coordinates":[-49.3909148,-20.8772929]}},{"type":"Feature","properties":{"nome":"Vista Alegre III","osm_id":3244963685,"osm_tipo":"node","tipo_lugar":"neighbourhood"},"geometry":{"type":"Point","coordinates":[-49.3949994,-20.8772929]}},{"type":"Feature","properties":{"nome":"Parque da Cidadania","osm_id":3435941948,"osm_tipo":"node","tipo_lugar":"suburb"},"geometry":{"type":"Point","coordinates":[-49.4065316,-20.7514213]}},{"type":"Feature","properties":{"nome":"Residencial Morada do Sol","osm_id":3435941949,"osm_tipo":"node","tipo_lugar":"neighbourhood"},"geometry":{"type":"Point","coordinates":[-49.3965695,-20.7465714]}},{"type":"Feature","properties":{"nome":"Estância Unitra","osm_id":3436196294,"osm_tipo":"node","tipo_lugar":"neighbourhood"},"geometry":{"type":"Point","coordinates":[-49.3577612,-20.8653546]}},{"type":"Feature","properties":{"nome":"Condomínio Parque da Liberdade II","osm_id":3501621871,"osm_tipo":"node","tipo_lugar":"neighbourhood"},"geometry":{"type":"Point","coordinates":[-49.334018,-20.7705807]}},{"type":"Feature","properties":{"nome":"Condomínio Parque da Liberdade III","osm_id":3501621872,"osm_tipo":"node","tipo_lugar":"neighbourhood"},"geometry":{"type":"Point","coordinates":[-49.3325345,-20.7682539]}},{"type":"Feature","properties":{"nome":"Condomínio Parque da Liberdade VI","osm_id":3501621873,"osm_tipo":"node","tipo_lugar":"neighbourhood"},"geometry":{"type":"Point","coordinates":[-49.329041,-20.7716397]}},{"type":"Feature","properties":{"nome":"Condomínio Parque da Liberdade V","osm_id":3501621874,"osm_tipo":"node","tipo_lugar":"neighbourhood"},"geometry":{"type":"Point","coordinates":[-49.3266322,-20.7694919]}},{"type":"Feature","properties":{"nome":"Condomínio Parque da Liberdade","osm_id":3501621875,"osm_tipo":"node","tipo_lugar":"neighbourhood"},"geometry":{"type":"Point","coordinates":[-49.3310988,-20.7732356]}},{"type":"Feature","properties":{"nome":"Jardim Moysés Miguel Haddad","osm_id":3511321651,"osm_tipo":"node","tipo_lugar":"neighbourhood"},"geometry":{"type":"Point","coordinates":[-49.4115792,-20.8554621]}},{"type":"Feature","properties":{"nome":"Condomínio Quinta do Golfe","osm_id":3511321652,"osm_tipo":"node","tipo_lugar":"suburb"},"geometry":{"type":"Point","coordinates":[-49.4210455,-20.8511892]}},{"type":"Feature","properties":{"nome":"Jardim Seixas","osm_id":3533954202,"osm_tipo":"node","tipo_lugar":"neighbourhood"},"geometry":{"type":"Point","coordinates":[-49.3684964,-20.8061]}},{"type":"Feature","properties":{"nome":"Vila Maceno","osm_id":3533954203,"osm_tipo":"node","tipo_lugar":"suburb"},"geometry":{"type":"Point","coordinates":[-49.3737488,-20.8051361]}},{"type":"Feature","properties":{"nome":"Vivendas","osm_id":3683126310,"osm_tipo":"node","tipo_lugar":"suburb"},"geometry":{"type":"Point","coordinates":[-49.3973208,-20.846476]}},{"type":"Feature","properties":{"nome":"Loteamento Jorge Rodrigues","osm_id":3686064823,"osm_tipo":"node","tipo_lugar":"neighbourhood"},"geometry":{"type":"Point","coordinates":[-49.3818565,-20.7417062]}},{"type":"Feature","properties":{"nome":"Parque Nova Esperança","osm_id":3713796845,"osm_tipo":"node","tipo_lugar":"neighbourhood"},"geometry":{"type":"Point","coordinates":[-49.4165952,-20.7414081]}},{"type":"Feature","properties":{"nome":"Vila Zilda","osm_id":3729970310,"osm_tipo":"node","tipo_lugar":"neighbourhood"},"geometry":{"type":"Point","coordinates":[-49.3887414,-20.7953224]}},{"type":"Feature","properties":{"nome":"Residencial Luz da Esperança","osm_id":3790210234,"osm_tipo":"node","tipo_lugar":"neighbourhood"},"geometry":{"type":"Point","coordinates":[-49.3171384,-20.7721999]}},{"type":"Feature","properties":{"nome":"Residencial Alta Vista","osm_id":3790434915,"osm_tipo":"node","tipo_lugar":"neighbourhood"},"geometry":{"type":"Point","coordinates":[-49.3411434,-20.7558407]}},{"type":"Feature","properties":{"nome":"Condomínio Jardim das Acácias","osm_id":3797156761,"osm_tipo":"node","tipo_lugar":"neighbourhood"},"geometry":{"type":"Point","coordinates":[-49.3710132,-20.766964]}},{"type":"Feature","properties":{"nome":"Condomínio Vitória Régia","osm_id":3797156762,"osm_tipo":"node","tipo_lugar":"neighbourhood"},"geometry":{"type":"Point","coordinates":[-49.3715656,-20.7666673]}},{"type":"Feature","properties":{"nome":"Loteamento Jardim do Norte","osm_id":3797156765,"osm_tipo":"node","tipo_lugar":"neighbourhood"},"geometry":{"type":"Point","coordinates":[-49.3742465,-20.7669424]}},{"type":"Feature","properties":{"nome":"Loteamento Auferville III","osm_id":3805362915,"osm_tipo":"node","tipo_lugar":"neighbourhood"},"geometry":{"type":"Point","coordinates":[-49.3646556,-20.8946009]}},{"type":"Feature","properties":{"nome":"Estância São Manoel","osm_id":3857462907,"osm_tipo":"node","tipo_lugar":"neighbourhood"},"geometry":{"type":"Point","coordinates":[-49.3310217,-20.6991598]}},{"type":"Feature","properties":{"nome":"Parque do Sabiá","osm_id":3857769665,"osm_tipo":"node","tipo_lugar":"neighbourhood"},"geometry":{"type":"Point","coordinates":[-49.3332631,-20.7304439]}},{"type":"Feature","properties":{"nome":"Distrito Industrial Carlos Arnaldo","osm_id":3857781131,"osm_tipo":"node","tipo_lugar":"neighbourhood"},"geometry":{"type":"Point","coordinates":[-49.3423901,-20.7290833]}},{"type":"Feature","properties":{"nome":"Jardim Felicidade","osm_id":3857795275,"osm_tipo":"node","tipo_lugar":"neighbourhood"},"geometry":{"type":"Point","coordinates":[-49.3568452,-20.7567746]}},{"type":"Feature","properties":{"nome":"Estância Pousada dos Pássaros","osm_id":3857804540,"osm_tipo":"node","tipo_lugar":"neighbourhood"},"geometry":{"type":"Point","coordinates":[-49.4327284,-20.7365143]}},{"type":"Feature","properties":{"nome":"Estância Cavalari","osm_id":3859588300,"osm_tipo":"node","tipo_lugar":"neighbourhood"},"geometry":{"type":"Point","coordinates":[-49.3643647,-20.7530512]}},{"type":"Feature","properties":{"nome":"Estância Santa Ana","osm_id":3859588301,"osm_tipo":"node","tipo_lugar":"neighbourhood"},"geometry":{"type":"Point","coordinates":[-49.3613013,-20.7510086]}},{"type":"Feature","properties":{"nome":"Estância Verão","osm_id":3859592961,"osm_tipo":"node","tipo_lugar":"neighbourhood"},"geometry":{"type":"Point","coordinates":[-49.3437306,-20.6862122]}},{"type":"Feature","properties":{"nome":"Condomínio Santa Apolônia","osm_id":3859640968,"osm_tipo":"node","tipo_lugar":"suburb"},"geometry":{"type":"Point","coordinates":[-49.3582089,-20.9223331]}},{"type":"Feature","properties":{"nome":"São Miguel Arcanjo I","osm_id":3859648156,"osm_tipo":"node","tipo_lugar":"neighbourhood"},"geometry":{"type":"Point","coordinates":[-49.3543114,-20.9128494]}},{"type":"Feature","properties":{"nome":"São Miguel Arcanjo II","osm_id":3859671096,"osm_tipo":"node","tipo_lugar":"suburb"},"geometry":{"type":"Point","coordinates":[-49.3917226,-20.9035355]}},{"type":"Feature","properties":{"nome":"Residencial da Lealdade","osm_id":3859762997,"osm_tipo":"node","tipo_lugar":"neighbourhood"},"geometry":{"type":"Point","coordinates":[-49.3283637,-20.7576088]}},{"type":"Feature","properties":{"nome":"Residencial da Amizade","osm_id":3859866096,"osm_tipo":"node","tipo_lugar":"neighbourhood"},"geometry":{"type":"Point","coordinates":[-49.3249052,-20.7552956]}},{"type":"Feature","properties":{"nome":"Estância Vitória","osm_id":3860906257,"osm_tipo":"node","tipo_lugar":"neighbourhood"},"geometry":{"type":"Point","coordinates":[-49.3639634,-20.7283888]}},{"type":"Feature","properties":{"nome":"Vila Azul","osm_id":3860906258,"osm_tipo":"node","tipo_lugar":"suburb"},"geometry":{"type":"Point","coordinates":[-49.3623224,-20.9005223]}},{"type":"Feature","properties":{"nome":"Higienópolis","osm_id":3865584765,"osm_tipo":"node","tipo_lugar":"suburb"},"geometry":{"type":"Point","coordinates":[-49.3881547,-20.8368569]}},{"type":"Feature","properties":{"nome":"Estancia Sobrinho","osm_id":3873738857,"osm_tipo":"node","tipo_lugar":"suburb"},"geometry":{"type":"Point","coordinates":[-49.3796891,-20.911387]}},{"type":"Feature","properties":{"nome":"Estância Santa Catarina","osm_id":4073552147,"osm_tipo":"node","tipo_lugar":"neighbourhood"},"geometry":{"type":"Point","coordinates":[-49.3132836,-20.8512613]}},{"type":"Feature","properties":{"nome":"Loteamento Fazenda Rio Preto","osm_id":4073552148,"osm_tipo":"node","tipo_lugar":"neighbourhood"},"geometry":{"type":"Point","coordinates":[-49.3227249,-20.8463258]}},{"type":"Feature","properties":{"nome":"Núcleo da Esperança","osm_id":4073552149,"osm_tipo":"node","tipo_lugar":"neighbourhood"},"geometry":{"type":"Point","coordinates":[-49.3203968,-20.850379]}},{"type":"Feature","properties":{"nome":"Jardim Aclimação","osm_id":4195949090,"osm_tipo":"node","tipo_lugar":"neighbourhood"},"geometry":{"type":"Point","coordinates":[-49.4039753,-20.8408873]}},{"type":"Feature","properties":{"nome":"Jardim Tarraf 1","osm_id":4195949091,"osm_tipo":"node","tipo_lugar":"neighbourhood"},"geometry":{"type":"Point","coordinates":[-49.4080415,-20.8404061]}},{"type":"Feature","properties":{"nome":"Gonzaga de Campos","osm_id":4377981457,"osm_tipo":"node","tipo_lugar":"neighbourhood"},"geometry":{"type":"Point","coordinates":[-49.4239101,-20.8111215]}},{"type":"Feature","properties":{"nome":"Jardim Vetorasso","osm_id":4378218622,"osm_tipo":"node","tipo_lugar":"suburb"},"geometry":{"type":"Point","coordinates":[-49.4139839,-20.7974371]}},{"type":"Feature","properties":{"nome":"Vila São José Operário","osm_id":4510460790,"osm_tipo":"node","tipo_lugar":"neighbourhood"},"geometry":{"type":"Point","coordinates":[-49.4288153,-20.812125]}},{"type":"Feature","properties":{"nome":"Vila Itália","osm_id":4539994010,"osm_tipo":"node","tipo_lugar":"neighbourhood"},"geometry":{"type":"Point","coordinates":[-49.4070303,-20.8080006]}},{"type":"Feature","properties":{"nome":"Residencial das Américas","osm_id":4539994011,"osm_tipo":"node","tipo_lugar":"neighbourhood"},"geometry":{"type":"Point","coordinates":[-49.4270651,-20.7793436]}},{"type":"Feature","properties":{"nome":"Distrito Industrial Ulysses Guimarães","osm_id":4539994012,"osm_tipo":"node","tipo_lugar":"neighbourhood"},"geometry":{"type":"Point","coordinates":[-49.4231323,-20.8276194]}},{"type":"Feature","properties":{"nome":"Jardim Vitória Régia","osm_id":4543552023,"osm_tipo":"node","tipo_lugar":"neighbourhood"},"geometry":{"type":"Point","coordinates":[-49.3528584,-20.8204512]}},{"type":"Feature","properties":{"nome":"Jardim Conceição","osm_id":4833638105,"osm_tipo":"node","tipo_lugar":"neighbourhood"},"geometry":{"type":"Point","coordinates":[-49.3784973,-20.7885085]}},{"type":"Feature","properties":{"nome":"Jardim Novo Mundo","osm_id":5072292116,"osm_tipo":"node","tipo_lugar":"suburb"},"geometry":{"type":"Point","coordinates":[-49.3782932,-20.8296944]}},{"type":"Feature","properties":{"nome":"Jardim Maracanã","osm_id":5082205826,"osm_tipo":"node","tipo_lugar":"neighbourhood"},"geometry":{"type":"Point","coordinates":[-49.4093424,-20.8266736]}},{"type":"Feature","properties":{"nome":"Jardim dos Buritis","osm_id":5354615854,"osm_tipo":"node","tipo_lugar":"neighbourhood"},"geometry":{"type":"Point","coordinates":[-49.4235744,-20.753841]}},{"type":"Feature","properties":{"nome":"Quinta do Golfe Reserva","osm_id":5470094298,"osm_tipo":"node","tipo_lugar":"suburb"},"geometry":{"type":"Point","coordinates":[-49.4291103,-20.853864]}},{"type":"Feature","properties":{"nome":"Quinta do Golfe Jardins","osm_id":5470094299,"osm_tipo":"node","tipo_lugar":"suburb"},"geometry":{"type":"Point","coordinates":[-49.4261384,-20.8581551]}},{"type":"Feature","properties":{"nome":"Village Damha 3","osm_id":5523489171,"osm_tipo":"node","tipo_lugar":"neighbourhood"},"geometry":{"type":"Point","coordinates":[-49.3354851,-20.7771205]}},{"type":"Feature","properties":{"nome":"Village Rio Sena","osm_id":5541026249,"osm_tipo":"node","tipo_lugar":"neighbourhood"},"geometry":{"type":"Point","coordinates":[-49.3491349,-20.8086312]}},{"type":"Feature","properties":{"nome":"Giardino II - Casas de Veneza","osm_id":5549068722,"osm_tipo":"node","tipo_lugar":"neighbourhood"},"geometry":{"type":"Point","coordinates":[-49.3318963,-20.8019404]}},{"type":"Feature","properties":{"nome":"Residencial Figueira 2","osm_id":5549068723,"osm_tipo":"node","tipo_lugar":"neighbourhood"},"geometry":{"type":"Point","coordinates":[-49.3345463,-20.8022864]}},{"type":"Feature","properties":{"nome":"Residencial Maria Júlia","osm_id":5549068734,"osm_tipo":"node","tipo_lugar":"neighbourhood"},"geometry":{"type":"Point","coordinates":[-49.3203628,-20.8010027]}},{"type":"Feature","properties":{"nome":"Loteamento Coplan","osm_id":5597094421,"osm_tipo":"node","tipo_lugar":"neighbourhood"},"geometry":{"type":"Point","coordinates":[-49.3718988,-20.8464697]}},{"type":"Feature","properties":{"nome":"Jardim Leste","osm_id":5602941517,"osm_tipo":"node","tipo_lugar":"neighbourhood"},"geometry":{"type":"Point","coordinates":[-49.323222,-20.7707907]}},{"type":"Feature","properties":{"nome":"Villa Cassini","osm_id":5602941724,"osm_tipo":"node","tipo_lugar":"neighbourhood"},"geometry":{"type":"Point","coordinates":[-49.3308449,-20.7952757]}},{"type":"Feature","properties":{"nome":"Parque Residencial da Fraternidade","osm_id":5629464595,"osm_tipo":"node","tipo_lugar":"suburb"},"geometry":{"type":"Point","coordinates":[-49.341799,-20.8750926]}},{"type":"Feature","properties":{"nome":"Residencial São Thomaz","osm_id":5645031157,"osm_tipo":"node","tipo_lugar":"neighbourhood"},"geometry":{"type":"Point","coordinates":[-49.433949,-20.7642199]}},{"type":"Feature","properties":{"nome":"Residencial São Thomaz 2","osm_id":5646342751,"osm_tipo":"node","tipo_lugar":"neighbourhood"},"geometry":{"type":"Point","coordinates":[-49.4343352,-20.7659053]}},{"type":"Feature","properties":{"nome":"Residencial Maria Clara","osm_id":5648404261,"osm_tipo":"node","tipo_lugar":"neighbourhood"},"geometry":{"type":"Point","coordinates":[-49.418875,-20.7562343]}},{"type":"Feature","properties":{"nome":"Jardim Nunes 2","osm_id":5650165816,"osm_tipo":"node","tipo_lugar":"neighbourhood"},"geometry":{"type":"Point","coordinates":[-49.3790013,-20.7500541]}},{"type":"Feature","properties":{"nome":"Centro","osm_id":5652543660,"osm_tipo":"node","tipo_lugar":"suburb"},"geometry":{"type":"Point","coordinates":[-49.3788484,-20.8108488]}},{"type":"Feature","properties":{"nome":"Estância Manacás","osm_id":5695335795,"osm_tipo":"node","tipo_lugar":"neighbourhood"},"geometry":{"type":"Point","coordinates":[-49.3158782,-20.8500441]}},{"type":"Feature","properties":{"nome":"Estância Nossa Senhora de Fátima","osm_id":5695335796,"osm_tipo":"node","tipo_lugar":"neighbourhood"},"geometry":{"type":"Point","coordinates":[-49.3158996,-20.8474122]}},{"type":"Feature","properties":{"nome":"Bom Jardim","osm_id":5712251289,"osm_tipo":"node","tipo_lugar":"suburb"},"geometry":{"type":"Point","coordinates":[-49.3825901,-20.8315896]}},{"type":"Feature","properties":{"nome":"Jardim Urano","osm_id":5712251290,"osm_tipo":"node","tipo_lugar":"suburb"},"geometry":{"type":"Point","coordinates":[-49.3756914,-20.832462]}},{"type":"Feature","properties":{"nome":"Parque Tecnológico Vanda Karina Simei Bolçone","osm_id":5731406659,"osm_tipo":"node","tipo_lugar":"neighbourhood"},"geometry":{"type":"Point","coordinates":[-49.4231236,-20.8379168]}},{"type":"Feature","properties":{"nome":"Jardim Tarraf 2","osm_id":5732558095,"osm_tipo":"node","tipo_lugar":"neighbourhood"},"geometry":{"type":"Point","coordinates":[-49.4154096,-20.8368138]}},{"type":"Feature","properties":{"nome":"Jardim Estrela","osm_id":5771949564,"osm_tipo":"node","tipo_lugar":"neighbourhood"},"geometry":{"type":"Point","coordinates":[-49.3597215,-20.8137196]}},{"type":"Feature","properties":{"nome":"Residencial Setsul","osm_id":5796646423,"osm_tipo":"node","tipo_lugar":"neighbourhood"},"geometry":{"type":"Point","coordinates":[-49.3600702,-20.8543603]}},{"type":"Feature","properties":{"nome":"Empresarial Spotti","osm_id":5799809676,"osm_tipo":"node","tipo_lugar":"neighbourhood"},"geometry":{"type":"Point","coordinates":[-49.3329746,-20.859679]}},{"type":"Feature","properties":{"nome":"Jardim Schmitt","osm_id":5827779174,"osm_tipo":"node","tipo_lugar":"neighbourhood"},"geometry":{"type":"Point","coordinates":[-49.3074882,-20.8637143]}},{"type":"Feature","properties":{"nome":"Residencial Vila Madalena","osm_id":5827779852,"osm_tipo":"node","tipo_lugar":"neighbourhood"},"geometry":{"type":"Point","coordinates":[-49.3594372,-20.7666777]}},{"type":"Feature","properties":{"nome":"Residencial Monterey","osm_id":5827780011,"osm_tipo":"node","tipo_lugar":"neighbourhood"},"geometry":{"type":"Point","coordinates":[-49.3500763,-20.7611501]}},{"type":"Feature","properties":{"nome":"Estância Bela Vista Ipiguá","osm_id":5832710013,"osm_tipo":"node","tipo_lugar":"neighbourhood"},"geometry":{"type":"Point","coordinates":[-49.3906367,-20.7090742]}},{"type":"Feature","properties":{"nome":"Areia Branca","osm_id":5832710014,"osm_tipo":"node","tipo_lugar":"neighbourhood"},"geometry":{"type":"Point","coordinates":[-49.393158,-20.7102182]}},{"type":"Feature","properties":{"nome":"Jardim Anice","osm_id":5854460311,"osm_tipo":"node","tipo_lugar":"neighbourhood"},"geometry":{"type":"Point","coordinates":[-49.3535632,-20.7916799]}},{"type":"Feature","properties":{"nome":"Centro Industrial Pascutti","osm_id":5857533837,"osm_tipo":"node","tipo_lugar":"neighbourhood"},"geometry":{"type":"Point","coordinates":[-49.3364775,-20.8571275]}},{"type":"Feature","properties":{"nome":"Residencial Vila Verde","osm_id":5857533838,"osm_tipo":"node","tipo_lugar":"neighbourhood"},"geometry":{"type":"Point","coordinates":[-49.3338704,-20.8541698]}},{"type":"Feature","properties":{"nome":"Parque Residencial Cambuí","osm_id":5857533839,"osm_tipo":"node","tipo_lugar":"neighbourhood"},"geometry":{"type":"Point","coordinates":[-49.3441218,-20.8407244]}},{"type":"Feature","properties":{"nome":"Condomínio San Fernando Valley","osm_id":5876722011,"osm_tipo":"node","tipo_lugar":"neighbourhood"},"geometry":{"type":"Point","coordinates":[-49.4300223,-20.8835331]}},{"type":"Feature","properties":{"nome":"Parque dos Pássaros","osm_id":5876722014,"osm_tipo":"node","tipo_lugar":"neighbourhood"},"geometry":{"type":"Point","coordinates":[-49.4199801,-20.872426]}},{"type":"Feature","properties":{"nome":"Setvalley","osm_id":5895064770,"osm_tipo":"node","tipo_lugar":"neighbourhood"},"geometry":{"type":"Point","coordinates":[-49.3310623,-20.7479486]}},{"type":"Feature","properties":{"nome":"Parque Residencial Dignidade","osm_id":5895065419,"osm_tipo":"node","tipo_lugar":"suburb"},"geometry":{"type":"Point","coordinates":[-49.4368767,-20.7518186]}},{"type":"Feature","properties":{"nome":"Chácaras de Recreio Nossa Senhora do Líbano","osm_id":5897081958,"osm_tipo":"node","tipo_lugar":"neighbourhood"},"geometry":{"type":"Point","coordinates":[-49.3185711,-20.7477867]}},{"type":"Feature","properties":{"nome":"Chácaras de Recreio Terras de São José","osm_id":5897081961,"osm_tipo":"node","tipo_lugar":"neighbourhood"},"geometry":{"type":"Point","coordinates":[-49.3180668,-20.7415058]}},{"type":"Feature","properties":{"nome":"Chácaras de Recreio Felicidade","osm_id":5900331134,"osm_tipo":"node","tipo_lugar":"neighbourhood"},"geometry":{"type":"Point","coordinates":[-49.34623,-20.7490408]}},{"type":"Feature","properties":{"nome":"Estância Primavera","osm_id":5900331135,"osm_tipo":"node","tipo_lugar":"neighbourhood"},"geometry":{"type":"Point","coordinates":[-49.344036,-20.7420476]}},{"type":"Feature","properties":{"nome":"Estância Primavera 3","osm_id":5900331136,"osm_tipo":"node","tipo_lugar":"neighbourhood"},"geometry":{"type":"Point","coordinates":[-49.3425983,-20.7426346]}},{"type":"Feature","properties":{"nome":"Estância Primavera 4","osm_id":5900331137,"osm_tipo":"node","tipo_lugar":"neighbourhood"},"geometry":{"type":"Point","coordinates":[-49.3415684,-20.7430861]}},{"type":"Feature","properties":{"nome":"Estância Primavera 1","osm_id":5900331138,"osm_tipo":"node","tipo_lugar":"neighbourhood"},"geometry":{"type":"Point","coordinates":[-49.3423998,-20.7451981]}},{"type":"Feature","properties":{"nome":"Parque Maria Serantes","osm_id":5900331167,"osm_tipo":"node","tipo_lugar":"neighbourhood"},"geometry":{"type":"Point","coordinates":[-49.3224925,-20.7583009]}},{"type":"Feature","properties":{"nome":"Residencial Vila Lobos","osm_id":5904716394,"osm_tipo":"node","tipo_lugar":"neighbourhood"},"geometry":{"type":"Point","coordinates":[-49.4055498,-20.7435727]}},{"type":"Feature","properties":{"nome":"Residencial Cidade Alta","osm_id":5904716395,"osm_tipo":"node","tipo_lugar":"neighbourhood"},"geometry":{"type":"Point","coordinates":[-49.4067729,-20.7405727]}},{"type":"Feature","properties":{"nome":"Jardim do Cedro","osm_id":5908941640,"osm_tipo":"node","tipo_lugar":"neighbourhood"},"geometry":{"type":"Point","coordinates":[-49.4394958,-20.8139603]}},{"type":"Feature","properties":{"nome":"Parque Residencial Universo","osm_id":5910363133,"osm_tipo":"node","tipo_lugar":"neighbourhood"},"geometry":{"type":"Point","coordinates":[-49.4178397,-20.7833998]}},{"type":"Feature","properties":{"nome":"Eco Parque Empresarial Norte","osm_id":5910363305,"osm_tipo":"node","tipo_lugar":"neighbourhood"},"geometry":{"type":"Point","coordinates":[-49.4413305,-20.7253662]}},{"type":"Feature","properties":{"nome":"Jardins Rio Preto","osm_id":5912827484,"osm_tipo":"node","tipo_lugar":"neighbourhood"},"geometry":{"type":"Point","coordinates":[-49.4303924,-20.8067545]}},{"type":"Feature","properties":{"nome":"Conjunto Habitacional Jardim Belo Horizonte","osm_id":5914542794,"osm_tipo":"node","tipo_lugar":"neighbourhood"},"geometry":{"type":"Point","coordinates":[-49.4212997,-20.7951353]}},{"type":"Feature","properties":{"nome":"Residencial Ary Attab","osm_id":5914542816,"osm_tipo":"node","tipo_lugar":"neighbourhood"},"geometry":{"type":"Point","coordinates":[-49.4272971,-20.8008622]}},{"type":"Feature","properties":{"nome":"Azulão","osm_id":5919131965,"osm_tipo":"node","tipo_lugar":"neighbourhood"},"geometry":{"type":"Point","coordinates":[-49.3720087,-20.7665247]}},{"type":"Feature","properties":{"nome":"Jardim Juliana 2","osm_id":5919131966,"osm_tipo":"node","tipo_lugar":"neighbourhood"},"geometry":{"type":"Point","coordinates":[-49.3700051,-20.7675655]}},{"type":"Feature","properties":{"nome":"Jardim Juliana 1","osm_id":5919131967,"osm_tipo":"node","tipo_lugar":"neighbourhood"},"geometry":{"type":"Point","coordinates":[-49.3704879,-20.7673047]}},{"type":"Feature","properties":{"nome":"Polo Joalheiro","osm_id":6028241037,"osm_tipo":"node","tipo_lugar":"neighbourhood"},"geometry":{"type":"Point","coordinates":[-49.4186121,-20.8262399]}},{"type":"Feature","properties":{"nome":"Vila Nossa Senhora da Paz","osm_id":6061101897,"osm_tipo":"node","tipo_lugar":"neighbourhood"},"geometry":{"type":"Point","coordinates":[-49.3929783,-20.8125938]}},{"type":"Feature","properties":{"nome":"Boa Vista","osm_id":6198222793,"osm_tipo":"node","tipo_lugar":"suburb"},"geometry":{"type":"Point","coordinates":[-49.3853446,-20.8024351]}},{"type":"Feature","properties":{"nome":"Parque Industrial","osm_id":6198228364,"osm_tipo":"node","tipo_lugar":"suburb"},"geometry":{"type":"Point","coordinates":[-49.3922951,-20.802415]}},{"type":"Feature","properties":{"nome":"Loteamento João Gonçalves da Silva","osm_id":6208521837,"osm_tipo":"node","tipo_lugar":"neighbourhood"},"geometry":{"type":"Point","coordinates":[-49.3805194,-20.7910781]}},{"type":"Feature","properties":{"nome":"Vila Moreira","osm_id":6208521838,"osm_tipo":"node","tipo_lugar":"neighbourhood"},"geometry":{"type":"Point","coordinates":[-49.3832445,-20.7914693]}},{"type":"Feature","properties":{"nome":"Vila Falavina","osm_id":6208521839,"osm_tipo":"node","tipo_lugar":"neighbourhood"},"geometry":{"type":"Point","coordinates":[-49.3842477,-20.7901202]}},{"type":"Feature","properties":{"nome":"Vila Boa Esperança","osm_id":6208521840,"osm_tipo":"node","tipo_lugar":"neighbourhood"},"geometry":{"type":"Point","coordinates":[-49.382574,-20.7895786]}},{"type":"Feature","properties":{"nome":"Estâncias do Pica-pau Amarelo","osm_id":6283247991,"osm_tipo":"node","tipo_lugar":"neighbourhood"},"geometry":{"type":"Point","coordinates":[-49.2879885,-20.7901503]}},{"type":"Feature","properties":{"nome":"Estância Santa Helena","osm_id":6283247992,"osm_tipo":"node","tipo_lugar":"neighbourhood"},"geometry":{"type":"Point","coordinates":[-49.3265104,-20.7954462]}},{"type":"Feature","properties":{"nome":"Complexo Rios di Itália","osm_id":6283247999,"osm_tipo":"node","tipo_lugar":"neighbourhood"},"geometry":{"type":"Point","coordinates":[-49.3350291,-20.7961583]}},{"type":"Feature","properties":{"nome":"Recanto dos Eduardos","osm_id":6283248000,"osm_tipo":"node","tipo_lugar":"neighbourhood"},"geometry":{"type":"Point","coordinates":[-49.3395996,-20.7956769]}},{"type":"Feature","properties":{"nome":"Jardim Vieira","osm_id":6313137442,"osm_tipo":"node","tipo_lugar":"neighbourhood"},"geometry":{"type":"Point","coordinates":[-49.365043,-20.7922466]}},{"type":"Feature","properties":{"nome":"Vila Nossa Senhora do Carmo","osm_id":6313137443,"osm_tipo":"node","tipo_lugar":"neighbourhood"},"geometry":{"type":"Point","coordinates":[-49.3698603,-20.7918856]}},{"type":"Feature","properties":{"nome":"Jardim Regina Maura","osm_id":6313137444,"osm_tipo":"node","tipo_lugar":"suburb"},"geometry":{"type":"Point","coordinates":[-49.3670574,-20.7923871]}},{"type":"Feature","properties":{"nome":"Vila Ipiranga","osm_id":6313137445,"osm_tipo":"node","tipo_lugar":"neighbourhood"},"geometry":{"type":"Point","coordinates":[-49.3692273,-20.7928259]}},{"type":"Feature","properties":{"nome":"Vila Nossa Senhora de Fátima","osm_id":6349971606,"osm_tipo":"node","tipo_lugar":"neighbourhood"},"geometry":{"type":"Point","coordinates":[-49.4002942,-20.8230891]}},{"type":"Feature","properties":{"nome":"Vila Esplanada","osm_id":6356870760,"osm_tipo":"node","tipo_lugar":"neighbourhood"},"geometry":{"type":"Point","coordinates":[-49.386034,-20.794022]}},{"type":"Feature","properties":{"nome":"Residencial Ana Célia 2","osm_id":6358071534,"osm_tipo":"node","tipo_lugar":"suburb"},"geometry":{"type":"Point","coordinates":[-49.3976909,-20.7775769]}},{"type":"Feature","properties":{"nome":"Residencial Ana Célia","osm_id":6358071535,"osm_tipo":"node","tipo_lugar":"suburb"},"geometry":{"type":"Point","coordinates":[-49.4003838,-20.7781938]}},{"type":"Feature","properties":{"nome":"Jardim Itapema 2","osm_id":6358071540,"osm_tipo":"node","tipo_lugar":"neighbourhood"},"geometry":{"type":"Point","coordinates":[-49.3927637,-20.7803505]}},{"type":"Feature","properties":{"nome":"Jardim Itapema","osm_id":6358071541,"osm_tipo":"node","tipo_lugar":"neighbourhood"},"geometry":{"type":"Point","coordinates":[-49.3939465,-20.7794477]}},{"type":"Feature","properties":{"nome":"Jardim Braga","osm_id":6358071542,"osm_tipo":"node","tipo_lugar":"neighbourhood"},"geometry":{"type":"Point","coordinates":[-49.3938527,-20.7786653]}},{"type":"Feature","properties":{"nome":"Residencial Santa Inês","osm_id":6358071543,"osm_tipo":"node","tipo_lugar":"neighbourhood"},"geometry":{"type":"Point","coordinates":[-49.3901351,-20.7787731]}},{"type":"Feature","properties":{"nome":"Chácaras Tranquilidade","osm_id":6358071544,"osm_tipo":"node","tipo_lugar":"neighbourhood"},"geometry":{"type":"Point","coordinates":[-49.3849397,-20.7796533]}},{"type":"Feature","properties":{"nome":"Jardim Paraíso","osm_id":6358071545,"osm_tipo":"node","tipo_lugar":"neighbourhood"},"geometry":{"type":"Point","coordinates":[-49.3874663,-20.7795881]}},{"type":"Feature","properties":{"nome":"Vila Mayor","osm_id":6358071546,"osm_tipo":"node","tipo_lugar":"neighbourhood"},"geometry":{"type":"Point","coordinates":[-49.3881342,-20.7825372]}},{"type":"Feature","properties":{"nome":"Jardim Residencial Vale do Sol","osm_id":6358071547,"osm_tipo":"node","tipo_lugar":"neighbourhood"},"geometry":{"type":"Point","coordinates":[-49.3850577,-20.7825171]}},{"type":"Feature","properties":{"nome":"Jardim Mugnaini","osm_id":6358071548,"osm_tipo":"node","tipo_lugar":"neighbourhood"},"geometry":{"type":"Point","coordinates":[-49.38995,-20.7846938]}},{"type":"Feature","properties":{"nome":"Vila Aeroporto","osm_id":6545587291,"osm_tipo":"node","tipo_lugar":"suburb"},"geometry":{"type":"Point","coordinates":[-49.3978518,-20.8096378]}},{"type":"Feature","properties":{"nome":"Jardim Novo Aeroporto","osm_id":6545587292,"osm_tipo":"node","tipo_lugar":"neighbourhood"},"geometry":{"type":"Point","coordinates":[-49.4015895,-20.8099901]}},{"type":"Feature","properties":{"nome":"Vila Bancária","osm_id":6653795369,"osm_tipo":"node","tipo_lugar":"neighbourhood"},"geometry":{"type":"Point","coordinates":[-49.3938876,-20.817711]}},{"type":"Feature","properties":{"nome":"Jardim Primavera","osm_id":6672599914,"osm_tipo":"node","tipo_lugar":"neighbourhood"},"geometry":{"type":"Point","coordinates":[-49.358756,-20.8007269]}},{"type":"Feature","properties":{"nome":"Cidade Nova","osm_id":6708455785,"osm_tipo":"node","tipo_lugar":"neighbourhood"},"geometry":{"type":"Point","coordinates":[-49.384532,-20.8369617]}},{"type":"Feature","properties":{"nome":"Vila Redentora","osm_id":6719763725,"osm_tipo":"node","tipo_lugar":"suburb"},"geometry":{"type":"Point","coordinates":[-49.3859643,-20.8200726]}},{"type":"Feature","properties":{"nome":"Residencial Setparque Avenida 2","osm_id":6786366795,"osm_tipo":"node","tipo_lugar":"neighbourhood"},"geometry":{"type":"Point","coordinates":[-49.3926323,-20.7580702]}},{"type":"Feature","properties":{"nome":"Parque Estoril","osm_id":6828714910,"osm_tipo":"node","tipo_lugar":"suburb"},"geometry":{"type":"Point","coordinates":[-49.3819436,-20.8358888]}},{"type":"Feature","properties":{"nome":"Jardim Ouro Verde","osm_id":6828714911,"osm_tipo":"node","tipo_lugar":"neighbourhood"},"geometry":{"type":"Point","coordinates":[-49.3769601,-20.8374656]}},{"type":"Feature","properties":{"nome":"Conjunto Habitacional Guiomar Assad Calil (CAIC)","osm_id":7199459765,"osm_tipo":"node","tipo_lugar":"neighbourhood"},"geometry":{"type":"Point","coordinates":[-49.3533893,-20.827568]}},{"type":"Feature","properties":{"nome":"Parque Industrial Campo Verde","osm_id":7199459766,"osm_tipo":"node","tipo_lugar":"neighbourhood"},"geometry":{"type":"Point","coordinates":[-49.3588639,-20.8303489]}},{"type":"Feature","properties":{"nome":"Vila São Judas Tadeu","osm_id":7199459767,"osm_tipo":"node","tipo_lugar":"neighbourhood"},"geometry":{"type":"Point","coordinates":[-49.3527934,-20.8222909]}},{"type":"Feature","properties":{"nome":"Parque Residencial Romano Calil","osm_id":7199459768,"osm_tipo":"node","tipo_lugar":"neighbourhood"},"geometry":{"type":"Point","coordinates":[-49.3560956,-20.8255437]}},{"type":"Feature","properties":{"nome":"Jardim Michael Jacob","osm_id":7220933936,"osm_tipo":"node","tipo_lugar":"neighbourhood"},"geometry":{"type":"Point","coordinates":[-49.4000056,-20.8399523]}},{"type":"Feature","properties":{"nome":"Vila Fiorezzi","osm_id":7220933937,"osm_tipo":"node","tipo_lugar":"neighbourhood"},"geometry":{"type":"Point","coordinates":[-49.3821019,-20.8197993]}},{"type":"Feature","properties":{"nome":"Jardim Campo Belo","osm_id":7799282877,"osm_tipo":"node","tipo_lugar":"neighbourhood"},"geometry":{"type":"Point","coordinates":[-49.4349146,-20.7692258]}},{"type":"Feature","properties":{"nome":"Residencial Mário de Mattos","osm_id":7903686988,"osm_tipo":"node","tipo_lugar":"neighbourhood"},"geometry":{"type":"Point","coordinates":[-49.4277365,-20.7844432]}},{"type":"Feature","properties":{"nome":"Parque Residencial da Fraternidade 3","osm_id":8026815097,"osm_tipo":"node","tipo_lugar":"neighbourhood"},"geometry":{"type":"Point","coordinates":[-49.3338221,-20.8752731]}},{"type":"Feature","properties":{"nome":"Parque Residencial da Fraternidade 2","osm_id":8026815098,"osm_tipo":"node","tipo_lugar":"neighbourhood"},"geometry":{"type":"Point","coordinates":[-49.3397498,-20.8814831]}},{"type":"Feature","properties":{"nome":"Estância Nossa Senhora de Lourdes","osm_id":8319391291,"osm_tipo":"node","tipo_lugar":"neighbourhood"},"geometry":{"type":"Point","coordinates":[-49.3904597,-20.7159233]}},{"type":"Feature","properties":{"nome":"Estância Morada do Sol","osm_id":8319391296,"osm_tipo":"node","tipo_lugar":"neighbourhood"},"geometry":{"type":"Point","coordinates":[-49.3898964,-20.7106196]}},{"type":"Feature","properties":{"nome":"Jardim dos Gomes","osm_id":8358606038,"osm_tipo":"node","tipo_lugar":"neighbourhood"},"geometry":{"type":"Point","coordinates":[-49.3554595,-20.8141633]}},{"type":"Feature","properties":{"nome":"Residencial Colina Azul","osm_id":8505034631,"osm_tipo":"node","tipo_lugar":"neighbourhood"},"geometry":{"type":"Point","coordinates":[-49.3812919,-20.8730275]}},{"type":"Feature","properties":{"nome":"Estância Bortoluzzo","osm_id":8567728268,"osm_tipo":"node","tipo_lugar":"neighbourhood"},"geometry":{"type":"Point","coordinates":[-49.3134749,-20.8918528]}},{"type":"Feature","properties":{"nome":"Residencial Doutor João Tajara","osm_id":8665866500,"osm_tipo":"node","tipo_lugar":"neighbourhood"},"geometry":{"type":"Point","coordinates":[-49.3466163,-20.7861432]}},{"type":"Feature","properties":{"nome":"Jardim Santa Rosa 1","osm_id":8716440832,"osm_tipo":"node","tipo_lugar":"neighbourhood"},"geometry":{"type":"Point","coordinates":[-49.3711478,-20.7853508]}},{"type":"Feature","properties":{"nome":"Residencial Antoniassi","osm_id":8729097391,"osm_tipo":"node","tipo_lugar":"neighbourhood"},"geometry":{"type":"Point","coordinates":[-49.3098834,-20.8649023]}},{"type":"Feature","properties":{"nome":"Setvalley 3","osm_id":8809695427,"osm_tipo":"node","tipo_lugar":"neighbourhood"},"geometry":{"type":"Point","coordinates":[-49.3282056,-20.7439791]}},{"type":"Feature","properties":{"nome":"Setvalley 2","osm_id":8809695428,"osm_tipo":"node","tipo_lugar":"neighbourhood"},"geometry":{"type":"Point","coordinates":[-49.3319392,-20.7440643]}},{"type":"Feature","properties":{"nome":"Jardim Canaã","osm_id":8833243898,"osm_tipo":"node","tipo_lugar":"neighbourhood"},"geometry":{"type":"Point","coordinates":[-49.4034308,-20.8047737]}},{"type":"Feature","properties":{"nome":"Jardim Congonhas","osm_id":8833243899,"osm_tipo":"node","tipo_lugar":"neighbourhood"},"geometry":{"type":"Point","coordinates":[-49.4056571,-20.8050194]}},{"type":"Feature","properties":{"nome":"Giardino I - Casas de Florença","osm_id":8905273990,"osm_tipo":"node","tipo_lugar":"neighbourhood"},"geometry":{"type":"Point","coordinates":[-49.3321055,-20.803826]}},{"type":"Feature","properties":{"nome":"Condomínio Parque da Liberdade IV","osm_id":9064497960,"osm_tipo":"node","tipo_lugar":"neighbourhood"},"geometry":{"type":"Point","coordinates":[-49.3308932,-20.7660758]}},{"type":"Feature","properties":{"nome":"Residencial Garcia 1","osm_id":9206301549,"osm_tipo":"node","tipo_lugar":"neighbourhood"},"geometry":{"type":"Point","coordinates":[-49.3659121,-20.7682377]}},{"type":"Feature","properties":{"nome":"Loteamento Egydio Zani","osm_id":9458856486,"osm_tipo":"node","tipo_lugar":"neighbourhood"},"geometry":{"type":"Point","coordinates":[-49.3774431,-20.7244412]}},{"type":"Feature","properties":{"nome":"Residencial Mais Viver","osm_id":9458856634,"osm_tipo":"node","tipo_lugar":"neighbourhood"},"geometry":{"type":"Point","coordinates":[-49.3848476,-20.7265535]}},{"type":"Feature","properties":{"nome":"Estância São Carlos","osm_id":9461364651,"osm_tipo":"node","tipo_lugar":"neighbourhood"},"geometry":{"type":"Point","coordinates":[-49.3484724,-20.7063444]}},{"type":"Feature","properties":{"nome":"Estância San Carlo","osm_id":9461364652,"osm_tipo":"node","tipo_lugar":"neighbourhood"},"geometry":{"type":"Point","coordinates":[-49.3474746,-20.7106799]}},{"type":"Feature","properties":{"nome":"Estância Santo Antônio","osm_id":9461364653,"osm_tipo":"node","tipo_lugar":"neighbourhood"},"geometry":{"type":"Point","coordinates":[-49.3482471,-20.7282912]}},{"type":"Feature","properties":{"nome":"Centro Empresarial BR 153","osm_id":9461364654,"osm_tipo":"node","tipo_lugar":"neighbourhood"},"geometry":{"type":"Point","coordinates":[-49.3320465,-20.7338702]}},{"type":"Feature","properties":{"nome":"Condomínio São Luís - Ipiguá","osm_id":9461413635,"osm_tipo":"node","tipo_lugar":"neighbourhood"},"geometry":{"type":"Point","coordinates":[-49.3834806,-20.7313115]}},{"type":"Feature","properties":{"nome":"Recanto das Aves","osm_id":9461413636,"osm_tipo":"node","tipo_lugar":"neighbourhood"},"geometry":{"type":"Point","coordinates":[-49.3819195,-20.7288581]}},{"type":"Feature","properties":{"nome":"Maisparque Rio Preto","osm_id":9466886277,"osm_tipo":"node","tipo_lugar":"neighbourhood"},"geometry":{"type":"Point","coordinates":[-49.3441486,-20.7656745]}},{"type":"Feature","properties":{"nome":"Chácara Santa Rita","osm_id":9714667836,"osm_tipo":"node","tipo_lugar":"neighbourhood"},"geometry":{"type":"Point","coordinates":[-49.3328297,-20.761115]}},{"type":"Feature","properties":{"nome":"Augusto da Silva","osm_id":9714667838,"osm_tipo":"node","tipo_lugar":"neighbourhood"},"geometry":{"type":"Point","coordinates":[-49.3319392,-20.7531693]}},{"type":"Feature","properties":{"nome":"Auferville 5","osm_id":9714667839,"osm_tipo":"node","tipo_lugar":"neighbourhood"},"geometry":{"type":"Point","coordinates":[-49.3359196,-20.7465827]}},{"type":"Feature","properties":{"nome":"Chácaras São Pedro 3","osm_id":9767758103,"osm_tipo":"node","tipo_lugar":"neighbourhood"},"geometry":{"type":"Point","coordinates":[-49.3957382,-20.7402266]}},{"type":"Feature","properties":{"nome":"Jardim Vitagliano","osm_id":10045909877,"osm_tipo":"node","tipo_lugar":"neighbourhood"},"geometry":{"type":"Point","coordinates":[-49.424218,-20.8737994]}},{"type":"Feature","properties":{"nome":"Jardim Paulistano","osm_id":10049730598,"osm_tipo":"node","tipo_lugar":"neighbourhood"},"geometry":{"type":"Point","coordinates":[-49.4156027,-20.8630025]}},{"type":"Feature","properties":{"nome":"Condomínio Empresarial e Industrial Vale dos Cedros","osm_id":10062691347,"osm_tipo":"node","tipo_lugar":"neighbourhood"},"geometry":{"type":"Point","coordinates":[-49.3067265,-20.89067]}},{"type":"Feature","properties":{"nome":"Eplenum Tresor","osm_id":10133281976,"osm_tipo":"node","tipo_lugar":"neighbourhood"},"geometry":{"type":"Point","coordinates":[-49.397825,-20.8579195]}},{"type":"Feature","properties":{"nome":"Eparque Mirage","osm_id":10133281977,"osm_tipo":"node","tipo_lugar":"neighbourhood"},"geometry":{"type":"Point","coordinates":[-49.3985438,-20.853468]}},{"type":"Feature","properties":{"nome":"Residencial Setsul 2","osm_id":10138373229,"osm_tipo":"node","tipo_lugar":"neighbourhood"},"geometry":{"type":"Point","coordinates":[-49.3552905,-20.8594133]}},{"type":"Feature","properties":{"nome":"Estância Navarrete 1","osm_id":10245513964,"osm_tipo":"node","tipo_lugar":"neighbourhood"},"geometry":{"type":"Point","coordinates":[-49.373492,-20.8776188]}},{"type":"Feature","properties":{"nome":"Estancia São Marcos 4","osm_id":10253594290,"osm_tipo":"node","tipo_lugar":"neighbourhood"},"geometry":{"type":"Point","coordinates":[-49.3872035,-20.8641855]}},{"type":"Feature","properties":{"nome":"Estância Santa Inês 1","osm_id":10253594291,"osm_tipo":"node","tipo_lugar":"neighbourhood"},"geometry":{"type":"Point","coordinates":[-49.4005716,-20.869584]}},{"type":"Feature","properties":{"nome":"Residencial Alto das Andorinhas","osm_id":10540636838,"osm_tipo":"node","tipo_lugar":"neighbourhood"},"geometry":{"type":"Point","coordinates":[-49.3919134,-20.7733036]}},{"type":"Feature","properties":{"nome":"Parque Residencial Dom Lafayete Libânio","osm_id":10540636839,"osm_tipo":"node","tipo_lugar":"neighbourhood"},"geometry":{"type":"Point","coordinates":[-49.3879974,-20.7740108]}},{"type":"Feature","properties":{"nome":"Estância Vista Bonita","osm_id":10812513438,"osm_tipo":"node","tipo_lugar":"neighbourhood"},"geometry":{"type":"Point","coordinates":[-49.4214848,-20.7672295]}},{"type":"Feature","properties":{"nome":"Residencial Jatobás","osm_id":10812513439,"osm_tipo":"node","tipo_lugar":"neighbourhood"},"geometry":{"type":"Point","coordinates":[-49.4523597,-20.7825572]}},{"type":"Feature","properties":{"nome":"Residencial Marialda Mello","osm_id":10812513444,"osm_tipo":"node","tipo_lugar":"neighbourhood"},"geometry":{"type":"Point","coordinates":[-49.441427,-20.7835703]}},{"type":"Feature","properties":{"nome":"Vila Maria","osm_id":11071854763,"osm_tipo":"node","tipo_lugar":"neighbourhood"},"geometry":{"type":"Point","coordinates":[-49.3933082,-20.8084293]}},{"type":"Feature","properties":{"nome":"Urban Fortes 1","osm_id":11216239497,"osm_tipo":"node","tipo_lugar":"neighbourhood"},"geometry":{"type":"Point","coordinates":[-49.3367672,-20.7721851]}},{"type":"Feature","properties":{"nome":"Residencial Vista Norte","osm_id":11709026495,"osm_tipo":"node","tipo_lugar":"neighbourhood"},"geometry":{"type":"Point","coordinates":[-49.4215089,-20.7485893]}},{"type":"Feature","properties":{"nome":"Residencial Maria Clara 2","osm_id":11709026496,"osm_tipo":"node","tipo_lugar":"neighbourhood"},"geometry":{"type":"Point","coordinates":[-49.4200605,-20.7520456]}},{"type":"Feature","properties":{"nome":"Núcleo Habitacional Pica-Pau Amarelo","osm_id":11835510648,"osm_tipo":"node","tipo_lugar":"neighbourhood"},"geometry":{"type":"Point","coordinates":[-49.3370891,-20.7209458]}},{"type":"Feature","properties":{"nome":"Villaggio São Judas","osm_id":13473081088,"osm_tipo":"node","tipo_lugar":"neighbourhood"},"geometry":{"type":"Point","coordinates":[-49.3596336,-20.8192448]}},{"type":"Feature","properties":{"nome":"Jardim Nilza Helena","osm_id":13473081089,"osm_tipo":"node","tipo_lugar":"neighbourhood"},"geometry":{"type":"Point","coordinates":[-49.3542131,-20.8154911]}},{"type":"Feature","properties":{"nome":"Retalhamento Guilherme Petrucci","osm_id":13473081090,"osm_tipo":"node","tipo_lugar":"neighbourhood"},"geometry":{"type":"Point","coordinates":[-49.3540191,-20.8146714]}},{"type":"Feature","properties":{"nome":"Retalhamento Jesus Ferreira","osm_id":13473081091,"osm_tipo":"node","tipo_lugar":"neighbourhood"},"geometry":{"type":"Point","coordinates":[-49.3530879,-20.814345]}},{"type":"Feature","properties":{"nome":"Vila Hipódromo","osm_id":13473081092,"osm_tipo":"node","tipo_lugar":"neighbourhood"},"geometry":{"type":"Point","coordinates":[-49.3531733,-20.8186319]}},{"type":"Feature","properties":{"nome":"Jardim Zaira","osm_id":13473081093,"osm_tipo":"node","tipo_lugar":"neighbourhood"},"geometry":{"type":"Point","coordinates":[-49.3510703,-20.8172682]}},{"type":"Feature","properties":{"nome":"Jardim Analice","osm_id":13473081094,"osm_tipo":"node","tipo_lugar":"neighbourhood"},"geometry":{"type":"Point","coordinates":[-49.3649221,-20.8157812]}},{"type":"Feature","properties":{"nome":"Vila Dório","osm_id":13473081095,"osm_tipo":"node","tipo_lugar":"neighbourhood"},"geometry":{"type":"Point","coordinates":[-49.3642547,-20.8135181]}},{"type":"Feature","properties":{"nome":"Retalhamento Caparroz","osm_id":13473081096,"osm_tipo":"node","tipo_lugar":"neighbourhood"},"geometry":{"type":"Point","coordinates":[-49.3636184,-20.8123865]}},{"type":"Feature","properties":{"nome":"Vila Santa Tereza","osm_id":13473081097,"osm_tipo":"node","tipo_lugar":"neighbourhood"},"geometry":{"type":"Point","coordinates":[-49.3607937,-20.8129813]}},{"type":"Feature","properties":{"nome":"Vila Cristina","osm_id":13473081098,"osm_tipo":"node","tipo_lugar":"neighbourhood"},"geometry":{"type":"Point","coordinates":[-49.3658688,-20.8126114]}},{"type":"Feature","properties":{"nome":"Vila Elvira","osm_id":13473081099,"osm_tipo":"node","tipo_lugar":"neighbourhood"},"geometry":{"type":"Point","coordinates":[-49.3624622,-20.8112259]}},{"type":"Feature","properties":{"nome":"Spazio Rio Pérola","osm_id":13473081125,"osm_tipo":"node","tipo_lugar":"neighbourhood"},"geometry":{"type":"Point","coordinates":[-49.3519334,-20.8044828]}},{"type":"Feature","properties":{"nome":"Village Rio Volga","osm_id":13473081165,"osm_tipo":"node","tipo_lugar":"neighbourhood"},"geometry":{"type":"Point","coordinates":[-49.3537268,-20.8082067]}},{"type":"Feature","properties":{"nome":"Residencial Três Marias","osm_id":13473081166,"osm_tipo":"node","tipo_lugar":"neighbourhood"},"geometry":{"type":"Point","coordinates":[-49.3509763,-20.8089155]}},{"type":"Feature","properties":{"nome":"Damha Galleria","osm_id":13473081204,"osm_tipo":"node","tipo_lugar":"neighbourhood"},"geometry":{"type":"Point","coordinates":[-49.342908,-20.8235502]}},{"type":"Feature","properties":{"nome":"Vila Imperial","osm_id":13481464788,"osm_tipo":"node","tipo_lugar":"neighbourhood"},"geometry":{"type":"Point","coordinates":[-49.3912053,-20.8160011]}},{"type":"Feature","properties":{"nome":"Jardim Alvorada","osm_id":13481464789,"osm_tipo":"node","tipo_lugar":"neighbourhood"},"geometry":{"type":"Point","coordinates":[-49.3965322,-20.8146422]}},{"type":"Feature","properties":{"nome":"Quinta do Lago - Lake Victoria","osm_id":13483665775,"osm_tipo":"node","tipo_lugar":"neighbourhood"},"geometry":{"type":"Point","coordinates":[-49.3206096,-20.8218727]}},{"type":"Feature","properties":{"nome":"Estância Bela Vista","osm_id":13483666054,"osm_tipo":"node","tipo_lugar":"neighbourhood"},"geometry":{"type":"Point","coordinates":[-49.3184424,-20.8306771]}},{"type":"Feature","properties":{"nome":"Estância Primavera II","osm_id":13483666055,"osm_tipo":"node","tipo_lugar":"neighbourhood"},"geometry":{"type":"Point","coordinates":[-49.2937231,-20.8321612]}},{"type":"Feature","properties":{"nome":"Residencial Macedo Teles II","osm_id":13508550775,"osm_tipo":"node","tipo_lugar":"neighbourhood"},"geometry":{"type":"Point","coordinates":[-49.4139934,-20.8005112]}},{"type":"Feature","properties":{"nome":"Parque Residencial Lauriano Tebar","osm_id":13508550776,"osm_tipo":"node","tipo_lugar":"neighbourhood"},"geometry":{"type":"Point","coordinates":[-49.4104529,-20.801795]}},{"type":"Feature","properties":{"nome":"Marte Santa Catarina","osm_id":13508597708,"osm_tipo":"node","tipo_lugar":"neighbourhood"},"geometry":{"type":"Point","coordinates":[-49.4124377,-20.8057415]}},{"type":"Feature","properties":{"nome":"São João I (Olímpia)","osm_id":13516399305,"osm_tipo":"node","tipo_lugar":"neighbourhood"},"geometry":{"type":"Point","coordinates":[-49.3076545,-20.7883449]}},{"type":"Feature","properties":{"nome":"São Raphael","osm_id":13516399306,"osm_tipo":"node","tipo_lugar":"neighbourhood"},"geometry":{"type":"Point","coordinates":[-49.3054551,-20.7902607]}},{"type":"Feature","properties":{"nome":"Recanto São Lucas","osm_id":13516399524,"osm_tipo":"node","tipo_lugar":"neighbourhood"},"geometry":{"type":"Point","coordinates":[-49.3075419,-20.7648118]}},{"type":"Feature","properties":{"nome":"Eparque Rio Preto Leste","osm_id":13516399529,"osm_tipo":"node","tipo_lugar":"neighbourhood"},"geometry":{"type":"Point","coordinates":[-49.3163824,-20.7690452]}},{"type":"Feature","properties":{"nome":"Estância Yvonne","osm_id":13516399530,"osm_tipo":"node","tipo_lugar":"neighbourhood"},"geometry":{"type":"Point","coordinates":[-49.3182278,-20.7923469]}},{"type":"Feature","properties":{"nome":"Residencial e Empresarial Ascolo Martin","osm_id":13516399533,"osm_tipo":"node","tipo_lugar":"neighbourhood"},"geometry":{"type":"Point","coordinates":[-49.3272936,-20.80009]}},{"type":"Feature","properties":{"nome":"Vila Pompéia","osm_id":13516399534,"osm_tipo":"node","tipo_lugar":"neighbourhood"},"geometry":{"type":"Point","coordinates":[-49.3286562,-20.8035802]}},{"type":"Feature","properties":{"nome":"Jardim São Bento","osm_id":13518723930,"osm_tipo":"node","tipo_lugar":"neighbourhood"},"geometry":{"type":"Point","coordinates":[-49.3668348,-20.7665172]}},{"type":"Feature","properties":{"nome":"Newe Atma","osm_id":13518730935,"osm_tipo":"node","tipo_lugar":"neighbourhood"},"geometry":{"type":"Point","coordinates":[-49.3287313,-20.8158657]}},{"type":"Feature","properties":{"nome":"Ecivitas Lumière 1","osm_id":13518730936,"osm_tipo":"node","tipo_lugar":"neighbourhood"},"geometry":{"type":"Point","coordinates":[-49.3200517,-20.8153342]}},{"type":"Feature","properties":{"nome":"Ecivitas Amazonas","osm_id":13518730937,"osm_tipo":"node","tipo_lugar":"neighbourhood"},"geometry":{"type":"Point","coordinates":[-49.3169832,-20.8091364]}},{"type":"Feature","properties":{"nome":"Ecivitas Lumière 2","osm_id":13518730938,"osm_tipo":"node","tipo_lugar":"neighbourhood"},"geometry":{"type":"Point","coordinates":[-49.3195367,-20.8074716]}},{"type":"Feature","properties":{"nome":"Bio City Club Residencial","osm_id":13518731190,"osm_tipo":"node","tipo_lugar":"neighbourhood"},"geometry":{"type":"Point","coordinates":[-49.3322611,-20.7875525]}},{"type":"Feature","properties":{"nome":"Recanto Feliz","osm_id":13518731226,"osm_tipo":"node","tipo_lugar":"neighbourhood"},"geometry":{"type":"Point","coordinates":[-49.313888,-20.7925776]}},{"type":"Feature","properties":{"nome":"São Pedro - Mineiro","osm_id":13536223924,"osm_tipo":"node","tipo_lugar":"neighbourhood"},"geometry":{"type":"Point","coordinates":[-49.4018591,-20.7175841]}},{"type":"Feature","properties":{"nome":"Estância São Felício","osm_id":13536223925,"osm_tipo":"node","tipo_lugar":"neighbourhood"},"geometry":{"type":"Point","coordinates":[-49.4003677,-20.7190292]}},{"type":"Feature","properties":{"nome":"Estância Beira Rio","osm_id":13536223926,"osm_tipo":"node","tipo_lugar":"neighbourhood"},"geometry":{"type":"Point","coordinates":[-49.395116,-20.722431]}},{"type":"Feature","properties":{"nome":"Estância Oásis","osm_id":13536223927,"osm_tipo":"node","tipo_lugar":"neighbourhood"},"geometry":{"type":"Point","coordinates":[-49.3933296,-20.7255718]}},{"type":"Feature","properties":{"nome":"Estância Galiléia","osm_id":13536223928,"osm_tipo":"node","tipo_lugar":"neighbourhood"},"geometry":{"type":"Point","coordinates":[-49.3912912,-20.7254012]}},{"type":"Feature","properties":{"nome":"Residencial Tabarana","osm_id":13536223929,"osm_tipo":"node","tipo_lugar":"neighbourhood"},"geometry":{"type":"Point","coordinates":[-49.380734,-20.7249196]}},{"type":"Feature","properties":{"nome":"Jardim Boa Esperança","osm_id":13536223979,"osm_tipo":"node","tipo_lugar":"neighbourhood"},"geometry":{"type":"Point","coordinates":[-49.293294,-20.7070971]}},{"type":"Feature","properties":{"nome":"Conjunto Habitacional São José do Rio Preto \"O\"","osm_id":13536223980,"osm_tipo":"node","tipo_lugar":"neighbourhood"},"geometry":{"type":"Point","coordinates":[-49.2937124,-20.7046885]}},{"type":"Feature","properties":{"nome":"Estância San Luiz II","osm_id":13536223981,"osm_tipo":"node","tipo_lugar":"neighbourhood"},"geometry":{"type":"Point","coordinates":[-49.2992699,-20.704819]}},{"type":"Feature","properties":{"nome":"Estância San Luiz I","osm_id":13536223982,"osm_tipo":"node","tipo_lugar":"neighbourhood"},"geometry":{"type":"Point","coordinates":[-49.2959762,-20.7045581]}},{"type":"Feature","properties":{"nome":"Estância São Luíz III","osm_id":13536223983,"osm_tipo":"node","tipo_lugar":"neighbourhood"},"geometry":{"type":"Point","coordinates":[-49.3013191,-20.693197]}},{"type":"Feature","properties":{"nome":"Estância São Luíz II","osm_id":13536223984,"osm_tipo":"node","tipo_lugar":"neighbourhood"},"geometry":{"type":"Point","coordinates":[-49.2973924,-20.6933776]}},{"type":"Feature","properties":{"nome":"Estância São Luíz I","osm_id":13536223985,"osm_tipo":"node","tipo_lugar":"neighbourhood"},"geometry":{"type":"Point","coordinates":[-49.2979932,-20.691029]}},{"type":"Feature","properties":{"nome":"Parque Olinda Sala","osm_id":13536223988,"osm_tipo":"node","tipo_lugar":"neighbourhood"},"geometry":{"type":"Point","coordinates":[-49.3450606,-20.7205344]}},{"type":"Feature","properties":{"nome":"Estância Sossego","osm_id":13536224095,"osm_tipo":"node","tipo_lugar":"neighbourhood"},"geometry":{"type":"Point","coordinates":[-49.318893,-20.7313115]}},{"type":"Feature","properties":{"nome":"Terras de São Lucas","osm_id":13536224096,"osm_tipo":"node","tipo_lugar":"neighbourhood"},"geometry":{"type":"Point","coordinates":[-49.3160927,-20.732335]}},{"type":"Feature","properties":{"nome":"Residencial Ary Attab III","osm_id":13624668440,"osm_tipo":"node","tipo_lugar":"neighbourhood"},"geometry":{"type":"Point","coordinates":[-49.4374895,-20.8016044]}},{"type":"Feature","properties":{"nome":"Condomínio Praças Golfe","osm_id":13624668449,"osm_tipo":"node","tipo_lugar":"neighbourhood"},"geometry":{"type":"Point","coordinates":[-49.4190306,-20.842459]}},{"type":"Feature","properties":{"nome":"Condomínio Las Palmas","osm_id":13624683407,"osm_tipo":"node","tipo_lugar":"neighbourhood"},"geometry":{"type":"Point","coordinates":[-49.4060487,-20.8285487]}},{"type":"Feature","properties":{"nome":"Retalhamento Stefanini","osm_id":13647060703,"osm_tipo":"node","tipo_lugar":"neighbourhood"},"geometry":{"type":"Point","coordinates":[-49.4067299,-20.8278794]}},{"type":"Feature","properties":{"nome":"Estância Santa Edwirges II","osm_id":13651083130,"osm_tipo":"node","tipo_lugar":"neighbourhood"},"geometry":{"type":"Point","coordinates":[-49.4532398,-20.7311398]}},{"type":"Feature","properties":{"nome":"Estância Nossa Senhora Aparecida","osm_id":13651083425,"osm_tipo":"node","tipo_lugar":"neighbourhood"},"geometry":{"type":"Point","coordinates":[-49.4369694,-20.7631284]}},{"type":"Feature","properties":{"nome":"Residencial Maria Drummond","osm_id":13651083432,"osm_tipo":"node","tipo_lugar":"neighbourhood"},"geometry":{"type":"Point","coordinates":[-49.4370244,-20.783985]}},{"type":"Feature","properties":{"nome":"Conjunto Habitacional São José do Rio Preto \"J\"","osm_id":13651083433,"osm_tipo":"node","tipo_lugar":"neighbourhood"},"geometry":{"type":"Point","coordinates":[-49.4346282,-20.7843452]}},{"type":"Feature","properties":{"nome":"Estância Alvorada II","osm_id":13651083609,"osm_tipo":"node","tipo_lugar":"neighbourhood"},"geometry":{"type":"Point","coordinates":[-49.4311016,-20.7459977]}},{"type":"Feature","properties":{"nome":"Parque Residencial Edson Baffi","osm_id":13651083610,"osm_tipo":"node","tipo_lugar":"neighbourhood"},"geometry":{"type":"Point","coordinates":[-49.4414276,-20.7561868]}},{"type":"Feature","properties":{"nome":"Loteamento Residencial José Bernardes Coelho","osm_id":13651083611,"osm_tipo":"node","tipo_lugar":"neighbourhood"},"geometry":{"type":"Point","coordinates":[-49.4319182,-20.751856]}},{"type":"Feature","properties":{"nome":"Setparque Horizonte","osm_id":13674510318,"osm_tipo":"node","tipo_lugar":"neighbourhood"},"geometry":{"type":"Point","coordinates":[-49.408165,-20.7546392]}},{"type":"Feature","properties":{"nome":"Eplatz Rio Preto","osm_id":13674510319,"osm_tipo":"node","tipo_lugar":"neighbourhood"},"geometry":{"type":"Point","coordinates":[-49.3440907,-20.884234]}},{"type":"Feature","properties":{"nome":"Residencial Gumercindo de Seta","osm_id":13674510320,"osm_tipo":"node","tipo_lugar":"neighbourhood"},"geometry":{"type":"Point","coordinates":[-49.3475155,-20.8902221]}},{"type":"Feature","properties":{"nome":"Loteamento Jayme Rosário","osm_id":13677187888,"osm_tipo":"node","tipo_lugar":"neighbourhood"},"geometry":{"type":"Point","coordinates":[-49.3740676,-20.7916253]}},{"type":"Feature","properties":{"nome":"Vila São Luiz Gonzaga","osm_id":13677187889,"osm_tipo":"node","tipo_lugar":"neighbourhood"},"geometry":{"type":"Point","coordinates":[-49.3716172,-20.7890976]}},{"type":"Feature","properties":{"nome":"Retalhamento Vânia Marta","osm_id":13677187890,"osm_tipo":"node","tipo_lugar":"suburb"},"geometry":{"type":"Point","coordinates":[-49.3715187,-20.7880312]}},{"type":"Feature","properties":{"nome":"Vila Novaes","osm_id":13677187891,"osm_tipo":"node","tipo_lugar":"neighbourhood"},"geometry":{"type":"Point","coordinates":[-49.374476,-20.7876625]}},{"type":"Feature","properties":{"nome":"Parque Residencial Joaquim Nabuco","osm_id":13677187892,"osm_tipo":"node","tipo_lugar":"neighbourhood"},"geometry":{"type":"Point","coordinates":[-49.3756307,-20.7915463]}},{"type":"Feature","properties":{"nome":"Vila Mossoró","osm_id":13677187893,"osm_tipo":"node","tipo_lugar":"neighbourhood"},"geometry":{"type":"Point","coordinates":[-49.3703639,-20.7899797]}},{"type":"Feature","properties":{"nome":"Jardim Castelinho III","osm_id":13677187894,"osm_tipo":"node","tipo_lugar":"neighbourhood"},"geometry":{"type":"Point","coordinates":[-49.3584248,-20.7722642]}},{"type":"Feature","properties":{"nome":"Parque Residencial Jardim do Bosque II","osm_id":13677189982,"osm_tipo":"node","tipo_lugar":"neighbourhood"},"geometry":{"type":"Point","coordinates":[-49.3658643,-20.7788705]}},{"type":"Feature","properties":{"nome":"Parque Residencial Jardim do Bosque","osm_id":13677189983,"osm_tipo":"node","tipo_lugar":"neighbourhood"},"geometry":{"type":"Point","coordinates":[-49.3672659,-20.7802625]}},{"type":"Feature","properties":{"nome":"Mini Distrito Industrial Giuliane I","osm_id":13677190026,"osm_tipo":"node","tipo_lugar":"neighbourhood"},"geometry":{"type":"Point","coordinates":[-49.3706464,-20.775537]}},{"type":"Feature","properties":{"nome":"Jardim Senedu","osm_id":13677190027,"osm_tipo":"node","tipo_lugar":"neighbourhood"},"geometry":{"type":"Point","coordinates":[-49.3723464,-20.7790349]}},{"type":"Feature","properties":{"nome":"Villagio Vitoria","osm_id":13677190028,"osm_tipo":"node","tipo_lugar":"neighbourhood"},"geometry":{"type":"Point","coordinates":[-49.3756675,-20.7790226]}},{"type":"Feature","properties":{"nome":"Loteamento Rios do Sul","osm_id":13677190042,"osm_tipo":"node","tipo_lugar":"neighbourhood"},"geometry":{"type":"Point","coordinates":[-49.3900806,-20.7527705]}},{"type":"Feature","properties":{"nome":"Residencial Caetano II","osm_id":13677190043,"osm_tipo":"node","tipo_lugar":"neighbourhood"},"geometry":{"type":"Point","coordinates":[-49.3912312,-20.754111]}},{"type":"Feature","properties":{"nome":"Estância Suíça","osm_id":13677190063,"osm_tipo":"node","tipo_lugar":"neighbourhood"},"geometry":{"type":"Point","coordinates":[-49.3791707,-20.7556941]}},{"type":"Feature","properties":{"nome":"Conjunto Habitacional São José do Rio Preto \"G\"","osm_id":13677190064,"osm_tipo":"node","tipo_lugar":"neighbourhood"},"geometry":{"type":"Point","coordinates":[-49.3789177,-20.7596817]}},{"type":"Feature","properties":{"nome":"Loteamento Marisa Cristina I","osm_id":13677190065,"osm_tipo":"node","tipo_lugar":"neighbourhood"},"geometry":{"type":"Point","coordinates":[-49.3695255,-20.7581431]}},{"type":"Feature","properties":{"nome":"Loteamento Marisa Cristina II","osm_id":13677190066,"osm_tipo":"node","tipo_lugar":"neighbourhood"},"geometry":{"type":"Point","coordinates":[-49.3682286,-20.757658]}},{"type":"Feature","properties":{"nome":"Cavalari III","osm_id":13677190094,"osm_tipo":"node","tipo_lugar":"neighbourhood"},"geometry":{"type":"Point","coordinates":[-49.3551451,-20.7589563]}},{"type":"Feature","properties":{"nome":"Jardim Monte Cristo","osm_id":13677190095,"osm_tipo":"node","tipo_lugar":"neighbourhood"},"geometry":{"type":"Point","coordinates":[-49.3470584,-20.7579635]}},{"type":"Feature","properties":{"nome":"Distrito Industrial","osm_id":13944246495,"osm_tipo":"node","tipo_lugar":"suburb"},"geometry":{"type":"Point","coordinates":[-49.4229388,-20.8154979]}},{"type":"Feature","properties":{"nome":"Parque Residencial Nova Esperança","osm_id":202997111,"osm_tipo":"way","tipo_lugar":"neighbourhood"},"geometry":{"type":"Polygon","coordinates":[[[-49.4116101,-20.7464048],[-49.4067985,-20.7462295],[-49.4079449,-20.7437335],[-49.4064445,-20.7436158],[-49.4088113,-20.7385285],[-49.4210344,-20.7382383],[-49.4201192,-20.7442781],[-49.411928,-20.7440695],[-49.4116101,-20.7464048]]]}},{"type":"Feature","properties":{"nome":"Condomínio Village La Montagne","osm_id":318123499,"osm_tipo":"way","tipo_lugar":"suburb"},"geometry":{"type":"Polygon","coordinates":[[[-49.4093666,-20.8623006],[-49.4105676,-20.8639459],[-49.4081659,-20.8667676],[-49.402778,-20.8650866],[-49.4063516,-20.8597718],[-49.4093666,-20.8623006]]]}},{"type":"Feature","properties":{"nome":"Cidade Nova","osm_id":327950922,"osm_tipo":"way","tipo_lugar":"suburb"},"geometry":{"type":"Polygon","coordinates":[[[-49.3882751,-20.8335812],[-49.3861912,-20.8304475],[-49.3813874,-20.8411353],[-49.3882751,-20.8335812]]]}},{"type":"Feature","properties":{"nome":"Estoril","osm_id":327951688,"osm_tipo":"way","tipo_lugar":"suburb"},"geometry":{"type":"Polygon","coordinates":[[[-49.3860489,-20.8303147],[-49.3851938,-20.82936],[-49.37443,-20.8389],[-49.3810482,-20.8401928],[-49.3860489,-20.8303147]]]}},{"type":"Feature","properties":{"nome":"Residencial Eco Village","osm_id":480927089,"osm_tipo":"way","tipo_lugar":"suburb"},"geometry":{"type":"Polygon","coordinates":[[[-49.4111583,-20.8599171],[-49.4115029,-20.8580586],[-49.408012,-20.858996],[-49.4114224,-20.8638596],[-49.4111583,-20.8599171]]]}},{"type":"Feature","properties":{"nome":"Condomínio Eco Village I","osm_id":481262277,"osm_tipo":"way","tipo_lugar":"suburb"},"geometry":{"type":"Polygon","coordinates":[[[-49.4128695,-20.8603444],[-49.4122231,-20.8621528],[-49.4159661,-20.8606264],[-49.4125275,-20.8581977],[-49.4128695,-20.8603444]]]}},{"type":"Feature","properties":{"nome":"Residencial Solidariedade","osm_id":484033765,"osm_tipo":"way","tipo_lugar":"suburb"},"geometry":{"type":"Polygon","coordinates":[[[-49.3734916,-20.7496503],[-49.3627174,-20.7452085],[-49.3618188,-20.7467436],[-49.3617111,-20.7494092],[-49.3640965,-20.7520282],[-49.3650106,-20.7502326],[-49.3733139,-20.7527076],[-49.3734916,-20.7496503]]]}}]}