{"type":"FeatureCollection","features":[{"type":"Feature","properties":{"nome":"Rio Grande","osm_id":368179766,"osm_tipo":"node","tipo_lugar":"suburb"},"geometry":{"type":"Point","coordinates":[-46.523369,-23.7892455]}},{"type":"Feature","properties":{"nome":"Residencial Vila das Valsas","osm_id":1560596792,"osm_tipo":"node","tipo_lugar":"neighbourhood"},"geometry":{"type":"Point","coordinates":[-46.5558749,-23.7538756]}},{"type":"Feature","properties":{"nome":"Anchieta","osm_id":2977426167,"osm_tipo":"node","tipo_lugar":"suburb"},"geometry":{"type":"Point","coordinates":[-46.5607437,-23.6769359]}},{"type":"Feature","properties":{"nome":"Jordanópolis","osm_id":2977426168,"osm_tipo":"node","tipo_lugar":"suburb"},"geometry":{"type":"Point","coordinates":[-46.573467,-23.6816399]}},{"type":"Feature","properties":{"nome":"Paulicéia","osm_id":2977426169,"osm_tipo":"node","tipo_lugar":"suburb"},"geometry":{"type":"Point","coordinates":[-46.5857703,-23.6666703]}},{"type":"Feature","properties":{"nome":"Taboão","osm_id":2978211473,"osm_tipo":"node","tipo_lugar":"suburb"},"geometry":{"type":"Point","coordinates":[-46.596823,-23.6570803]}},{"type":"Feature","properties":{"nome":"Rudge Ramos","osm_id":2978218049,"osm_tipo":"node","tipo_lugar":"suburb"},"geometry":{"type":"Point","coordinates":[-46.5682591,-23.6590824]}},{"type":"Feature","properties":{"nome":"Nova Petrópolis","osm_id":2981190314,"osm_tipo":"node","tipo_lugar":"suburb"},"geometry":{"type":"Point","coordinates":[-46.5396292,-23.7080705]}},{"type":"Feature","properties":{"nome":"Santa Terezinha","osm_id":2981190315,"osm_tipo":"node","tipo_lugar":"suburb"},"geometry":{"type":"Point","coordinates":[-46.5360284,-23.7190024]}},{"type":"Feature","properties":{"nome":"Assunção","osm_id":2981930465,"osm_tipo":"node","tipo_lugar":"suburb"},"geometry":{"type":"Point","coordinates":[-46.5692486,-23.7191358]}},{"type":"Feature","properties":{"nome":"Demarchi","osm_id":2981930466,"osm_tipo":"node","tipo_lugar":"suburb"},"geometry":{"type":"Point","coordinates":[-46.5558968,-23.7395442]}},{"type":"Feature","properties":{"nome":"Bairro Batistini","osm_id":2981952375,"osm_tipo":"node","tipo_lugar":"suburb"},"geometry":{"type":"Point","coordinates":[-46.5884054,-23.7688621]}},{"type":"Feature","properties":{"nome":"Bairro dos Alvarengas","osm_id":2981958749,"osm_tipo":"node","tipo_lugar":"suburb"},"geometry":{"type":"Point","coordinates":[-46.6194954,-23.7469994]}},{"type":"Feature","properties":{"nome":"Cooperativa","osm_id":2986980580,"osm_tipo":"node","tipo_lugar":"suburb"},"geometry":{"type":"Point","coordinates":[-46.5966838,-23.7263478]}},{"type":"Feature","properties":{"nome":"Planalto","osm_id":2987004321,"osm_tipo":"node","tipo_lugar":"suburb"},"geometry":{"type":"Point","coordinates":[-46.5697732,-23.6998572]}},{"type":"Feature","properties":{"nome":"Parque Residencial Selecta","osm_id":2988681938,"osm_tipo":"node","tipo_lugar":"neighbourhood"},"geometry":{"type":"Point","coordinates":[-46.5278607,-23.7435267]}},{"type":"Feature","properties":{"nome":"Bairro dos Finco","osm_id":2997020841,"osm_tipo":"node","tipo_lugar":"suburb"},"geometry":{"type":"Point","coordinates":[-46.542815,-23.7952889]}},{"type":"Feature","properties":{"nome":"Tatetos","osm_id":2998831525,"osm_tipo":"node","tipo_lugar":"suburb"},"geometry":{"type":"Point","coordinates":[-46.5765966,-23.8154706]}},{"type":"Feature","properties":{"nome":"Curucutu","osm_id":3077534400,"osm_tipo":"node","tipo_lugar":"suburb"},"geometry":{"type":"Point","coordinates":[-46.6040291,-23.8691323]}},{"type":"Feature","properties":{"nome":"Jardim Arco Iris","osm_id":3103192192,"osm_tipo":"node","tipo_lugar":"neighbourhood"},"geometry":{"type":"Point","coordinates":[-46.55626,-23.7509654]}},{"type":"Feature","properties":{"nome":"Vila Norma","osm_id":3103198129,"osm_tipo":"node","tipo_lugar":"neighbourhood"},"geometry":{"type":"Point","coordinates":[-46.5746851,-23.7521623]}},{"type":"Feature","properties":{"nome":"Jardim Boa Vista","osm_id":3103250627,"osm_tipo":"node","tipo_lugar":"neighbourhood"},"geometry":{"type":"Point","coordinates":[-46.5372372,-23.7991237]}},{"type":"Feature","properties":{"nome":"Vila Praia Grande","osm_id":3103250628,"osm_tipo":"node","tipo_lugar":"neighbourhood"},"geometry":{"type":"Point","coordinates":[-46.5328841,-23.7993129]}},{"type":"Feature","properties":{"nome":"Vila Roccio","osm_id":3103251559,"osm_tipo":"node","tipo_lugar":"neighbourhood"},"geometry":{"type":"Point","coordinates":[-46.5251823,-23.7859649]}},{"type":"Feature","properties":{"nome":"Parque Rio Grande","osm_id":3103253148,"osm_tipo":"node","tipo_lugar":"neighbourhood"},"geometry":{"type":"Point","coordinates":[-46.5301712,-23.7915019]}},{"type":"Feature","properties":{"nome":"Vila Pelé","osm_id":3103256364,"osm_tipo":"node","tipo_lugar":"neighbourhood"},"geometry":{"type":"Point","coordinates":[-46.52927,-23.7861711]}},{"type":"Feature","properties":{"nome":"Vila Jurubatuba","osm_id":3103263361,"osm_tipo":"node","tipo_lugar":"neighbourhood"},"geometry":{"type":"Point","coordinates":[-46.5196569,-23.7726713]}},{"type":"Feature","properties":{"nome":"Parque Riacho Grande","osm_id":3103263362,"osm_tipo":"node","tipo_lugar":"neighbourhood"},"geometry":{"type":"Point","coordinates":[-46.5327934,-23.7788464]}},{"type":"Feature","properties":{"nome":"Jardim Monte Carlo","osm_id":3103263911,"osm_tipo":"node","tipo_lugar":"neighbourhood"},"geometry":{"type":"Point","coordinates":[-46.5241738,-23.7794655]}},{"type":"Feature","properties":{"nome":"Vila do Riacho Grande","osm_id":3103264240,"osm_tipo":"node","tipo_lugar":"neighbourhood"},"geometry":{"type":"Point","coordinates":[-46.5302038,-23.7787874]}},{"type":"Feature","properties":{"nome":"Jardim do Lago Azul","osm_id":3103271289,"osm_tipo":"node","tipo_lugar":"neighbourhood"},"geometry":{"type":"Point","coordinates":[-46.5345711,-23.7862609]}},{"type":"Feature","properties":{"nome":"Jardim Dona Luiza","osm_id":3103274929,"osm_tipo":"node","tipo_lugar":"neighbourhood"},"geometry":{"type":"Point","coordinates":[-46.5323877,-23.7817301]}},{"type":"Feature","properties":{"nome":"Vila Lulalaldo","osm_id":3104715628,"osm_tipo":"node","tipo_lugar":"neighbourhood"},"geometry":{"type":"Point","coordinates":[-46.5358235,-23.7567202]}},{"type":"Feature","properties":{"nome":"Vila Santos Dumont","osm_id":3104718478,"osm_tipo":"node","tipo_lugar":"neighbourhood"},"geometry":{"type":"Point","coordinates":[-46.5359201,-23.7607168]}},{"type":"Feature","properties":{"nome":"Jardim Jussara","osm_id":3104719630,"osm_tipo":"node","tipo_lugar":"neighbourhood"},"geometry":{"type":"Point","coordinates":[-46.5368642,-23.760275]}},{"type":"Feature","properties":{"nome":"Jardim Cruzeiro do Sul","osm_id":3104907923,"osm_tipo":"node","tipo_lugar":"neighbourhood"},"geometry":{"type":"Point","coordinates":[-46.6195195,-23.7531795]}},{"type":"Feature","properties":{"nome":"Parque dos Químicos","osm_id":3104908178,"osm_tipo":"node","tipo_lugar":"neighbourhood"},"geometry":{"type":"Point","coordinates":[-46.6239183,-23.7514511]}},{"type":"Feature","properties":{"nome":"Vila União","osm_id":3104909923,"osm_tipo":"node","tipo_lugar":"neighbourhood"},"geometry":{"type":"Point","coordinates":[-46.6059153,-23.7435752]}},{"type":"Feature","properties":{"nome":"Parque das Árvores","osm_id":3104927872,"osm_tipo":"node","tipo_lugar":"neighbourhood"},"geometry":{"type":"Point","coordinates":[-46.585155,-23.7272423]}},{"type":"Feature","properties":{"nome":"Jardim Nosso Lar","osm_id":3104946276,"osm_tipo":"node","tipo_lugar":"neighbourhood"},"geometry":{"type":"Point","coordinates":[-46.5861148,-23.7337557]}},{"type":"Feature","properties":{"nome":"Jardim Monte Sião","osm_id":3104946675,"osm_tipo":"node","tipo_lugar":"neighbourhood"},"geometry":{"type":"Point","coordinates":[-46.5852033,-23.7327032]}},{"type":"Feature","properties":{"nome":"Vila Sônia","osm_id":3108675650,"osm_tipo":"node","tipo_lugar":"neighbourhood"},"geometry":{"type":"Point","coordinates":[-46.5516894,-23.6855739]}},{"type":"Feature","properties":{"nome":"Vila dos Estudantes","osm_id":3109937930,"osm_tipo":"node","tipo_lugar":"neighbourhood"},"geometry":{"type":"Point","coordinates":[-46.5313391,-23.7539332]}},{"type":"Feature","properties":{"nome":"Vila Bella Vista","osm_id":3110018397,"osm_tipo":"node","tipo_lugar":"neighbourhood"},"geometry":{"type":"Point","coordinates":[-46.5416239,-23.7647696]}},{"type":"Feature","properties":{"nome":"Jardim Capivari","osm_id":3110063557,"osm_tipo":"node","tipo_lugar":"neighbourhood"},"geometry":{"type":"Point","coordinates":[-46.5552269,-23.7609125]}},{"type":"Feature","properties":{"nome":"Chacara Porongaba","osm_id":3110067103,"osm_tipo":"node","tipo_lugar":"neighbourhood"},"geometry":{"type":"Point","coordinates":[-46.5611385,-23.7589879]}},{"type":"Feature","properties":{"nome":"Vila Formosa","osm_id":3110357106,"osm_tipo":"node","tipo_lugar":"neighbourhood"},"geometry":{"type":"Point","coordinates":[-46.5470267,-23.7242563]}},{"type":"Feature","properties":{"nome":"Vila Ferrazópolis","osm_id":3110361677,"osm_tipo":"node","tipo_lugar":"neighbourhood"},"geometry":{"type":"Point","coordinates":[-46.5465976,-23.7257615]}},{"type":"Feature","properties":{"nome":"Jardim Diana","osm_id":3117094049,"osm_tipo":"node","tipo_lugar":"neighbourhood"},"geometry":{"type":"Point","coordinates":[-46.5924033,-23.7508342]}},{"type":"Feature","properties":{"nome":"Jardim Nosso Teto","osm_id":3117125809,"osm_tipo":"node","tipo_lugar":"neighbourhood"},"geometry":{"type":"Point","coordinates":[-46.6088828,-23.7609731]}},{"type":"Feature","properties":{"nome":"Vila Antunes","osm_id":3117330245,"osm_tipo":"node","tipo_lugar":"neighbourhood"},"geometry":{"type":"Point","coordinates":[-46.5319747,-23.7091018]}},{"type":"Feature","properties":{"nome":"Vila Lília","osm_id":3117330689,"osm_tipo":"node","tipo_lugar":"neighbourhood"},"geometry":{"type":"Point","coordinates":[-46.5358907,-23.7068817]}},{"type":"Feature","properties":{"nome":"Jardim Wallace Simonsen","osm_id":3117336109,"osm_tipo":"node","tipo_lugar":"neighbourhood"},"geometry":{"type":"Point","coordinates":[-46.5392166,-23.7090035]}},{"type":"Feature","properties":{"nome":"Vila Primavera","osm_id":3117340409,"osm_tipo":"node","tipo_lugar":"neighbourhood"},"geometry":{"type":"Point","coordinates":[-46.5427357,-23.7015573]}},{"type":"Feature","properties":{"nome":"Jardim Nova Petrópolis","osm_id":3117340968,"osm_tipo":"node","tipo_lugar":"neighbourhood"},"geometry":{"type":"Point","coordinates":[-46.5464908,-23.7034827]}},{"type":"Feature","properties":{"nome":"Vila São Savino","osm_id":3117345376,"osm_tipo":"node","tipo_lugar":"neighbourhood"},"geometry":{"type":"Point","coordinates":[-46.5517747,-23.7071162]}},{"type":"Feature","properties":{"nome":"Vila Álvaro Marques","osm_id":3117356499,"osm_tipo":"node","tipo_lugar":"neighbourhood"},"geometry":{"type":"Point","coordinates":[-46.5454394,-23.7112432]}},{"type":"Feature","properties":{"nome":"Jardim Nazareth","osm_id":3129486813,"osm_tipo":"node","tipo_lugar":"neighbourhood"},"geometry":{"type":"Point","coordinates":[-46.5931937,-23.7138881]}},{"type":"Feature","properties":{"nome":"Granja Ito","osm_id":3129554533,"osm_tipo":"node","tipo_lugar":"neighbourhood"},"geometry":{"type":"Point","coordinates":[-46.5888486,-23.7199708]}},{"type":"Feature","properties":{"nome":"Jardim Silvina","osm_id":3132430495,"osm_tipo":"node","tipo_lugar":"neighbourhood"},"geometry":{"type":"Point","coordinates":[-46.5350171,-23.7374247]}},{"type":"Feature","properties":{"nome":"Golden Park","osm_id":3132430911,"osm_tipo":"node","tipo_lugar":"neighbourhood"},"geometry":{"type":"Point","coordinates":[-46.5318092,-23.7345864]}},{"type":"Feature","properties":{"nome":"Vila São José","osm_id":3132432852,"osm_tipo":"node","tipo_lugar":"neighbourhood"},"geometry":{"type":"Point","coordinates":[-46.5374734,-23.7325935]}},{"type":"Feature","properties":{"nome":"Jardim Tiradentes","osm_id":3132448234,"osm_tipo":"node","tipo_lugar":"neighbourhood"},"geometry":{"type":"Point","coordinates":[-46.5299853,-23.7294227]}},{"type":"Feature","properties":{"nome":"Parque São Rafael","osm_id":3132452431,"osm_tipo":"node","tipo_lugar":"neighbourhood"},"geometry":{"type":"Point","coordinates":[-46.5329787,-23.7301299]}},{"type":"Feature","properties":{"nome":"Jardim Detroit","osm_id":3135949870,"osm_tipo":"node","tipo_lugar":"neighbourhood"},"geometry":{"type":"Point","coordinates":[-46.5731042,-23.7371374]}},{"type":"Feature","properties":{"nome":"Parque Espacial","osm_id":3135964301,"osm_tipo":"node","tipo_lugar":"neighbourhood"},"geometry":{"type":"Point","coordinates":[-46.5639757,-23.7298973]}},{"type":"Feature","properties":{"nome":"Vila Vitória","osm_id":3135970044,"osm_tipo":"node","tipo_lugar":"neighbourhood"},"geometry":{"type":"Point","coordinates":[-46.5758096,-23.7335608]}},{"type":"Feature","properties":{"nome":"Jardim Boa Vista","osm_id":3136140011,"osm_tipo":"node","tipo_lugar":"neighbourhood"},"geometry":{"type":"Point","coordinates":[-46.5420324,-23.801259]}},{"type":"Feature","properties":{"nome":"Recreio Rancho Alegre","osm_id":3136140391,"osm_tipo":"node","tipo_lugar":"neighbourhood"},"geometry":{"type":"Point","coordinates":[-46.5677923,-23.7869459]}},{"type":"Feature","properties":{"nome":"Sonho Real","osm_id":3136140809,"osm_tipo":"node","tipo_lugar":"neighbourhood"},"geometry":{"type":"Point","coordinates":[-46.5483624,-23.7960169]}},{"type":"Feature","properties":{"nome":"Vila Olaria","osm_id":3136141691,"osm_tipo":"node","tipo_lugar":"neighbourhood"},"geometry":{"type":"Point","coordinates":[-46.5464902,-23.7956095]}},{"type":"Feature","properties":{"nome":"Jardim Belas Artes","osm_id":3136189829,"osm_tipo":"node","tipo_lugar":"neighbourhood"},"geometry":{"type":"Point","coordinates":[-46.5961907,-23.730765]}},{"type":"Feature","properties":{"nome":"Jardim Thelma","osm_id":3136191209,"osm_tipo":"node","tipo_lugar":"neighbourhood"},"geometry":{"type":"Point","coordinates":[-46.591234,-23.7355874]}},{"type":"Feature","properties":{"nome":"Jardim Cantareira","osm_id":3136191220,"osm_tipo":"node","tipo_lugar":"neighbourhood"},"geometry":{"type":"Point","coordinates":[-46.5895388,-23.7331419]}},{"type":"Feature","properties":{"nome":"Jardim Satelite","osm_id":3136192134,"osm_tipo":"node","tipo_lugar":"neighbourhood"},"geometry":{"type":"Point","coordinates":[-46.5905902,-23.7286926]}},{"type":"Feature","properties":{"nome":"Jardim Campestre","osm_id":3136235485,"osm_tipo":"node","tipo_lugar":"neighbourhood"},"geometry":{"type":"Point","coordinates":[-46.5811649,-23.7334561]}},{"type":"Feature","properties":{"nome":"Vila Marabá","osm_id":3137472012,"osm_tipo":"node","tipo_lugar":"neighbourhood"},"geometry":{"type":"Point","coordinates":[-46.5745086,-23.7265483]}},{"type":"Feature","properties":{"nome":"Jardim Industrial","osm_id":3140484621,"osm_tipo":"node","tipo_lugar":"neighbourhood"},"geometry":{"type":"Point","coordinates":[-46.5211767,-23.7087407]}},{"type":"Feature","properties":{"nome":"Vila Salvador Arena","osm_id":3140895624,"osm_tipo":"node","tipo_lugar":"neighbourhood"},"geometry":{"type":"Point","coordinates":[-46.5262259,-23.7052141]}},{"type":"Feature","properties":{"nome":"Parque Imigrantes","osm_id":3141131299,"osm_tipo":"node","tipo_lugar":"neighbourhood"},"geometry":{"type":"Point","coordinates":[-46.5902534,-23.7729572]}},{"type":"Feature","properties":{"nome":"Chacara Jardim Santa Filomena","osm_id":3142405754,"osm_tipo":"node","tipo_lugar":"neighbourhood"},"geometry":{"type":"Point","coordinates":[-46.5545618,-23.8240897]}},{"type":"Feature","properties":{"nome":"Sitio Rio Acima","osm_id":3142533779,"osm_tipo":"node","tipo_lugar":"neighbourhood"},"geometry":{"type":"Point","coordinates":[-46.5733266,-23.8268378]}},{"type":"Feature","properties":{"nome":"Parque IV Centenário","osm_id":3142827335,"osm_tipo":"node","tipo_lugar":"neighbourhood"},"geometry":{"type":"Point","coordinates":[-46.5884608,-23.7973757]}},{"type":"Feature","properties":{"nome":"Jardim Borda do Campo","osm_id":3143164302,"osm_tipo":"node","tipo_lugar":"neighbourhood"},"geometry":{"type":"Point","coordinates":[-46.503317,-23.7735368]}},{"type":"Feature","properties":{"nome":"Jardim da Colina","osm_id":3143171619,"osm_tipo":"node","tipo_lugar":"neighbourhood"},"geometry":{"type":"Point","coordinates":[-46.4432891,-23.802758]}},{"type":"Feature","properties":{"nome":"Capelinha","osm_id":3143172164,"osm_tipo":"node","tipo_lugar":"neighbourhood"},"geometry":{"type":"Point","coordinates":[-46.5040465,-23.7860964]}},{"type":"Feature","properties":{"nome":"Colonia dos Pescadores","osm_id":3143175571,"osm_tipo":"node","tipo_lugar":"neighbourhood"},"geometry":{"type":"Point","coordinates":[-46.4713933,-23.7829474]}},{"type":"Feature","properties":{"nome":"Jardim São Lucas - Cocaia","osm_id":3144236157,"osm_tipo":"node","tipo_lugar":"neighbourhood"},"geometry":{"type":"Point","coordinates":[-46.4991068,-23.7797907]}},{"type":"Feature","properties":{"nome":"Vila São Bernardo Novo","osm_id":3144279591,"osm_tipo":"node","tipo_lugar":"neighbourhood"},"geometry":{"type":"Point","coordinates":[-46.5087047,-23.7531878]}},{"type":"Feature","properties":{"nome":"Jardim Baraldi","osm_id":3144298091,"osm_tipo":"node","tipo_lugar":"neighbourhood"},"geometry":{"type":"Point","coordinates":[-46.497713,-23.7482728]}},{"type":"Feature","properties":{"nome":"Parque Los Angeles","osm_id":3146050215,"osm_tipo":"node","tipo_lugar":"neighbourhood"},"geometry":{"type":"Point","coordinates":[-46.6103125,-23.7703178]}},{"type":"Feature","properties":{"nome":"Jardim Nova Canaã II","osm_id":3146053683,"osm_tipo":"node","tipo_lugar":"neighbourhood"},"geometry":{"type":"Point","coordinates":[-46.6148187,-23.7743042]}},{"type":"Feature","properties":{"nome":"Jardim Três Marias","osm_id":3146426579,"osm_tipo":"node","tipo_lugar":"neighbourhood"},"geometry":{"type":"Point","coordinates":[-46.5558551,-23.6845493]}},{"type":"Feature","properties":{"nome":"Baeta Neves","osm_id":3146435349,"osm_tipo":"node","tipo_lugar":"suburb"},"geometry":{"type":"Point","coordinates":[-46.5406792,-23.6909846]}},{"type":"Feature","properties":{"nome":"Chácara Trevo","osm_id":3149402228,"osm_tipo":"node","tipo_lugar":"neighbourhood"},"geometry":{"type":"Point","coordinates":[-46.5656098,-23.6933281]}},{"type":"Feature","properties":{"nome":"Jardim São Francisco","osm_id":3149412557,"osm_tipo":"node","tipo_lugar":"neighbourhood"},"geometry":{"type":"Point","coordinates":[-46.5660765,-23.6911863]}},{"type":"Feature","properties":{"nome":"Vila Washington","osm_id":3149414675,"osm_tipo":"node","tipo_lugar":"neighbourhood"},"geometry":{"type":"Point","coordinates":[-46.5655883,-23.6940993]}},{"type":"Feature","properties":{"nome":"Vila Jupiter","osm_id":3149421242,"osm_tipo":"node","tipo_lugar":"neighbourhood"},"geometry":{"type":"Point","coordinates":[-46.5651484,-23.6954158]}},{"type":"Feature","properties":{"nome":"Vila Armando Bondioli","osm_id":3150071218,"osm_tipo":"node","tipo_lugar":"neighbourhood"},"geometry":{"type":"Point","coordinates":[-46.5712183,-23.7051479]}},{"type":"Feature","properties":{"nome":"Vila Mussolini","osm_id":3157257981,"osm_tipo":"node","tipo_lugar":"neighbourhood"},"geometry":{"type":"Point","coordinates":[-46.5707541,-23.6658504]}},{"type":"Feature","properties":{"nome":"Parque dos Lagos","osm_id":3158788794,"osm_tipo":"node","tipo_lugar":"neighbourhood"},"geometry":{"type":"Point","coordinates":[-46.45285,-23.8052307]}},{"type":"Feature","properties":{"nome":"Jardim Icaraí","osm_id":3161256676,"osm_tipo":"node","tipo_lugar":"neighbourhood"},"geometry":{"type":"Point","coordinates":[-46.5389091,-23.7839831]}},{"type":"Feature","properties":{"nome":"Vila Santa Rita de Cássia","osm_id":3175296430,"osm_tipo":"node","tipo_lugar":"neighbourhood"},"geometry":{"type":"Point","coordinates":[-46.5552363,-23.7175645]}},{"type":"Feature","properties":{"nome":"Vila Magnólia","osm_id":3175300423,"osm_tipo":"node","tipo_lugar":"neighbourhood"},"geometry":{"type":"Point","coordinates":[-46.5503279,-23.7169899]}},{"type":"Feature","properties":{"nome":"Parque Residencial Tiradentes","osm_id":3175676294,"osm_tipo":"node","tipo_lugar":"neighbourhood"},"geometry":{"type":"Point","coordinates":[-46.529312,-23.7221279]}},{"type":"Feature","properties":{"nome":"Jardim Brasília","osm_id":3252933033,"osm_tipo":"node","tipo_lugar":"neighbourhood"},"geometry":{"type":"Point","coordinates":[-46.5831932,-23.6994016]}},{"type":"Feature","properties":{"nome":"Jardim Aurora","osm_id":3252938733,"osm_tipo":"node","tipo_lugar":"neighbourhood"},"geometry":{"type":"Point","coordinates":[-46.5798137,-23.6970831]}},{"type":"Feature","properties":{"nome":"Jardim Vera Cruz","osm_id":3252938761,"osm_tipo":"node","tipo_lugar":"neighbourhood"},"geometry":{"type":"Point","coordinates":[-46.5795133,-23.6986648]}},{"type":"Feature","properties":{"nome":"Vila Olga","osm_id":3252939250,"osm_tipo":"node","tipo_lugar":"neighbourhood"},"geometry":{"type":"Point","coordinates":[-46.5808973,-23.6931435]}},{"type":"Feature","properties":{"nome":"Jardim Laura II","osm_id":3257535615,"osm_tipo":"node","tipo_lugar":"neighbourhood"},"geometry":{"type":"Point","coordinates":[-46.6094259,-23.7364821]}},{"type":"Feature","properties":{"nome":"Jardim Laura I","osm_id":3257535645,"osm_tipo":"node","tipo_lugar":"neighbourhood"},"geometry":{"type":"Point","coordinates":[-46.6075054,-23.738908]}},{"type":"Feature","properties":{"nome":"Jardim Casa Nova","osm_id":3257542540,"osm_tipo":"node","tipo_lugar":"neighbourhood"},"geometry":{"type":"Point","coordinates":[-46.6022134,-23.7384145]}},{"type":"Feature","properties":{"nome":"Jardim Anna Falletti","osm_id":3257543026,"osm_tipo":"node","tipo_lugar":"neighbourhood"},"geometry":{"type":"Point","coordinates":[-46.6066095,-23.7446974]}},{"type":"Feature","properties":{"nome":"Jardim Senhor do Bonfim","osm_id":3257567790,"osm_tipo":"node","tipo_lugar":"neighbourhood"},"geometry":{"type":"Point","coordinates":[-46.5995111,-23.7340698]}},{"type":"Feature","properties":{"nome":"Conjunto Habitacional Vila São Salvério","osm_id":3275033078,"osm_tipo":"node","tipo_lugar":"neighbourhood"},"geometry":{"type":"Point","coordinates":[-46.5640311,-23.702385]}},{"type":"Feature","properties":{"nome":"Imigrantes","osm_id":3306525475,"osm_tipo":"node","tipo_lugar":"suburb"},"geometry":{"type":"Point","coordinates":[-46.5556472,-23.9126486]}},{"type":"Feature","properties":{"nome":"Vila Nova Jupiter","osm_id":3358795000,"osm_tipo":"node","tipo_lugar":"neighbourhood"},"geometry":{"type":"Point","coordinates":[-46.5712207,-23.6968109]}},{"type":"Feature","properties":{"nome":"Vila Santa Encarnacion","osm_id":3358796926,"osm_tipo":"node","tipo_lugar":"neighbourhood"},"geometry":{"type":"Point","coordinates":[-46.5672237,-23.6891183]}},{"type":"Feature","properties":{"nome":"Jardim Gagliardi","osm_id":3358796927,"osm_tipo":"node","tipo_lugar":"neighbourhood"},"geometry":{"type":"Point","coordinates":[-46.5692359,-23.6931169]}},{"type":"Feature","properties":{"nome":"Parque Anchieta","osm_id":3387854363,"osm_tipo":"node","tipo_lugar":"neighbourhood"},"geometry":{"type":"Point","coordinates":[-46.5626844,-23.6799074]}},{"type":"Feature","properties":{"nome":"Jardim Hollywood","osm_id":3387860793,"osm_tipo":"node","tipo_lugar":"neighbourhood"},"geometry":{"type":"Point","coordinates":[-46.5653812,-23.6746786]}},{"type":"Feature","properties":{"nome":"Vila Tereza","osm_id":3387865097,"osm_tipo":"node","tipo_lugar":"neighbourhood"},"geometry":{"type":"Point","coordinates":[-46.5586697,-23.6759166]}},{"type":"Feature","properties":{"nome":"Jardim Paramount","osm_id":3387871945,"osm_tipo":"node","tipo_lugar":"neighbourhood"},"geometry":{"type":"Point","coordinates":[-46.5678161,-23.6731605]}},{"type":"Feature","properties":{"nome":"Jardim Copacabana","osm_id":3387878318,"osm_tipo":"node","tipo_lugar":"neighbourhood"},"geometry":{"type":"Point","coordinates":[-46.5619742,-23.6732784]}},{"type":"Feature","properties":{"nome":"Jardim América do Sul","osm_id":3402963865,"osm_tipo":"node","tipo_lugar":"neighbourhood"},"geometry":{"type":"Point","coordinates":[-46.6066332,-23.7422724]}},{"type":"Feature","properties":{"nome":"Vila Artuelia","osm_id":3407592659,"osm_tipo":"node","tipo_lugar":"neighbourhood"},"geometry":{"type":"Point","coordinates":[-46.576882,-23.7270583]}},{"type":"Feature","properties":{"nome":"Vila Simone","osm_id":3407594099,"osm_tipo":"node","tipo_lugar":"neighbourhood"},"geometry":{"type":"Point","coordinates":[-46.5727085,-23.724701]}},{"type":"Feature","properties":{"nome":"Jardim Lavinia","osm_id":3972557968,"osm_tipo":"node","tipo_lugar":"neighbourhood"},"geometry":{"type":"Point","coordinates":[-46.5606042,-23.7260533]}},{"type":"Feature","properties":{"nome":"Nova Carminha / Detroit","osm_id":3985327462,"osm_tipo":"node","tipo_lugar":"neighbourhood"},"geometry":{"type":"Point","coordinates":[-46.5741866,-23.7348946]}},{"type":"Feature","properties":{"nome":"Vila Areião","osm_id":3991510531,"osm_tipo":"node","tipo_lugar":"neighbourhood"},"geometry":{"type":"Point","coordinates":[-46.530397,-23.7580293]}},{"type":"Feature","properties":{"nome":"Chácara Inglesa","osm_id":4173626137,"osm_tipo":"node","tipo_lugar":"neighbourhood"},"geometry":{"type":"Point","coordinates":[-46.5615569,-23.6923843]}},{"type":"Feature","properties":{"nome":"Jardim Palermo","osm_id":4183785980,"osm_tipo":"node","tipo_lugar":"neighbourhood"},"geometry":{"type":"Point","coordinates":[-46.5347854,-23.7155208]}},{"type":"Feature","properties":{"nome":"Ferrazópolis","osm_id":4267969283,"osm_tipo":"node","tipo_lugar":"suburb"},"geometry":{"type":"Point","coordinates":[-46.5423279,-23.7264215]}},{"type":"Feature","properties":{"nome":"Bairro dos Casa","osm_id":4267969284,"osm_tipo":"node","tipo_lugar":"suburb"},"geometry":{"type":"Point","coordinates":[-46.5730532,-23.740333]}},{"type":"Feature","properties":{"nome":"Capivari","osm_id":4268015042,"osm_tipo":"node","tipo_lugar":"suburb"},"geometry":{"type":"Point","coordinates":[-46.5750629,-23.8617227]}},{"type":"Feature","properties":{"nome":"Santa Cruz","osm_id":4268015043,"osm_tipo":"node","tipo_lugar":"suburb"},"geometry":{"type":"Point","coordinates":[-46.5982506,-23.8433458]}},{"type":"Feature","properties":{"nome":"Taquacetuba","osm_id":4268015044,"osm_tipo":"node","tipo_lugar":"suburb"},"geometry":{"type":"Point","coordinates":[-46.604189,-23.8224981]}},{"type":"Feature","properties":{"nome":"Balneária","osm_id":4268015045,"osm_tipo":"node","tipo_lugar":"suburb"},"geometry":{"type":"Point","coordinates":[-46.5429866,-23.7699954]}},{"type":"Feature","properties":{"nome":"Botujuru","osm_id":4268015046,"osm_tipo":"node","tipo_lugar":"suburb"},"geometry":{"type":"Point","coordinates":[-46.54703,-23.7562997]}},{"type":"Feature","properties":{"nome":"Montanhão","osm_id":4268015047,"osm_tipo":"node","tipo_lugar":"suburb"},"geometry":{"type":"Point","coordinates":[-46.5257824,-23.7403331]}},{"type":"Feature","properties":{"nome":"Vila Gonçalves","osm_id":4289624942,"osm_tipo":"node","tipo_lugar":"neighbourhood"},"geometry":{"type":"Point","coordinates":[-46.5571732,-23.7125812]}},{"type":"Feature","properties":{"nome":"Alves Dias","osm_id":4325302584,"osm_tipo":"node","tipo_lugar":"suburb"},"geometry":{"type":"Point","coordinates":[-46.5846942,-23.7203103]}},{"type":"Feature","properties":{"nome":"Jardim da Represa","osm_id":4340508910,"osm_tipo":"node","tipo_lugar":"suburb"},"geometry":{"type":"Point","coordinates":[-46.5982772,-23.7752627]}},{"type":"Feature","properties":{"nome":"Zanzalá","osm_id":4350325538,"osm_tipo":"node","tipo_lugar":"suburb"},"geometry":{"type":"Point","coordinates":[-46.4641592,-23.8146193]}},{"type":"Feature","properties":{"nome":"Parque Esmeralda","osm_id":4498290189,"osm_tipo":"node","tipo_lugar":"suburb"},"geometry":{"type":"Point","coordinates":[-46.5949451,-23.7437254]}},{"type":"Feature","properties":{"nome":"Jardim Skaf","osm_id":4541340359,"osm_tipo":"node","tipo_lugar":"neighbourhood"},"geometry":{"type":"Point","coordinates":[-46.5845009,-23.7558529]}},{"type":"Feature","properties":{"nome":"Jardim do Lago","osm_id":4559374732,"osm_tipo":"node","tipo_lugar":"neighbourhood"},"geometry":{"type":"Point","coordinates":[-46.5783446,-23.7390866]}},{"type":"Feature","properties":{"nome":"Vila Cruzeiro","osm_id":4559379900,"osm_tipo":"node","tipo_lugar":"neighbourhood"},"geometry":{"type":"Point","coordinates":[-46.5723555,-23.7308075]}},{"type":"Feature","properties":{"nome":"Jardim Petroni","osm_id":4686151162,"osm_tipo":"node","tipo_lugar":"neighbourhood"},"geometry":{"type":"Point","coordinates":[-46.5299259,-23.7066011]}},{"type":"Feature","properties":{"nome":"Jardim Ipê","osm_id":5560359886,"osm_tipo":"node","tipo_lugar":"suburb"},"geometry":{"type":"Point","coordinates":[-46.5762446,-23.7419278]}},{"type":"Feature","properties":{"nome":"Jardim Silvestre","osm_id":5585469060,"osm_tipo":"node","tipo_lugar":"neighbourhood"},"geometry":{"type":"Point","coordinates":[-46.5606886,-23.6748501]}},{"type":"Feature","properties":{"nome":"Jardim Nossa Senhora de Fátima","osm_id":5780566270,"osm_tipo":"node","tipo_lugar":"neighbourhood"},"geometry":{"type":"Point","coordinates":[-46.5646974,-23.7427271]}},{"type":"Feature","properties":{"nome":"Alto da Serra","osm_id":7590432889,"osm_tipo":"node","tipo_lugar":"suburb"},"geometry":{"type":"Point","coordinates":[-46.4661836,-23.8522039]}},{"type":"Feature","properties":{"nome":"D.E.R.","osm_id":9604291265,"osm_tipo":"node","tipo_lugar":"neighbourhood"},"geometry":{"type":"Point","coordinates":[-46.5596768,-23.7037568]}},{"type":"Feature","properties":{"nome":"Jardim das Américas","osm_id":9837396072,"osm_tipo":"node","tipo_lugar":"neighbourhood"},"geometry":{"type":"Point","coordinates":[-46.5565092,-23.6974528]}},{"type":"Feature","properties":{"nome":"Vila Helena","osm_id":9839906639,"osm_tipo":"node","tipo_lugar":"neighbourhood"},"geometry":{"type":"Point","coordinates":[-46.5702092,-23.653869]}},{"type":"Feature","properties":{"nome":"Parque São Diogo","osm_id":9900803142,"osm_tipo":"node","tipo_lugar":"neighbourhood"},"geometry":{"type":"Point","coordinates":[-46.5613554,-23.681507]}},{"type":"Feature","properties":{"nome":"Varginha","osm_id":9908399118,"osm_tipo":"node","tipo_lugar":"suburb"},"geometry":{"type":"Point","coordinates":[-46.5055164,-23.7926784]}},{"type":"Feature","properties":{"nome":"Independência","osm_id":10014624405,"osm_tipo":"node","tipo_lugar":"suburb"},"geometry":{"type":"Point","coordinates":[-46.5835218,-23.7031827]}},{"type":"Feature","properties":{"nome":"Centro","osm_id":10821048368,"osm_tipo":"node","tipo_lugar":"suburb"},"geometry":{"type":"Point","coordinates":[-46.5504348,-23.7096982]}},{"type":"Feature","properties":{"nome":"Vila Maria Adelaide","osm_id":11041771745,"osm_tipo":"node","tipo_lugar":"neighbourhood"},"geometry":{"type":"Point","coordinates":[-46.5596561,-23.6937493]}},{"type":"Feature","properties":{"nome":"Vila Daisy","osm_id":11041807176,"osm_tipo":"node","tipo_lugar":"neighbourhood"},"geometry":{"type":"Point","coordinates":[-46.5591557,-23.6827591]}},{"type":"Feature","properties":{"nome":"Vila Margarida","osm_id":11041807177,"osm_tipo":"node","tipo_lugar":"neighbourhood"},"geometry":{"type":"Point","coordinates":[-46.5576866,-23.6860015]}},{"type":"Feature","properties":{"nome":"Vila Anita","osm_id":11041807178,"osm_tipo":"node","tipo_lugar":"neighbourhood"},"geometry":{"type":"Point","coordinates":[-46.5596168,-23.7006199]}},{"type":"Feature","properties":{"nome":"Vila Dusi","osm_id":11041807179,"osm_tipo":"node","tipo_lugar":"neighbourhood"},"geometry":{"type":"Point","coordinates":[-46.5563041,-23.7064466]}},{"type":"Feature","properties":{"nome":"Vila Lusitânia","osm_id":11041807180,"osm_tipo":"node","tipo_lugar":"neighbourhood"},"geometry":{"type":"Point","coordinates":[-46.5551291,-23.7105102]}},{"type":"Feature","properties":{"nome":"Vila Franchini","osm_id":11041807181,"osm_tipo":"node","tipo_lugar":"neighbourhood"},"geometry":{"type":"Point","coordinates":[-46.5572455,-23.7144181]}},{"type":"Feature","properties":{"nome":"Jardim Maria Cecília","osm_id":11041807182,"osm_tipo":"node","tipo_lugar":"neighbourhood"},"geometry":{"type":"Point","coordinates":[-46.5577587,-23.7159109]}},{"type":"Feature","properties":{"nome":"Parque Terra Nova II","osm_id":11115143574,"osm_tipo":"node","tipo_lugar":"neighbourhood"},"geometry":{"type":"Point","coordinates":[-46.5497146,-23.7477604]}},{"type":"Feature","properties":{"nome":"Parque Terra Nova I","osm_id":11115143575,"osm_tipo":"node","tipo_lugar":"neighbourhood"},"geometry":{"type":"Point","coordinates":[-46.5525811,-23.742128]}},{"type":"Feature","properties":{"nome":"Jardim Orlandina","osm_id":11115172778,"osm_tipo":"node","tipo_lugar":"neighbourhood"},"geometry":{"type":"Point","coordinates":[-46.5655291,-23.6527084]}},{"type":"Feature","properties":{"nome":"Vila Dourados","osm_id":11115172779,"osm_tipo":"node","tipo_lugar":"neighbourhood"},"geometry":{"type":"Point","coordinates":[-46.5638915,-23.6587319]}},{"type":"Feature","properties":{"nome":"Jardim Fada","osm_id":11115172780,"osm_tipo":"node","tipo_lugar":"neighbourhood"},"geometry":{"type":"Point","coordinates":[-46.5730918,-23.6592074]}},{"type":"Feature","properties":{"nome":"Parque Santo Antônio","osm_id":11115172781,"osm_tipo":"node","tipo_lugar":"neighbourhood"},"geometry":{"type":"Point","coordinates":[-46.577758,-23.6584826]}},{"type":"Feature","properties":{"nome":"Riacho Grande","osm_id":13524919976,"osm_tipo":"node","tipo_lugar":"suburb"},"geometry":{"type":"Point","coordinates":[-46.5280964,-23.7811342]}},{"type":"Feature","properties":{"nome":"Vila Nova Batistini","osm_id":253716624,"osm_tipo":"way","tipo_lugar":"neighbourhood"},"geometry":{"type":"Polygon","coordinates":[[[-46.5831362,-23.7536318],[-46.585363,-23.751755],[-46.5794892,-23.7571362],[-46.581283,-23.751599],[-46.5831362,-23.7536318]]]}},{"type":"Feature","properties":{"nome":"Vila São Pedro","osm_id":253719290,"osm_tipo":"way","tipo_lugar":"neighbourhood"},"geometry":{"type":"Polygon","coordinates":[[[-46.5980794,-23.6530478],[-46.5965521,-23.6528155],[-46.596157,-23.651629],[-46.5980794,-23.6530478]]]}},{"type":"Feature","properties":{"nome":"Paulicéia","osm_id":4082328,"osm_tipo":"relation","tipo_lugar":"suburb"},"geometry":{"type":"MultiPolygon","coordinates":[[[[-46.59125,-23.6772552],[-46.588165,-23.6763209],[-46.5852311,-23.6733936],[-46.59125,-23.6772552]]],[[[-46.59125,-23.6772552],[-46.5913617,-23.6771065],[-46.6002396,-23.6707881],[-46.59125,-23.6772552]]],[[[-46.5992596,-23.6688009],[-46.5982161,-23.6671732],[-46.5968829,-23.6641661],[-46.5962751,-23.6634589],[-46.5992596,-23.6688009]]],[[[-46.5962751,-23.6634589],[-46.5925306,-23.6619625],[-46.5871577,-23.6580084],[-46.5962751,-23.6634589]]],[[[-46.5871577,-23.6580084],[-46.586454,-23.657381],[-46.5858187,-23.656534],[-46.5871577,-23.6580084]]],[[[-46.5858187,-23.656534],[-46.5848814,-23.6551735],[-46.5847221,-23.654576],[-46.5858187,-23.656534]]],[[[-46.5825646,-23.6578547],[-46.5842555,-23.6553949],[-46.5847221,-23.654576],[-46.5825646,-23.6578547]]],[[[-46.5768707,-23.6575091],[-46.5756206,-23.6605279],[-46.5708626,-23.6722323],[-46.5768707,-23.6575091]]],[[[-46.5775744,-23.6723553],[-46.5759624,-23.6673112],[-46.5783598,-23.6717671],[-46.5850004,-23.6732929],[-46.5775744,-23.6723553]]]]}},{"type":"Feature","properties":{"nome":"Rudge Ramos","osm_id":4082329,"osm_tipo":"relation","tipo_lugar":"suburb"},"geometry":{"type":"MultiPolygon","coordinates":[[[[-46.5532749,-23.6672025],[-46.5538066,-23.666171],[-46.5578282,-23.6606568],[-46.5532749,-23.6672025]]],[[[-46.5531734,-23.6674929],[-46.5532345,-23.6673062],[-46.5532749,-23.6672025],[-46.5531734,-23.6674929]]],[[[-46.5531924,-23.6690981],[-46.5531236,-23.6683772],[-46.5531734,-23.6674929],[-46.5531924,-23.6690981]]],[[[-46.5531924,-23.6690981],[-46.5679124,-23.671556],[-46.5692732,-23.6750604],[-46.5531924,-23.6690981]]],[[[-46.5768707,-23.6575091],[-46.5756206,-23.6605279],[-46.5708626,-23.6722323],[-46.5768707,-23.6575091]]],[[[-46.5846853,-23.644417],[-46.5832856,-23.645934],[-46.5768707,-23.6575091],[-46.5846853,-23.644417]]],[[[-46.5846853,-23.644417],[-46.5844614,-23.6439826],[-46.5839248,-23.6423556],[-46.5834582,-23.6414111],[-46.5833999,-23.6411371],[-46.5846853,-23.644417]]],[[[-46.5799775,-23.6440071],[-46.5828708,-23.6417571],[-46.5833999,-23.6411371],[-46.5799775,-23.6440071]]],[[[-46.5676904,-23.6500818],[-46.5737723,-23.6505],[-46.5799775,-23.6440071],[-46.5676904,-23.6500818]]],[[[-46.5673015,-23.6501825],[-46.5673915,-23.6501594],[-46.5676904,-23.6500818],[-46.5673015,-23.6501825]]],[[[-46.561211,-23.6553983],[-46.5643537,-23.6515086],[-46.5673015,-23.6501825],[-46.561211,-23.6553983]]],[[[-46.5578282,-23.6606568],[-46.5597386,-23.657987],[-46.561211,-23.6553983],[-46.5578282,-23.6606568]]]]}},{"type":"Feature","properties":{"nome":"Taboão","osm_id":4082330,"osm_tipo":"relation","tipo_lugar":"suburb"},"geometry":{"type":"MultiPolygon","coordinates":[[[[-46.6061844,-23.6676008],[-46.6016664,-23.6627781],[-46.5972157,-23.6633513],[-46.6061844,-23.6676008]]],[[[-46.6085281,-23.6688888],[-46.6069443,-23.6676641],[-46.6064589,-23.6676544],[-46.6085281,-23.6688888]]],[[[-46.6087278,-23.6692293],[-46.6085419,-23.6690926],[-46.6085281,-23.6688888],[-46.6087278,-23.6692293]]],[[[-46.6090068,-23.6694109],[-46.612771,-23.6669301],[-46.6130155,-23.6635907],[-46.6165949,-23.658829],[-46.6090068,-23.6694109]]],[[[-46.6165362,-23.6580298],[-46.6152643,-23.6587689],[-46.6150085,-23.6597419],[-46.6141433,-23.660229],[-46.6165362,-23.6580298]]],[[[-46.6139734,-23.6600662],[-46.6117768,-23.6589127],[-46.6090516,-23.6579193],[-46.6139734,-23.6600662]]],[[[-46.6088637,-23.6578642],[-46.607266,-23.6566657],[-46.6026602,-23.6553472],[-46.6088637,-23.6578642]]],[[[-46.6021079,-23.6543316],[-46.5958936,-23.6523102],[-46.5846295,-23.6451928],[-46.6021079,-23.6543316]]],[[[-46.5846295,-23.6451928],[-46.5849499,-23.6448671],[-46.5846853,-23.644417],[-46.5846295,-23.6451928]]],[[[-46.5846853,-23.644417],[-46.5832856,-23.645934],[-46.5768707,-23.6575091],[-46.5846853,-23.644417]]],[[[-46.5825646,-23.6578547],[-46.5842555,-23.6553949],[-46.5847221,-23.654576],[-46.5825646,-23.6578547]]],[[[-46.5858187,-23.656534],[-46.5848814,-23.6551735],[-46.5847221,-23.654576],[-46.5858187,-23.656534]]],[[[-46.5871577,-23.6580084],[-46.586454,-23.657381],[-46.5858187,-23.656534],[-46.5871577,-23.6580084]]],[[[-46.5962751,-23.6634589],[-46.5925306,-23.6619625],[-46.5871577,-23.6580084],[-46.5962751,-23.6634589]]]]}},{"type":"Feature","properties":{"nome":"Assunção","osm_id":4133967,"osm_tipo":"relation","tipo_lugar":"suburb"},"geometry":{"type":"MultiPolygon","coordinates":[[[[-46.5613817,-23.7112569],[-46.5722028,-23.7116372],[-46.5739809,-23.7116619],[-46.5613817,-23.7112569]]],[[[-46.5739809,-23.7116619],[-46.5858472,-23.7117927],[-46.5863617,-23.7115388],[-46.5739809,-23.7116619]]],[[[-46.5859468,-23.7122936],[-46.5860681,-23.7120171],[-46.5863617,-23.7115388],[-46.5859468,-23.7122936]]],[[[-46.5857404,-23.7135464],[-46.5858249,-23.7133694],[-46.5859468,-23.7122936],[-46.5857404,-23.7135464]]],[[[-46.5778248,-23.7286738],[-46.5815815,-23.7175182],[-46.5839486,-23.7150088],[-46.5778248,-23.7286738]]],[[[-46.560628,-23.7263254],[-46.5693944,-23.7266866],[-46.5702884,-23.7288959],[-46.5772675,-23.7281271],[-46.560628,-23.7263254]]],[[[-46.560628,-23.7263254],[-46.5536662,-23.7235738],[-46.5519333,-23.7244536],[-46.560628,-23.7263254]]],[[[-46.5613817,-23.7112569],[-46.560781,-23.7155736],[-46.5519399,-23.7243723],[-46.5613817,-23.7112569]]],[[[-46.5839486,-23.7150088],[-46.5856381,-23.7136644],[-46.5857404,-23.7135464],[-46.5839486,-23.7150088]]]]}},{"type":"Feature","properties":{"nome":"Batistini","osm_id":4133968,"osm_tipo":"relation","tipo_lugar":"suburb"},"geometry":{"type":"MultiPolygon","coordinates":[[[[-46.5749249,-23.7476195],[-46.5708284,-23.7508342],[-46.5607276,-23.7496271],[-46.5749249,-23.7476195]]],[[[-46.5600734,-23.7493589],[-46.5596352,-23.7501178],[-46.5618144,-23.75618],[-46.5600734,-23.7493589]]],[[[-46.5620906,-23.7566002],[-46.5626743,-23.7578685],[-46.5649268,-23.7572532],[-46.562291,-23.7606208],[-46.5639303,-23.7661253],[-46.5684175,-23.7644254],[-46.5695261,-23.7661847],[-46.5648501,-23.7675986],[-46.5645553,-23.7697679],[-46.5665896,-23.7696168],[-46.5658113,-23.7724067],[-46.5668726,-23.7732701],[-46.5757705,-23.769115],[-46.5743317,-23.7714677],[-46.5693846,-23.7738178],[-46.5689158,-23.7760518],[-46.5709589,-23.7771094],[-46.5728075,-23.7756633],[-46.5756054,-23.7784368],[-46.5777782,-23.7735993],[-46.5777045,-23.7780726],[-46.5808032,-23.7790439],[-46.582009,-23.7771715],[-46.5856383,-23.7808623],[-46.5863547,-23.7769853],[-46.5837632,-23.774522],[-46.5856177,-23.7732404],[-46.5885188,-23.7760761],[-46.5890878,-23.7806842],[-46.5929235,-23.7761057],[-46.5941853,-23.7777165],[-46.5934158,-23.7804306],[-46.5901727,-23.78366],[-46.5931446,-23.7866438],[-46.6012656,-23.7878611],[-46.6009236,-23.7902054],[-46.602271,-23.7903592],[-46.6025216,-23.7882981],[-46.6045765,-23.7891479],[-46.6057116,-23.7880094],[-46.6071503,-23.7913978],[-46.6108946,-23.7866066],[-46.6094883,-23.7840167],[-46.608424,-23.7838386],[-46.60848,-23.786121],[-46.6073773,-23.7855868],[-46.6064457,-23.7823736],[-46.6011329,-23.779352],[-46.6026808,-23.7780434],[-46.6045234,-23.7798214],[-46.6047033,-23.7768428],[-46.6069528,-23.7792063],[-46.6082353,-23.7769157],[-46.6085036,-23.7807927],[-46.6112513,-23.7764516],[-46.6114548,-23.7783456],[-46.6149691,-23.7793223],[-46.6163793,-23.776396],[-46.6194976,-23.7763707],[-46.6161942,-23.773578],[-46.6241847,-23.7724356],[-46.625052,-23.7735345],[-46.6231173,-23.7749692],[-46.6255606,-23.7732827],[-46.622642,-23.7690167],[-46.6168131,-23.7655519],[-46.6152204,-23.7693754],[-46.6149686,-23.7663082],[-46.6106444,-23.7666988],[-46.6118598,-23.7681467],[-46.6094998,-23.768139],[-46.6090912,-23.7713901],[-46.6075402,-23.7692991],[-46.6039067,-23.7696353],[-46.6075752,-23.7681172],[-46.606391,-23.7665756],[-46.599276,-23.7664702],[-46.5952581,-23.7637243],[-46.5620906,-23.7566002]]],[[[-46.5952581,-23.7637243],[-46.5912211,-23.7634238],[-46.5899186,-23.7654254],[-46.5871429,-23.7639028],[-46.5855856,-23.7517405],[-46.5819242,-23.7487663],[-46.5952581,-23.7637243]]],[[[-46.5810285,-23.7487157],[-46.5810162,-23.748715],[-46.5800727,-23.7486961],[-46.5810285,-23.7487157]]],[[[-46.5800727,-23.7486961],[-46.578289,-23.7487258],[-46.5749249,-23.7476195],[-46.5800727,-23.7486961]]]]}},{"type":"Feature","properties":{"nome":"Centro","osm_id":4133969,"osm_tipo":"relation","tipo_lugar":"suburb"},"geometry":{"type":"MultiPolygon","coordinates":[[[[-46.5648467,-23.6896777],[-46.5615153,-23.6995875],[-46.5613817,-23.7112569],[-46.5648467,-23.6896777]]],[[[-46.5664944,-23.6848323],[-46.5661283,-23.6859066],[-46.5648467,-23.6896777],[-46.5664944,-23.6848323]]],[[[-46.5538837,-23.68307],[-46.5577432,-23.682972],[-46.5591274,-23.6854437],[-46.5655295,-23.6849232],[-46.5538837,-23.68307]]],[[[-46.5509896,-23.6845304],[-46.5531088,-23.6837884],[-46.5538837,-23.68307],[-46.5509896,-23.6845304]]],[[[-46.5469715,-23.6842616],[-46.5500272,-23.6847594],[-46.5509896,-23.6845304],[-46.5469715,-23.6842616]]],[[[-46.547152,-23.6845419],[-46.547105,-23.6844612],[-46.5470448,-23.6843704],[-46.547152,-23.6845419]]],[[[-46.548999,-23.6931914],[-46.5483033,-23.6912174],[-46.547152,-23.6845419],[-46.548999,-23.6931914]]],[[[-46.5494902,-23.6938669],[-46.5431269,-23.6971967],[-46.5471567,-23.6994046],[-46.5494902,-23.6938669]]],[[[-46.5475093,-23.7002436],[-46.5514094,-23.6990406],[-46.551026,-23.7054948],[-46.5443925,-23.7108443],[-46.5475093,-23.7002436]]],[[[-46.5443925,-23.7108443],[-46.5420673,-23.7143893],[-46.541084,-23.7201766],[-46.5394226,-23.7208729],[-46.5443925,-23.7108443]]],[[[-46.551893,-23.7244176],[-46.5491556,-23.7224733],[-46.5385433,-23.721512],[-46.551893,-23.7244176]]],[[[-46.5613817,-23.7112569],[-46.560781,-23.7155736],[-46.5519399,-23.7243723],[-46.5613817,-23.7112569]]]]}},{"type":"Feature","properties":{"nome":"Bairro dos Alvarenga","osm_id":4133970,"osm_tipo":"relation","tipo_lugar":"suburb"},"geometry":{"type":"MultiPolygon","coordinates":[[[[-46.5952581,-23.7637243],[-46.5947955,-23.7625171],[-46.6019132,-23.7630995],[-46.5999303,-23.7579808],[-46.5955324,-23.7551888],[-46.5963458,-23.7527689],[-46.6015445,-23.7573759],[-46.6021674,-23.7562823],[-46.6038515,-23.7573003],[-46.6026122,-23.7592314],[-46.6051862,-23.7637917],[-46.6151895,-23.761244],[-46.6095904,-23.7591675],[-46.6144777,-23.7589522],[-46.6144777,-23.7567302],[-46.6122597,-23.7548456],[-46.6084655,-23.7559508],[-46.6107217,-23.7526875],[-46.6073025,-23.7499825],[-46.604862,-23.7503548],[-46.607061,-23.7486155],[-46.603019,-23.7465678],[-46.6029872,-23.7447063],[-46.6000574,-23.7445783],[-46.6010947,-23.743109],[-46.607631,-23.745886],[-46.6111455,-23.7424479],[-46.6104612,-23.7469533],[-46.6139292,-23.750883],[-46.6180177,-23.7498026],[-46.6185368,-23.751075],[-46.6159756,-23.7533203],[-46.6182191,-23.7540765],[-46.6181998,-23.7574415],[-46.6202782,-23.7601726],[-46.6242185,-23.755618],[-46.6225661,-23.7605972],[-46.6246316,-23.7612196],[-46.6247841,-23.7635171],[-46.6258582,-23.7638545],[-46.6276695,-23.7605216],[-46.6277648,-23.7563568],[-46.6290994,-23.7584625],[-46.6309298,-23.7568396],[-46.6303451,-23.7594397],[-46.6318132,-23.7600446],[-46.6327731,-23.7557941],[-46.6405386,-23.7557078],[-46.6413025,-23.7548029],[-46.6373793,-23.7507678],[-46.6335325,-23.7521252],[-46.6311552,-23.7511997],[-46.6405745,-23.7488468],[-46.6406509,-23.7469053],[-46.6384084,-23.7460168],[-46.640946,-23.7444802],[-46.6405302,-23.7412197],[-46.6319472,-23.7392432],[-46.6418096,-23.7379787],[-46.6455272,-23.7346395],[-46.6421261,-23.7354326],[-46.6425151,-23.7343375],[-46.6471097,-23.7322455],[-46.5952581,-23.7637243]]],[[[-46.6474196,-23.7318492],[-46.639926,-23.7318384],[-46.6344275,-23.7362082],[-46.629596,-23.7351567],[-46.6193203,-23.7391266],[-46.6117394,-23.7375236],[-46.6097521,-23.7339637],[-46.6054991,-23.7310917],[-46.6474196,-23.7318492]]],[[[-46.6054782,-23.7310604],[-46.5993229,-23.7412542],[-46.5982308,-23.7394439],[-46.5920968,-23.739097],[-46.5909836,-23.7367063],[-46.5923244,-23.7323207],[-46.5900258,-23.7357887],[-46.5858972,-23.7349927],[-46.6054782,-23.7310604]]],[[[-46.5852429,-23.7348256],[-46.583835,-23.7352666],[-46.581602,-23.7354829],[-46.5852429,-23.7348256]]],[[[-46.5750357,-23.7474454],[-46.5807342,-23.7405451],[-46.5814895,-23.7362657],[-46.5750357,-23.7474454]]],[[[-46.5800727,-23.7486961],[-46.578289,-23.7487258],[-46.5749249,-23.7476195],[-46.5800727,-23.7486961]]],[[[-46.5952581,-23.7637243],[-46.5912211,-23.7634238],[-46.5899186,-23.7654254],[-46.5871429,-23.7639028],[-46.5855856,-23.7517405],[-46.5819242,-23.7487663],[-46.5952581,-23.7637243]]]]}},{"type":"Feature","properties":{"nome":"Anchieta","osm_id":4573217,"osm_tipo":"relation","tipo_lugar":"suburb"},"geometry":{"type":"MultiPolygon","coordinates":[[[[-46.5538837,-23.68307],[-46.5577432,-23.682972],[-46.5591274,-23.6854437],[-46.5655295,-23.6849232],[-46.5538837,-23.68307]]],[[[-46.5538837,-23.68307],[-46.5547475,-23.6796315],[-46.5532779,-23.6767033],[-46.553321,-23.6696975],[-46.5538837,-23.68307]]],[[[-46.5531924,-23.6690981],[-46.5679124,-23.671556],[-46.5692732,-23.6750604],[-46.5531924,-23.6690981]]]]}},{"type":"Feature","properties":{"nome":"Baeta Neves","osm_id":4573218,"osm_tipo":"relation","tipo_lugar":"suburb"},"geometry":{"type":"MultiPolygon","coordinates":[[[[-46.5185339,-23.7042097],[-46.5199649,-23.7018983],[-46.5201031,-23.7011824],[-46.5185339,-23.7042097]]],[[[-46.5201916,-23.701054],[-46.5221515,-23.7024644],[-46.5236493,-23.7013538],[-46.5201916,-23.701054]]],[[[-46.5237549,-23.7013223],[-46.5282128,-23.7033083],[-46.5298124,-23.7019222],[-46.5237549,-23.7013223]]],[[[-46.5302271,-23.7015512],[-46.5320621,-23.7009922],[-46.5330192,-23.7004922],[-46.5302271,-23.7015512]]],[[[-46.5330192,-23.7004922],[-46.5343083,-23.6978163],[-46.5352763,-23.6970897],[-46.5330192,-23.7004922]]],[[[-46.5355563,-23.6969663],[-46.5370077,-23.6959498],[-46.5374474,-23.6913312],[-46.5392501,-23.6887975],[-46.5355563,-23.6969663]]],[[[-46.5392206,-23.6884253],[-46.539552,-23.6874549],[-46.5406414,-23.68651],[-46.5392206,-23.6884253]]],[[[-46.5406414,-23.68651],[-46.5410565,-23.6860981],[-46.5415273,-23.6857432],[-46.5406414,-23.68651]]],[[[-46.5415273,-23.6857432],[-46.5447249,-23.683835],[-46.5469715,-23.6842616],[-46.5415273,-23.6857432]]],[[[-46.547152,-23.6845419],[-46.547105,-23.6844612],[-46.5470448,-23.6843704],[-46.547152,-23.6845419]]],[[[-46.548999,-23.6931914],[-46.5483033,-23.6912174],[-46.547152,-23.6845419],[-46.548999,-23.6931914]]],[[[-46.5494902,-23.6938669],[-46.5431269,-23.6971967],[-46.5471567,-23.6994046],[-46.5494902,-23.6938669]]],[[[-46.5332781,-23.7070249],[-46.5398595,-23.7035639],[-46.5475093,-23.7002436],[-46.5332781,-23.7070249]]],[[[-46.5175772,-23.7090428],[-46.5240389,-23.7110169],[-46.5264406,-23.7076783],[-46.5324891,-23.7065072],[-46.5175772,-23.7090428]]],[[[-46.5175772,-23.7090428],[-46.5165541,-23.7059745],[-46.5184462,-23.7042531],[-46.5175772,-23.7090428]]]]}},{"type":"Feature","properties":{"nome":"Bairro dos Casa","osm_id":4573219,"osm_tipo":"relation","tipo_lugar":"suburb"},"geometry":{"type":"MultiPolygon","coordinates":[[[[-46.5750357,-23.7474454],[-46.5674303,-23.739471],[-46.566053,-23.7338285],[-46.5587218,-23.7326373],[-46.5606256,-23.7263609],[-46.5750357,-23.7474454]]],[[[-46.5750357,-23.7474454],[-46.5807342,-23.7405451],[-46.5814895,-23.7362657],[-46.5750357,-23.7474454]]],[[[-46.581602,-23.7354829],[-46.5821971,-23.7343601],[-46.5780513,-23.7293755],[-46.581602,-23.7354829]]],[[[-46.560628,-23.7263254],[-46.5693944,-23.7266866],[-46.5702884,-23.7288959],[-46.5772675,-23.7281271],[-46.560628,-23.7263254]]]]}},{"type":"Feature","properties":{"nome":"Bairro dos Finco","osm_id":4573220,"osm_tipo":"relation","tipo_lugar":"suburb"},"geometry":{"type":"MultiPolygon","coordinates":[[[[-46.5317248,-23.7972162],[-46.531538,-23.7959502],[-46.5289735,-23.796757],[-46.5276826,-23.7948165],[-46.5329942,-23.7921004],[-46.5290719,-23.7878896],[-46.5318201,-23.7855692],[-46.5317248,-23.7972162]]],[[[-46.5322092,-23.7991009],[-46.5314287,-23.7983586],[-46.5317144,-23.7974014],[-46.5322092,-23.7991009]]],[[[-46.5322092,-23.7991009],[-46.5324104,-23.8016176],[-46.5341511,-23.8012814],[-46.5342879,-23.805911],[-46.5372907,-23.8011673],[-46.5369836,-23.8049048],[-46.5385956,-23.8055797],[-46.5396483,-23.8009145],[-46.5415996,-23.8048925],[-46.543453,-23.8026299],[-46.5483561,-23.8056459],[-46.545808,-23.8001488],[-46.5470284,-23.8023035],[-46.5492439,-23.8025465],[-46.551387,-23.7990985],[-46.5521005,-23.8014225],[-46.5544474,-23.7984911],[-46.5534952,-23.802917],[-46.5573522,-23.8014201],[-46.5577278,-23.7977045],[-46.5598038,-23.7957412],[-46.5573362,-23.7963989],[-46.5546888,-23.7948724],[-46.561228,-23.7931569],[-46.5613796,-23.7910978],[-46.5682581,-23.7900719],[-46.5688987,-23.7859893],[-46.5671218,-23.7853727],[-46.5655115,-23.787431],[-46.5638672,-23.784676],[-46.5570653,-23.7861351],[-46.5567622,-23.7893896],[-46.5534738,-23.7923053],[-46.5535516,-23.7862578],[-46.5514465,-23.7864524],[-46.5507674,-23.7885551],[-46.5490322,-23.7851788],[-46.5462962,-23.7878873],[-46.5466016,-23.7854131],[-46.542229,-23.7943483],[-46.5418679,-23.7903639],[-46.5384293,-23.7905505],[-46.5430775,-23.7861155],[-46.5404999,-23.7809121],[-46.5338879,-23.785946],[-46.5318201,-23.7855692],[-46.5322092,-23.7991009]]]]}},{"type":"Feature","properties":{"nome":"Botujuru","osm_id":4573221,"osm_tipo":"relation","tipo_lugar":"suburb"},"geometry":{"type":"MultiPolygon","coordinates":[[[[-46.5341011,-23.7647132],[-46.5355749,-23.7658909],[-46.5408826,-23.764977],[-46.5341011,-23.7647132]]],[[[-46.5406367,-23.7427048],[-46.5341091,-23.7541518],[-46.5341011,-23.7647132],[-46.5406367,-23.7427048]]],[[[-46.5406367,-23.7427048],[-46.5429361,-23.74524],[-46.5536311,-23.7462891],[-46.5600734,-23.7493589],[-46.5406367,-23.7427048]]],[[[-46.5600734,-23.7493589],[-46.5596352,-23.7501178],[-46.5618144,-23.75618],[-46.5600734,-23.7493589]]],[[[-46.5620906,-23.7566002],[-46.5615865,-23.760347],[-46.5597131,-23.7594506],[-46.5608084,-23.7624684],[-46.5587718,-23.7620507],[-46.5584865,-23.7644629],[-46.5614359,-23.765695],[-46.5611164,-23.769193],[-46.5636551,-23.7728006],[-46.5625711,-23.7752439],[-46.5593879,-23.7743146],[-46.5596446,-23.7718609],[-46.5569291,-23.7744086],[-46.5537915,-23.772242],[-46.5531184,-23.7645777],[-46.5501804,-23.7697256],[-46.5453028,-23.7644837],[-46.5420226,-23.7645046],[-46.5620906,-23.7566002]]]]}},{"type":"Feature","properties":{"nome":"Capivari","osm_id":4573222,"osm_tipo":"relation","tipo_lugar":"suburb"},"geometry":{"type":"MultiPolygon","coordinates":[[[[-46.5626174,-23.8782593],[-46.563752,-23.8783217],[-46.561952,-23.8765595],[-46.5645054,-23.8761902],[-46.561271,-23.8741192],[-46.5622205,-23.8698857],[-46.5639961,-23.8708129],[-46.5626174,-23.8782593]]],[[[-46.5649536,-23.8708031],[-46.5680268,-23.8685558],[-46.5678968,-23.8681035],[-46.5649536,-23.8708031]]],[[[-46.565593,-23.8605885],[-46.5575275,-23.8586211],[-46.5559662,-23.8613331],[-46.5607399,-23.8628583],[-46.5608445,-23.8651689],[-46.5634757,-23.864357],[-46.5649498,-23.8667636],[-46.5664423,-23.8648059],[-46.5677857,-23.8678236],[-46.565593,-23.8605885]]],[[[-46.565593,-23.8605885],[-46.5659392,-23.8594695],[-46.5589447,-23.8556287],[-46.5568009,-23.8564204],[-46.5541055,-23.8544241],[-46.5542485,-23.8523135],[-46.5556129,-23.8535104],[-46.5611935,-23.8504713],[-46.5515074,-23.8496842],[-46.5493145,-23.8464755],[-46.5532799,-23.8469465],[-46.5516342,-23.8450412],[-46.5528685,-23.8429719],[-46.550456,-23.844505],[-46.5464563,-23.8432804],[-46.5477853,-23.8398909],[-46.5436668,-23.8408231],[-46.5448856,-23.8401951],[-46.5431433,-23.8381774],[-46.5442591,-23.8353668],[-46.5424738,-23.8328466],[-46.5407143,-23.8331763],[-46.539135,-23.8289602],[-46.5369377,-23.8283792],[-46.5417501,-23.8278772],[-46.5442306,-23.829314],[-46.5489084,-23.8366627],[-46.5502216,-23.8354301],[-46.5461961,-23.8269115],[-46.5422565,-23.8258672],[-46.5447349,-23.8245442],[-46.5414068,-23.8241477],[-46.5430547,-23.8209206],[-46.5403682,-23.8229621],[-46.5427114,-23.8172223],[-46.5411493,-23.8176385],[-46.5407716,-23.8162643],[-46.5424282,-23.8123382],[-46.5413124,-23.8108227],[-46.543312,-23.8095249],[-46.5475694,-23.8088281],[-46.5460846,-23.8128486],[-46.5496637,-23.8093621],[-46.5520069,-23.8101002],[-46.5526597,-23.8127398],[-46.5494239,-23.8178045],[-46.5532176,-23.8140747],[-46.5551145,-23.8148992],[-46.5523936,-23.8190529],[-46.5559298,-23.8181892],[-46.5547454,-23.8221937],[-46.5567807,-23.8224984],[-46.5555005,-23.8245443],[-46.5580677,-23.8229553],[-46.565593,-23.8605885]]],[[[-46.5601696,-23.830652],[-46.5602817,-23.830716],[-46.5606996,-23.830986],[-46.5601696,-23.830652]]],[[[-46.5786086,-23.8383117],[-46.5710543,-23.8353912],[-46.5664449,-23.8364597],[-46.5612688,-23.8312942],[-46.5786086,-23.8383117]]],[[[-46.5827635,-23.8381611],[-46.580277,-23.8391287],[-46.5786086,-23.8383117],[-46.5827635,-23.8381611]]],[[[-46.5859866,-23.8371078],[-46.5834904,-23.8375089],[-46.5827635,-23.8381611],[-46.5859866,-23.8371078]]],[[[-46.5859866,-23.8371078],[-46.5874964,-23.8416184],[-46.5854096,-23.8435531],[-46.5886554,-23.8441561],[-46.588111,-23.8481816],[-46.5859866,-23.8371078]]],[[[-46.588111,-23.8481816],[-46.5855341,-23.8594931],[-46.5814679,-23.86287],[-46.5821261,-23.875198],[-46.5879019,-23.8771205],[-46.5961728,-23.8838806],[-46.604929,-23.8963437],[-46.5945787,-23.9021523],[-46.588111,-23.8481816]]],[[[-46.5945787,-23.9021523],[-46.591968,-23.898118],[-46.5825419,-23.9031028],[-46.574377,-23.8909399],[-46.542893,-23.8861729],[-46.5945787,-23.9021523]]],[[[-46.542893,-23.8861729],[-46.5414565,-23.8858995],[-46.5395805,-23.8842382],[-46.542893,-23.8861729]]],[[[-46.5395805,-23.8842382],[-46.540889,-23.8830582],[-46.5408248,-23.8823241],[-46.5395805,-23.8842382]]],[[[-46.5405294,-23.8821123],[-46.5421173,-23.8793262],[-46.5443604,-23.8793824],[-46.5451767,-23.8827353],[-46.5405294,-23.8821123]]],[[[-46.5451767,-23.8827353],[-46.5454084,-23.8861124],[-46.547243,-23.8821785],[-46.5463418,-23.8786811],[-46.5451767,-23.8827353]]],[[[-46.5463418,-23.8786811],[-46.5489623,-23.8766528],[-46.5474935,-23.8738609],[-46.5501911,-23.8731816],[-46.5490012,-23.8718308],[-46.550666,-23.8694078],[-46.5513843,-23.8737905],[-46.5463418,-23.8786811]]],[[[-46.5513587,-23.8744772],[-46.5535864,-23.8774327],[-46.5532579,-23.875207],[-46.5513587,-23.8744772]]],[[[-46.5530084,-23.8748752],[-46.5527992,-23.8687063],[-46.5536613,-23.8680322],[-46.553455,-23.8719338],[-46.5555096,-23.870651],[-46.5554237,-23.8672956],[-46.5575167,-23.8673254],[-46.5583418,-23.8694485],[-46.5563744,-23.8715756],[-46.5581879,-23.8722822],[-46.5561008,-23.8749175],[-46.557312,-23.8767975],[-46.5530084,-23.8748752]]],[[[-46.5571281,-23.8784573],[-46.5573174,-23.8785917],[-46.5626174,-23.8782593],[-46.5571281,-23.8784573]]]]}},{"type":"Feature","properties":{"nome":"Cooperativa","osm_id":4573223,"osm_tipo":"relation","tipo_lugar":"suburb"},"geometry":{"type":"MultiPolygon","coordinates":[[[[-46.5843134,-23.7337091],[-46.5846068,-23.7343105],[-46.5852429,-23.7348256],[-46.5843134,-23.7337091]]],[[[-46.6054782,-23.7310604],[-46.5993229,-23.7412542],[-46.5982308,-23.7394439],[-46.5920968,-23.739097],[-46.5909836,-23.7367063],[-46.5923244,-23.7323207],[-46.5900258,-23.7357887],[-46.5858972,-23.7349927],[-46.6054782,-23.7310604]]],[[[-46.6054782,-23.7310604],[-46.6063356,-23.7261643],[-46.6051307,-23.7197713],[-46.6054782,-23.7310604]]],[[[-46.6050613,-23.71931],[-46.6045375,-23.7180689],[-46.6030974,-23.7178252],[-46.6050613,-23.71931]]],[[[-46.6030974,-23.7178252],[-46.6027037,-23.7175511],[-46.6022287,-23.7174053],[-46.6030974,-23.7178252]]],[[[-46.6022287,-23.7174053],[-46.6018136,-23.7172096],[-46.6015633,-23.7169618],[-46.6022287,-23.7174053]]],[[[-46.601259,-23.7167377],[-46.6011269,-23.7166529],[-46.6009694,-23.7165672],[-46.601259,-23.7167377]]],[[[-46.6009694,-23.7165672],[-46.6006272,-23.7163219],[-46.6004649,-23.7160982],[-46.6009694,-23.7165672]]],[[[-46.6004649,-23.7160982],[-46.5993314,-23.7129528],[-46.5935947,-23.7091589],[-46.6004649,-23.7160982]]],[[[-46.5927886,-23.7116081],[-46.5932759,-23.710086],[-46.5933222,-23.7089434],[-46.5927886,-23.7116081]]],[[[-46.5909939,-23.7179749],[-46.5918626,-23.7170968],[-46.592656,-23.7120184],[-46.5909939,-23.7179749]]],[[[-46.5873953,-23.7220021],[-46.5885595,-23.719799],[-46.5905237,-23.7181004],[-46.5873953,-23.7220021]]],[[[-46.5873823,-23.722291],[-46.5873792,-23.7221418],[-46.5873953,-23.7220021],[-46.5873823,-23.722291]]],[[[-46.5854175,-23.7239387],[-46.5869343,-23.7239031],[-46.5873823,-23.722291],[-46.5854175,-23.7239387]]],[[[-46.5854175,-23.7239387],[-46.5858024,-23.7281597],[-46.5833536,-23.7311897],[-46.5842353,-23.7333306],[-46.5854175,-23.7239387]]]]}},{"type":"Feature","properties":{"nome":"Curucutu","osm_id":4573224,"osm_tipo":"relation","tipo_lugar":"suburb"},"geometry":{"type":"MultiPolygon","coordinates":[[[[-46.6161849,-23.8715121],[-46.6148586,-23.8712271],[-46.6149444,-23.8642885],[-46.608573,-23.8661973],[-46.6061725,-23.8688645],[-46.6036234,-23.8675067],[-46.6067733,-23.8655915],[-46.6060009,-23.8633387],[-46.6075424,-23.8646266],[-46.6126275,-23.8624539],[-46.6115112,-23.8590215],[-46.6150711,-23.8604002],[-46.6171342,-23.8586664],[-46.6163126,-23.8577458],[-46.6195278,-23.8589195],[-46.6226479,-23.8560986],[-46.6210985,-23.8553243],[-46.6256819,-23.8539585],[-46.6181803,-23.8498844],[-46.6294156,-23.8529616],[-46.6289693,-23.8505516],[-46.6305056,-23.8492721],[-46.6294585,-23.8486755],[-46.6308318,-23.8486912],[-46.6314583,-23.8456609],[-46.630351,-23.8419412],[-46.627233,-23.8432084],[-46.6242914,-23.8411561],[-46.6286773,-23.8391306],[-46.6275959,-23.8373721],[-46.6290207,-23.8376861],[-46.6297592,-23.832511],[-46.6294674,-23.8314432],[-46.6252617,-23.8317729],[-46.6288879,-23.8286046],[-46.624987,-23.8278316],[-46.6199058,-23.8193359],[-46.6170477,-23.8226886],[-46.6177257,-23.8305166],[-46.6156572,-23.824471],[-46.6143955,-23.8241569],[-46.613211,-23.8283104],[-46.6126188,-23.8261826],[-46.6096662,-23.8277843],[-46.6161849,-23.8715121]]],[[[-46.6098672,-23.903872],[-46.6145964,-23.9000956],[-46.6167572,-23.8904695],[-46.6161849,-23.8715121],[-46.6098672,-23.903872]]],[[[-46.6099035,-23.9055328],[-46.6084587,-23.9045862],[-46.6094158,-23.9040679],[-46.6099035,-23.9055328]]],[[[-46.6099035,-23.9055328],[-46.6124262,-23.9087476],[-46.6117466,-23.9138149],[-46.6083098,-23.915273],[-46.6098184,-23.9183026],[-46.6087507,-23.9207171],[-46.6098795,-23.9250529],[-46.6099035,-23.9055328]]],[[[-46.588111,-23.8481816],[-46.5855341,-23.8594931],[-46.5814679,-23.86287],[-46.5821261,-23.875198],[-46.5879019,-23.8771205],[-46.5961728,-23.8838806],[-46.604929,-23.8963437],[-46.5945787,-23.9021523],[-46.588111,-23.8481816]]],[[[-46.589001,-23.8390406],[-46.5928014,-23.8436118],[-46.588111,-23.8481816],[-46.589001,-23.8390406]]],[[[-46.5915784,-23.8402354],[-46.5903806,-23.8393477],[-46.589001,-23.8390406],[-46.5915784,-23.8402354]]],[[[-46.6035396,-23.844423],[-46.5972827,-23.8446118],[-46.5915784,-23.8402354],[-46.6035396,-23.844423]]],[[[-46.6093898,-23.8277841],[-46.6053763,-23.8440231],[-46.6042489,-23.8441193],[-46.6093898,-23.8277841]]]]}},{"type":"Feature","properties":{"nome":"Demarchi","osm_id":4573225,"osm_tipo":"relation","tipo_lugar":"suburb"},"geometry":{"type":"MultiPolygon","coordinates":[[[[-46.5750357,-23.7474454],[-46.5674303,-23.739471],[-46.566053,-23.7338285],[-46.5587218,-23.7326373],[-46.5606256,-23.7263609],[-46.5750357,-23.7474454]]],[[[-46.560628,-23.7263254],[-46.5536662,-23.7235738],[-46.5519333,-23.7244536],[-46.560628,-23.7263254]]],[[[-46.551893,-23.7244176],[-46.5425401,-23.7366814],[-46.5406367,-23.7427048],[-46.551893,-23.7244176]]],[[[-46.5406367,-23.7427048],[-46.5429361,-23.74524],[-46.5536311,-23.7462891],[-46.5600734,-23.7493589],[-46.5406367,-23.7427048]]],[[[-46.5749249,-23.7476195],[-46.5708284,-23.7508342],[-46.5607276,-23.7496271],[-46.5749249,-23.7476195]]]]}},{"type":"Feature","properties":{"nome":"Ferrazópolis","osm_id":4573226,"osm_tipo":"relation","tipo_lugar":"suburb"},"geometry":{"type":"MultiPolygon","coordinates":[[[[-46.5313782,-23.7274955],[-46.5344358,-23.7305533],[-46.5344292,-23.735332],[-46.5299778,-23.7407973],[-46.5361836,-23.7414904],[-46.5375767,-23.7402966],[-46.5406367,-23.7427048],[-46.5313782,-23.7274955]]],[[[-46.551893,-23.7244176],[-46.5425401,-23.7366814],[-46.5406367,-23.7427048],[-46.551893,-23.7244176]]],[[[-46.551893,-23.7244176],[-46.5491556,-23.7224733],[-46.5385433,-23.721512],[-46.551893,-23.7244176]]],[[[-46.5385433,-23.721512],[-46.5331419,-23.7255882],[-46.5313782,-23.7274955],[-46.5385433,-23.721512]]]]}},{"type":"Feature","properties":{"nome":"Imigrantes","osm_id":4573229,"osm_tipo":"relation","tipo_lugar":"suburb"},"geometry":{"type":"MultiPolygon","coordinates":[[[[-46.5945787,-23.9021523],[-46.591968,-23.898118],[-46.5825419,-23.9031028],[-46.574377,-23.8909399],[-46.542893,-23.8861729],[-46.5945787,-23.9021523]]],[[[-46.542893,-23.8861729],[-46.5414565,-23.8858995],[-46.5395805,-23.8842382],[-46.542893,-23.8861729]]],[[[-46.5374054,-23.8856277],[-46.5372004,-23.8866956],[-46.5393604,-23.8844245],[-46.5374054,-23.8856277]]],[[[-46.5377981,-23.8848159],[-46.5377724,-23.8850787],[-46.5374054,-23.8856277],[-46.5377981,-23.8848159]]],[[[-46.5382067,-23.8834321],[-46.5379162,-23.8840301],[-46.5377981,-23.8848159],[-46.5382067,-23.8834321]]],[[[-46.5382844,-23.8830418],[-46.5382654,-23.8832026],[-46.5382067,-23.8834321],[-46.5382844,-23.8830418]]],[[[-46.537099,-23.8819159],[-46.5381565,-23.8820828],[-46.5382844,-23.8830418],[-46.537099,-23.8819159]]],[[[-46.5355972,-23.8822442],[-46.5359107,-23.8821246],[-46.537099,-23.8819159],[-46.5355972,-23.8822442]]],[[[-46.5344985,-23.8823423],[-46.5346044,-23.8827966],[-46.5355972,-23.8822442],[-46.5344985,-23.8823423]]],[[[-46.5324372,-23.8812809],[-46.5344953,-23.8817409],[-46.5344985,-23.8823423],[-46.5324372,-23.8812809]]],[[[-46.5349031,-23.880005],[-46.532684,-23.8809915],[-46.5324372,-23.8812809],[-46.5349031,-23.880005]]],[[[-46.5349031,-23.880005],[-46.5248888,-23.8710677],[-46.5044383,-23.8510248],[-46.5349031,-23.880005]]],[[[-46.5044383,-23.8510248],[-46.5030899,-23.8582847],[-46.4896721,-23.8718968],[-46.4875489,-23.8840492],[-46.5044383,-23.8510248]]],[[[-46.4875042,-23.8842307],[-46.4915899,-23.8897518],[-46.4928398,-23.8903232],[-46.4875042,-23.8842307]]],[[[-46.4930084,-23.890472],[-46.4932783,-23.8907187],[-46.4933606,-23.8908163],[-46.4930084,-23.890472]]],[[[-46.4933606,-23.8908163],[-46.4931107,-23.8966576],[-46.4955998,-23.8988107],[-46.4933606,-23.8908163]]],[[[-46.4960107,-23.8994929],[-46.5037537,-23.9045341],[-46.5192568,-23.904642],[-46.5223897,-23.9076238],[-46.5210915,-23.9082564],[-46.5228725,-23.9108703],[-46.520775,-23.9108065],[-46.5212417,-23.9118511],[-46.5255364,-23.9150789],[-46.5325284,-23.9170884],[-46.5341263,-23.9202843],[-46.5333706,-23.9236986],[-46.540866,-23.9256691],[-46.4960107,-23.8994929]]],[[[-46.540866,-23.9256691],[-46.5432894,-23.9289845],[-46.5484286,-23.931191],[-46.5489865,-23.9337406],[-46.5572477,-23.9408598],[-46.5659506,-23.9524141],[-46.5676353,-23.9472525],[-46.540866,-23.9256691]]],[[[-46.5684314,-23.9472257],[-46.571753,-23.9528223],[-46.5759909,-23.9540675],[-46.5766352,-23.9579217],[-46.5813124,-23.95595],[-46.5829003,-23.9586169],[-46.5903089,-23.9608235],[-46.595217,-23.9653229],[-46.5957964,-23.9638719],[-46.6034138,-23.9668131],[-46.6045404,-23.9648523],[-46.6076517,-23.9669798],[-46.6101738,-23.9656618],[-46.5684314,-23.9472257]]],[[[-46.6101738,-23.9656618],[-46.6082525,-23.9626758],[-46.6092181,-23.9599601],[-46.6065896,-23.9569599],[-46.6069347,-23.954087],[-46.6109669,-23.9496504],[-46.6075364,-23.9482353],[-46.6069114,-23.9445075],[-46.608569,-23.9408647],[-46.607,-23.938],[-46.6157759,-23.935924],[-46.6163706,-23.930712],[-46.6128807,-23.9307705],[-46.6094139,-23.9258032],[-46.6101738,-23.9656618]]]]}},{"type":"Feature","properties":{"nome":"Independência","osm_id":4573230,"osm_tipo":"relation","tipo_lugar":"suburb"},"geometry":{"type":"MultiPolygon","coordinates":[[[[-46.5739809,-23.7116619],[-46.5858472,-23.7117927],[-46.5863617,-23.7115388],[-46.5739809,-23.7116619]]],[[[-46.5867646,-23.711011],[-46.5870246,-23.7106756],[-46.5877326,-23.7096876],[-46.5867646,-23.711011]]],[[[-46.5880329,-23.7091392],[-46.5882123,-23.708888],[-46.5884454,-23.7084919],[-46.5880329,-23.7091392]]],[[[-46.5888856,-23.7073802],[-46.589303,-23.7060192],[-46.5906004,-23.7043708],[-46.5888856,-23.7073802]]],[[[-46.5739809,-23.7116619],[-46.5798387,-23.695211],[-46.5793937,-23.6914962],[-46.5739809,-23.7116619]]],[[[-46.583852,-23.6936422],[-46.5812221,-23.6926257],[-46.5800328,-23.6914338],[-46.583852,-23.6936422]]],[[[-46.5906004,-23.7043708],[-46.5888011,-23.6984643],[-46.5839739,-23.6936786],[-46.5906004,-23.7043708]]]]}},{"type":"Feature","properties":{"nome":"Jordanópolis","osm_id":4573231,"osm_tipo":"relation","tipo_lugar":"suburb"},"geometry":{"type":"MultiPolygon","coordinates":[[[[-46.579554,-23.6907046],[-46.5736258,-23.6895384],[-46.5648467,-23.6896777],[-46.579554,-23.6907046]]],[[[-46.579554,-23.6907046],[-46.5795787,-23.6905364],[-46.5796142,-23.6904462],[-46.579554,-23.6907046]]],[[[-46.5796142,-23.6904462],[-46.5805435,-23.6899341],[-46.5796223,-23.6859484],[-46.5796142,-23.6904462]]],[[[-46.5796223,-23.6859484],[-46.5801436,-23.6837759],[-46.5794039,-23.6816964],[-46.5796223,-23.6859484]]],[[[-46.579242,-23.6814068],[-46.5786768,-23.6805988],[-46.5788946,-23.6796517],[-46.579242,-23.6814068]]],[[[-46.5790211,-23.6794645],[-46.5791027,-23.6791382],[-46.5791816,-23.6788245],[-46.5790211,-23.6794645]]],[[[-46.5791816,-23.6788245],[-46.5807052,-23.677469],[-46.5787826,-23.674936],[-46.5791816,-23.6788245]]],[[[-46.5783703,-23.6744181],[-46.5778428,-23.6729343],[-46.5777108,-23.6725802],[-46.5783703,-23.6744181]]],[[[-46.5664944,-23.6848323],[-46.5661283,-23.6859066],[-46.5648467,-23.6896777],[-46.5664944,-23.6848323]]]]}},{"type":"Feature","properties":{"nome":"Montanhão","osm_id":4573232,"osm_tipo":"relation","tipo_lugar":"suburb"},"geometry":{"type":"MultiPolygon","coordinates":[[[[-46.5179959,-23.7099966],[-46.5174721,-23.7095148],[-46.5175772,-23.7090428],[-46.5179959,-23.7099966]]],[[[-46.5205878,-23.7157803],[-46.5218803,-23.7146993],[-46.5188867,-23.7103563],[-46.5205878,-23.7157803]]],[[[-46.5175993,-23.7194896],[-46.5202287,-23.7166987],[-46.5205878,-23.7157803],[-46.5175993,-23.7194896]]],[[[-46.5168571,-23.726779],[-46.518317,-23.7240097],[-46.5174887,-23.7203551],[-46.5168571,-23.726779]]],[[[-46.5060121,-23.7438246],[-46.5120907,-23.7482401],[-46.5131832,-23.7464961],[-46.5221109,-23.7503207],[-46.5279795,-23.7486198],[-46.5267261,-23.7461224],[-46.520673,-23.7458151],[-46.5176792,-23.7424324],[-46.5178142,-23.7378746],[-46.5203779,-23.7351168],[-46.5168536,-23.7270069],[-46.5060121,-23.7438246]]],[[[-46.5060121,-23.7438246],[-46.5012649,-23.7461013],[-46.500201,-23.7460258],[-46.5060121,-23.7438246]]],[[[-46.4994075,-23.7460807],[-46.4990652,-23.7462454],[-46.4988451,-23.7464261],[-46.4985894,-23.7465482],[-46.4994075,-23.7460807]]],[[[-46.4946049,-23.7525728],[-46.4967223,-23.7506419],[-46.4964217,-23.749119],[-46.4983866,-23.7467757],[-46.4946049,-23.7525728]]],[[[-46.5011075,-23.7539491],[-46.498572,-23.7562954],[-46.4965251,-23.7559575],[-46.4974505,-23.7540893],[-46.4958,-23.7554724],[-46.494246,-23.7538336],[-46.5011075,-23.7539491]]],[[[-46.502257,-23.7540795],[-46.5038087,-23.7523737],[-46.5011075,-23.7539491],[-46.502257,-23.7540795]]],[[[-46.502355,-23.754428],[-46.5021404,-23.7542169],[-46.502257,-23.7540795],[-46.502355,-23.754428]]],[[[-46.5018271,-23.7550791],[-46.5025438,-23.754704],[-46.502355,-23.754428],[-46.5018271,-23.7550791]]],[[[-46.5088543,-23.7561508],[-46.5070156,-23.7657411],[-46.5052475,-23.7642093],[-46.5060628,-23.7617977],[-46.5026554,-23.7613263],[-46.5026039,-23.7578777],[-46.4999259,-23.7586162],[-46.5011362,-23.7555524],[-46.5088543,-23.7561508]]],[[[-46.5341011,-23.7647132],[-46.5343963,-23.7675849],[-46.5340476,-23.769404],[-46.5341011,-23.7647132]]],[[[-46.5406367,-23.7427048],[-46.5341091,-23.7541518],[-46.5341011,-23.7647132],[-46.5406367,-23.7427048]]],[[[-46.5313782,-23.7274955],[-46.5344358,-23.7305533],[-46.5344292,-23.735332],[-46.5299778,-23.7407973],[-46.5361836,-23.7414904],[-46.5375767,-23.7402966],[-46.5406367,-23.7427048],[-46.5313782,-23.7274955]]],[[[-46.5280906,-23.7203736],[-46.5260092,-23.7218935],[-46.5308277,-23.7270416],[-46.5280906,-23.7203736]]],[[[-46.5332781,-23.7070249],[-46.5304757,-23.7094233],[-46.530914,-23.7125833],[-46.5280906,-23.7203736],[-46.5332781,-23.7070249]]],[[[-46.5175772,-23.7090428],[-46.5240389,-23.7110169],[-46.5264406,-23.7076783],[-46.5324891,-23.7065072],[-46.5175772,-23.7090428]]],[[[-46.5340476,-23.769404],[-46.5339687,-23.7693529],[-46.5339091,-23.7693013],[-46.5340476,-23.769404]]],[[[-46.5339091,-23.7693013],[-46.5315548,-23.7665281],[-46.5296584,-23.7672007],[-46.5306066,-23.7631288],[-46.5339091,-23.7693013]]],[[[-46.5302807,-23.7629196],[-46.5305342,-23.763011],[-46.5306066,-23.7631288],[-46.5302807,-23.7629196]]],[[[-46.525434,-23.7582701],[-46.5266839,-23.7607888],[-46.5252435,-23.7632313],[-46.5283147,-23.7650184],[-46.5298274,-23.7635603],[-46.525434,-23.7582701]]],[[[-46.5186453,-23.7565443],[-46.5194204,-23.7597283],[-46.521188,-23.7596423],[-46.5221509,-23.7615056],[-46.5245381,-23.7604745],[-46.5249726,-23.7581522],[-46.5186453,-23.7565443]]],[[[-46.5249726,-23.7581522],[-46.5252247,-23.7578405],[-46.525434,-23.7582701],[-46.5249726,-23.7581522]]],[[[-46.5174534,-23.7563392],[-46.5181357,-23.756721],[-46.5185085,-23.756478],[-46.5174534,-23.7563392]]],[[[-46.5185085,-23.756478],[-46.5185675,-23.7564632],[-46.5186453,-23.7565443],[-46.5185085,-23.756478]]],[[[-46.5173954,-23.7563945],[-46.5174182,-23.756354],[-46.5174534,-23.7563392],[-46.5173954,-23.7563945]]],[[[-46.5134096,-23.7579141],[-46.5142813,-23.7599148],[-46.5177494,-23.759689],[-46.5174034,-23.7564657],[-46.5134096,-23.7579141]]],[[[-46.5127793,-23.7607127],[-46.512672,-23.7592226],[-46.5133533,-23.7578969],[-46.5127793,-23.7607127]]],[[[-46.5095311,-23.7563577],[-46.5090001,-23.7661476],[-46.5109447,-23.7670681],[-46.5107918,-23.7617241],[-46.5122938,-23.7627256],[-46.5125969,-23.7615841],[-46.5095311,-23.7563577]]],[[[-46.5088543,-23.7561508],[-46.5093997,-23.7562325],[-46.5095311,-23.7563577],[-46.5088543,-23.7561508]]]]}},{"type":"Feature","properties":{"nome":"Nova Petrópolis","osm_id":4573233,"osm_tipo":"relation","tipo_lugar":"suburb"},"geometry":{"type":"MultiPolygon","coordinates":[[[[-46.5332781,-23.7070249],[-46.5304757,-23.7094233],[-46.530914,-23.7125833],[-46.5280906,-23.7203736],[-46.5332781,-23.7070249]]],[[[-46.5280906,-23.7203736],[-46.5423722,-23.7093745],[-46.5443925,-23.7108443],[-46.5280906,-23.7203736]]],[[[-46.5475093,-23.7002436],[-46.5514094,-23.6990406],[-46.551026,-23.7054948],[-46.5443925,-23.7108443],[-46.5475093,-23.7002436]]],[[[-46.5332781,-23.7070249],[-46.5398595,-23.7035639],[-46.5475093,-23.7002436],[-46.5332781,-23.7070249]]]]}},{"type":"Feature","properties":{"nome":"Planalto","osm_id":4573234,"osm_tipo":"relation","tipo_lugar":"suburb"},"geometry":{"type":"MultiPolygon","coordinates":[[[[-46.5739809,-23.7116619],[-46.5798387,-23.695211],[-46.5793937,-23.6914962],[-46.5739809,-23.7116619]]],[[[-46.5613817,-23.7112569],[-46.5722028,-23.7116372],[-46.5739809,-23.7116619],[-46.5613817,-23.7112569]]],[[[-46.5648467,-23.6896777],[-46.5615153,-23.6995875],[-46.5613817,-23.7112569],[-46.5648467,-23.6896777]]],[[[-46.579554,-23.6907046],[-46.5736258,-23.6895384],[-46.5648467,-23.6896777],[-46.579554,-23.6907046]]]]}},{"type":"Feature","properties":{"nome":"Rio Grande","osm_id":4573235,"osm_tipo":"relation","tipo_lugar":"suburb"},"geometry":{"type":"MultiPolygon","coordinates":[[[[-46.523533,-23.7744588],[-46.523152,-23.7758214],[-46.5223534,-23.7770029],[-46.523533,-23.7744588]]],[[[-46.5223534,-23.7770029],[-46.5246734,-23.7773],[-46.5298408,-23.7743487],[-46.5223534,-23.7770029]]],[[[-46.5318201,-23.7855692],[-46.5370348,-23.7804397],[-46.5350452,-23.7784369],[-46.5342269,-23.7797025],[-46.5332126,-23.7789168],[-46.5334106,-23.7767044],[-46.5294555,-23.7770031],[-46.5302845,-23.7738837],[-46.5318201,-23.7855692]]],[[[-46.5317248,-23.7972162],[-46.531538,-23.7959502],[-46.5289735,-23.796757],[-46.5276826,-23.7948165],[-46.5329942,-23.7921004],[-46.5290719,-23.7878896],[-46.5318201,-23.7855692],[-46.5317248,-23.7972162]]],[[[-46.5317248,-23.7972162],[-46.5300339,-23.7999893],[-46.5265967,-23.7981757],[-46.5318444,-23.8049146],[-46.5290499,-23.8074024],[-46.5266809,-23.8064915],[-46.5273676,-23.8040257],[-46.5234537,-23.8060674],[-46.5253493,-23.8007071],[-46.5211049,-23.8047846],[-46.5203968,-23.8014274],[-46.5217513,-23.7978027],[-46.5183315,-23.8004016],[-46.518943,-23.7966811],[-46.5178648,-23.8030496],[-46.5124756,-23.8022004],[-46.5141472,-23.8001513],[-46.5120095,-23.8002863],[-46.5120149,-23.7982518],[-46.5110493,-23.8047453],[-46.5317248,-23.7972162]]],[[[-46.510769,-23.7727431],[-46.505094,-23.7792621],[-46.5074973,-23.7778665],[-46.5123842,-23.7788738],[-46.5205407,-23.7775297],[-46.5247572,-23.7789845],[-46.5231533,-23.7798884],[-46.5236993,-23.7837963],[-46.5214947,-23.7800524],[-46.5189071,-23.7807348],[-46.5235889,-23.7857132],[-46.5114009,-23.7966201],[-46.509953,-23.8045904],[-46.510769,-23.7727431]]],[[[-46.510769,-23.7727431],[-46.5113117,-23.773202],[-46.5114493,-23.774232],[-46.510769,-23.7727431]]],[[[-46.5116651,-23.7741305],[-46.5119872,-23.7735429],[-46.5129655,-23.7730139],[-46.5116651,-23.7741305]]],[[[-46.5130299,-23.7730025],[-46.5151587,-23.7717409],[-46.5156909,-23.7704621],[-46.5130299,-23.7730025]]],[[[-46.5156909,-23.7704621],[-46.5168234,-23.7689201],[-46.5179212,-23.7693315],[-46.5156909,-23.7704621]]],[[[-46.5179212,-23.7693315],[-46.5192455,-23.7696199],[-46.5200637,-23.7702202],[-46.5206154,-23.7703034],[-46.5179212,-23.7693315]]],[[[-46.5207456,-23.7703181],[-46.5217245,-23.77403],[-46.5228087,-23.7738813],[-46.5207456,-23.7703181]]]]}},{"type":"Feature","properties":{"nome":"Santa Cruz","osm_id":4573236,"osm_tipo":"relation","tipo_lugar":"suburb"},"geometry":{"type":"MultiPolygon","coordinates":[[[[-46.5915784,-23.8402354],[-46.5982032,-23.8427825],[-46.6020326,-23.8426078],[-46.6035396,-23.844423],[-46.5915784,-23.8402354]]],[[[-46.6035396,-23.844423],[-46.5972827,-23.8446118],[-46.5915784,-23.8402354],[-46.6035396,-23.844423]]]]}},{"type":"Feature","properties":{"nome":"Santa Terezinha","osm_id":4573237,"osm_tipo":"relation","tipo_lugar":"suburb"},"geometry":{"type":"MultiPolygon","coordinates":[[[[-46.5280906,-23.7203736],[-46.5423722,-23.7093745],[-46.5443925,-23.7108443],[-46.5280906,-23.7203736]]],[[[-46.5443925,-23.7108443],[-46.5420673,-23.7143893],[-46.541084,-23.7201766],[-46.5394226,-23.7208729],[-46.5443925,-23.7108443]]],[[[-46.5394226,-23.7208729],[-46.5392103,-23.7210219],[-46.5390169,-23.7211462],[-46.5394226,-23.7208729]]],[[[-46.5385433,-23.721512],[-46.5331419,-23.7255882],[-46.5313782,-23.7274955],[-46.5385433,-23.721512]]],[[[-46.5280906,-23.7203736],[-46.5260092,-23.7218935],[-46.5308277,-23.7270416],[-46.5280906,-23.7203736]]]]}},{"type":"Feature","properties":{"nome":"Taquacetuba","osm_id":4573238,"osm_tipo":"relation","tipo_lugar":"suburb"},"geometry":{"type":"MultiPolygon","coordinates":[[[[-46.5915784,-23.8402354],[-46.5903806,-23.8393477],[-46.589001,-23.8390406],[-46.5915784,-23.8402354]]],[[[-46.5915784,-23.8402354],[-46.5982032,-23.8427825],[-46.6020326,-23.8426078],[-46.6035396,-23.844423],[-46.5915784,-23.8402354]]],[[[-46.6093898,-23.8277841],[-46.6053763,-23.8440231],[-46.6042489,-23.8441193],[-46.6093898,-23.8277841]]],[[[-46.6093898,-23.8277841],[-46.6107202,-23.8227738],[-46.6139345,-23.822012],[-46.6157861,-23.8184723],[-46.611954,-23.8182344],[-46.6124368,-23.8172725],[-46.6145759,-23.8166898],[-46.6157198,-23.8117415],[-46.6207999,-23.8076189],[-46.6184212,-23.8050994],[-46.6196056,-23.8001128],[-46.6183611,-23.7974898],[-46.6106792,-23.8016834],[-46.6112371,-23.804377],[-46.6094004,-23.8063009],[-46.6078812,-23.8036309],[-46.6011005,-23.8035132],[-46.60074,-23.8072197],[-46.6024567,-23.8073375],[-46.6003281,-23.8097011],[-46.6032978,-23.8093556],[-46.603375,-23.8111696],[-46.5990063,-23.8104079],[-46.5984569,-23.8137294],[-46.6035852,-23.8159169],[-46.6024326,-23.8174789],[-46.5993745,-23.8157626],[-46.5974956,-23.8166819],[-46.5996157,-23.8210083],[-46.5957447,-23.8212596],[-46.5956074,-23.8238821],[-46.597427,-23.8255859],[-46.5935732,-23.8248243],[-46.5912343,-23.8285047],[-46.5925303,-23.8288973],[-46.5912171,-23.8292428],[-46.59229,-23.8324068],[-46.5949765,-23.8341262],[-46.5899125,-23.8332312],[-46.5907794,-23.8359948],[-46.589017,-23.838855],[-46.6093898,-23.8277841]]]]}},{"type":"Feature","properties":{"nome":"Tatetos","osm_id":4573239,"osm_tipo":"relation","tipo_lugar":"suburb"},"geometry":{"type":"MultiPolygon","coordinates":[[[[-46.5598699,-23.83013],[-46.5601826,-23.8245216],[-46.5669197,-23.8239352],[-46.5615254,-23.822902],[-46.5584135,-23.8200145],[-46.5580222,-23.8164196],[-46.561379,-23.8186668],[-46.5570222,-23.8151504],[-46.5584041,-23.8132973],[-46.5549708,-23.8114755],[-46.5565844,-23.8067467],[-46.5570974,-23.8100827],[-46.5586504,-23.81089],[-46.5580091,-23.8064326],[-46.5594254,-23.8086863],[-46.5611935,-23.8075398],[-46.56388,-23.8129816],[-46.5658039,-23.812198],[-46.5689635,-23.8152604],[-46.5638971,-23.8069744],[-46.5594256,-23.8048361],[-46.5666676,-23.8043895],[-46.5708304,-23.8001832],[-46.5712528,-23.7970403],[-46.5765915,-23.7966162],[-46.5775037,-23.7989758],[-46.5794939,-23.7944994],[-46.5789253,-23.7917261],[-46.5840376,-23.7938956],[-46.5830889,-23.7987523],[-46.5874062,-23.7947],[-46.5907707,-23.7954146],[-46.590642,-23.7974722],[-46.5974661,-23.7984691],[-46.5954405,-23.8014219],[-46.5955263,-23.8048065],[-46.5945221,-23.8060394],[-46.5906941,-23.8058038],[-46.5925738,-23.8079476],[-46.5864197,-23.8125414],[-46.5903422,-23.8106882],[-46.5933377,-23.8116933],[-46.5935179,-23.8165382],[-46.5899044,-23.8184462],[-46.591767,-23.8218383],[-46.5889431,-23.8214064],[-46.5905911,-23.8225842],[-46.5883423,-23.8248769],[-46.585879,-23.8248455],[-46.5797335,-23.82958],[-46.5767809,-23.8296035],[-46.5766522,-23.8314329],[-46.5873638,-23.8262509],[-46.5895268,-23.8270911],[-46.5859866,-23.8371078],[-46.5598699,-23.83013]]],[[[-46.5859866,-23.8371078],[-46.5834904,-23.8375089],[-46.5827635,-23.8381611],[-46.5859866,-23.8371078]]],[[[-46.5827635,-23.8381611],[-46.580277,-23.8391287],[-46.5786086,-23.8383117],[-46.5827635,-23.8381611]]],[[[-46.5786086,-23.8383117],[-46.5710543,-23.8353912],[-46.5664449,-23.8364597],[-46.5612688,-23.8312942],[-46.5786086,-23.8383117]]],[[[-46.5601696,-23.830652],[-46.5602817,-23.830716],[-46.5606996,-23.830986],[-46.5601696,-23.830652]]]]}},{"type":"Feature","properties":{"nome":"Balneária","osm_id":4573240,"osm_tipo":"relation","tipo_lugar":"suburb"},"geometry":{"type":"MultiPolygon","coordinates":[[[[-46.5341011,-23.7647132],[-46.5343963,-23.7675849],[-46.5340476,-23.769404],[-46.5341011,-23.7647132]]],[[[-46.5341011,-23.7647132],[-46.5355749,-23.7658909],[-46.5408826,-23.764977],[-46.5341011,-23.7647132]]],[[[-46.5416821,-23.7651371],[-46.545902,-23.768222],[-46.5454855,-23.769429],[-46.5513539,-23.772063],[-46.5528757,-23.7754348],[-46.5556043,-23.7755716],[-46.5569019,-23.7778878],[-46.5552546,-23.7803433],[-46.5490017,-23.7794588],[-46.5463639,-23.7728199],[-46.5412513,-23.7755775],[-46.5392564,-23.7711834],[-46.5366239,-23.7706899],[-46.53947,-23.7703234],[-46.5368533,-23.7692136],[-46.5416821,-23.7651371]]],[[[-46.5368533,-23.7692136],[-46.5360238,-23.7690722],[-46.534745,-23.7695772],[-46.5340476,-23.769404],[-46.5368533,-23.7692136]]]]}},{"type":"Feature","properties":{"nome":"Alto da Serra","osm_id":11168646,"osm_tipo":"relation","tipo_lugar":"suburb"},"geometry":{"type":"MultiPolygon","coordinates":[[[[-46.5044383,-23.8510248],[-46.4486906,-23.8089244],[-46.4300809,-23.8028641],[-46.5044383,-23.8510248]]],[[[-46.4101207,-23.8153178],[-46.414876,-23.8156923],[-46.4176977,-23.8131353],[-46.4237595,-23.8121734],[-46.4261413,-23.8130077],[-46.4323855,-23.8070103],[-46.4298535,-23.8036336],[-46.4101207,-23.8153178]]],[[[-46.459406,-23.865218],[-46.4596528,-23.86264],[-46.4534904,-23.8521526],[-46.444509,-23.8500755],[-46.4404536,-23.8466508],[-46.4395738,-23.8438443],[-46.4370203,-23.842755],[-46.4400244,-23.8392124],[-46.4438921,-23.8416608],[-46.440711,-23.8351201],[-46.4379001,-23.8327451],[-46.4442945,-23.8287655],[-46.434542,-23.8240399],[-46.4309692,-23.8263953],[-46.4254654,-23.8245895],[-46.4152354,-23.8170614],[-46.4202726,-23.8257574],[-46.4167965,-23.8231173],[-46.4123547,-23.82456],[-46.4140606,-23.8190049],[-46.4101207,-23.8153178],[-46.459406,-23.865218]]],[[[-46.4599204,-23.8656799],[-46.4586261,-23.8659877],[-46.4588589,-23.8653063],[-46.4599204,-23.8656799]]],[[[-46.4650985,-23.8601665],[-46.4616269,-23.864514],[-46.4599204,-23.8656799],[-46.4650985,-23.8601665]]],[[[-46.4678078,-23.8640649],[-46.4668545,-23.8634617],[-46.4655753,-23.8603021],[-46.4678078,-23.8640649]]],[[[-46.4678808,-23.86491],[-46.4681031,-23.864384],[-46.4679402,-23.8641105],[-46.4678808,-23.86491]]],[[[-46.4694789,-23.872455],[-46.4658111,-23.8647396],[-46.4678808,-23.86491],[-46.4694789,-23.872455]]],[[[-46.4701557,-23.8730314],[-46.4695981,-23.8727241],[-46.4694789,-23.872455],[-46.4701557,-23.8730314]]],[[[-46.4873463,-23.8841691],[-46.483967,-23.8831497],[-46.4833286,-23.8847218],[-46.4701557,-23.8730314],[-46.4873463,-23.8841691]]],[[[-46.4873463,-23.8841691],[-46.4874254,-23.8841963],[-46.4875042,-23.8842307],[-46.4873463,-23.8841691]]],[[[-46.5044383,-23.8510248],[-46.5030899,-23.8582847],[-46.4896721,-23.8718968],[-46.4875489,-23.8840492],[-46.5044383,-23.8510248]]]]}}]}