{"type":"FeatureCollection","features":[{"type":"Feature","properties":{"nome":"Boa Vista","osm_id":615766611,"osm_tipo":"node","tipo_lugar":"suburb"},"geometry":{"type":"Point","coordinates":[-46.3711852,-23.9692022]}},{"type":"Feature","properties":{"nome":"Graça","osm_id":1148841919,"osm_tipo":"node","tipo_lugar":"suburb"},"geometry":{"type":"Point","coordinates":[-9.1294874,38.7182732]}},{"type":"Feature","properties":{"nome":"Lanço","osm_id":1272503969,"osm_tipo":"node","tipo_lugar":"neighbourhood"},"geometry":{"type":"Point","coordinates":[-17.0507015,32.7877633]}},{"type":"Feature","properties":{"nome":"Jardim Rio Branco","osm_id":1963820466,"osm_tipo":"node","tipo_lugar":"suburb"},"geometry":{"type":"Point","coordinates":[-46.4723073,-23.9805355]}},{"type":"Feature","properties":{"nome":"Quarentenário","osm_id":1963820476,"osm_tipo":"node","tipo_lugar":"suburb"},"geometry":{"type":"Point","coordinates":[-46.4554866,-23.9792602]}},{"type":"Feature","properties":{"nome":"Samaritá","osm_id":1963820506,"osm_tipo":"node","tipo_lugar":"suburb"},"geometry":{"type":"Point","coordinates":[-46.4735207,-23.9906824]}},{"type":"Feature","properties":{"nome":"Parque das Bandeiras","osm_id":2013109765,"osm_tipo":"node","tipo_lugar":"suburb"},"geometry":{"type":"Point","coordinates":[-46.4882555,-23.9869982]}},{"type":"Feature","properties":{"nome":"Achada do Piquinho","osm_id":3995308237,"osm_tipo":"node","tipo_lugar":"neighbourhood"},"geometry":{"type":"Point","coordinates":[-17.0340247,32.7658622]}},{"type":"Feature","properties":{"nome":"Cova da Fonte","osm_id":3995318874,"osm_tipo":"node","tipo_lugar":"neighbourhood"},"geometry":{"type":"Point","coordinates":[-17.0523374,32.7830465]}},{"type":"Feature","properties":{"nome":"Fajã da Areia","osm_id":3995318932,"osm_tipo":"node","tipo_lugar":"neighbourhood"},"geometry":{"type":"Point","coordinates":[-17.0271472,32.8142578]}},{"type":"Feature","properties":{"nome":"Fajã da Cinza","osm_id":3995318933,"osm_tipo":"node","tipo_lugar":"neighbourhood"},"geometry":{"type":"Point","coordinates":[-17.0330265,32.7857211]}},{"type":"Feature","properties":{"nome":"Junça","osm_id":3995318984,"osm_tipo":"node","tipo_lugar":"neighbourhood"},"geometry":{"type":"Point","coordinates":[-17.0207516,32.7737514]}},{"type":"Feature","properties":{"nome":"Pico da Senhora de Fátima","osm_id":3995319520,"osm_tipo":"node","tipo_lugar":"neighbourhood"},"geometry":{"type":"Point","coordinates":[-17.0392105,32.79743]}},{"type":"Feature","properties":{"nome":"Terra Chã","osm_id":3995319765,"osm_tipo":"node","tipo_lugar":"neighbourhood"},"geometry":{"type":"Point","coordinates":[-17.0505302,32.8053941]}},{"type":"Feature","properties":{"nome":"Achada do Loural","osm_id":3995320578,"osm_tipo":"node","tipo_lugar":"neighbourhood"},"geometry":{"type":"Point","coordinates":[-17.0356688,32.773068]}},{"type":"Feature","properties":{"nome":"Achada do Til","osm_id":3995320585,"osm_tipo":"node","tipo_lugar":"neighbourhood"},"geometry":{"type":"Point","coordinates":[-17.0239431,32.7799394]}},{"type":"Feature","properties":{"nome":"Achada dos Judeus","osm_id":3995320586,"osm_tipo":"node","tipo_lugar":"neighbourhood"},"geometry":{"type":"Point","coordinates":[-17.0182777,32.7845832]}},{"type":"Feature","properties":{"nome":"Achada","osm_id":3995320598,"osm_tipo":"node","tipo_lugar":"neighbourhood"},"geometry":{"type":"Point","coordinates":[-17.0298215,32.7818511]}},{"type":"Feature","properties":{"nome":"Ariceiro","osm_id":3995320622,"osm_tipo":"node","tipo_lugar":"neighbourhood"},"geometry":{"type":"Point","coordinates":[-17.0240117,32.7919362]}},{"type":"Feature","properties":{"nome":"Barros","osm_id":3995320653,"osm_tipo":"node","tipo_lugar":"neighbourhood"},"geometry":{"type":"Point","coordinates":[-17.0281576,32.7870788]}},{"type":"Feature","properties":{"nome":"Calhau","osm_id":3995320690,"osm_tipo":"node","tipo_lugar":"neighbourhood"},"geometry":{"type":"Point","coordinates":[-17.049736,32.8081942]}},{"type":"Feature","properties":{"nome":"Cardais de Baixo","osm_id":3995320713,"osm_tipo":"node","tipo_lugar":"neighbourhood"},"geometry":{"type":"Point","coordinates":[-17.0423148,32.8033662]}},{"type":"Feature","properties":{"nome":"Cascalho","osm_id":3995320743,"osm_tipo":"node","tipo_lugar":"neighbourhood"},"geometry":{"type":"Point","coordinates":[-17.0338368,32.7920334]}},{"type":"Feature","properties":{"nome":"Corrida","osm_id":3995320773,"osm_tipo":"node","tipo_lugar":"neighbourhood"},"geometry":{"type":"Point","coordinates":[-17.0333482,32.7892928]}},{"type":"Feature","properties":{"nome":"Faias","osm_id":3995320849,"osm_tipo":"node","tipo_lugar":"neighbourhood"},"geometry":{"type":"Point","coordinates":[-17.0291194,32.7796022]}},{"type":"Feature","properties":{"nome":"Feiteiras","osm_id":3995320890,"osm_tipo":"node","tipo_lugar":"neighbourhood"},"geometry":{"type":"Point","coordinates":[-17.0326911,32.7879525]}},{"type":"Feature","properties":{"nome":"Lameiros","osm_id":3995320974,"osm_tipo":"node","tipo_lugar":"neighbourhood"},"geometry":{"type":"Point","coordinates":[-17.0244867,32.7909073]}},{"type":"Feature","properties":{"nome":"Laranjal","osm_id":3995320981,"osm_tipo":"node","tipo_lugar":"neighbourhood"},"geometry":{"type":"Point","coordinates":[-17.0339223,32.7950078]}},{"type":"Feature","properties":{"nome":"Limoeiro","osm_id":3995320995,"osm_tipo":"node","tipo_lugar":"neighbourhood"},"geometry":{"type":"Point","coordinates":[-17.032305,32.7907257]}},{"type":"Feature","properties":{"nome":"Lombo Cravo","osm_id":3995321014,"osm_tipo":"node","tipo_lugar":"neighbourhood"},"geometry":{"type":"Point","coordinates":[-17.0311671,32.7932606]}},{"type":"Feature","properties":{"nome":"Lombo da Eira","osm_id":3995321022,"osm_tipo":"node","tipo_lugar":"neighbourhood"},"geometry":{"type":"Point","coordinates":[-17.0262089,32.7927157]}},{"type":"Feature","properties":{"nome":"Lombo","osm_id":3995321062,"osm_tipo":"node","tipo_lugar":"neighbourhood"},"geometry":{"type":"Point","coordinates":[-17.0489454,32.7949446]}},{"type":"Feature","properties":{"nome":"Miradouro","osm_id":3995321097,"osm_tipo":"node","tipo_lugar":"neighbourhood"},"geometry":{"type":"Point","coordinates":[-17.0476413,32.7807025]}},{"type":"Feature","properties":{"nome":"Passo","osm_id":3995321144,"osm_tipo":"node","tipo_lugar":"neighbourhood"},"geometry":{"type":"Point","coordinates":[-17.0459402,32.7937443]}},{"type":"Feature","properties":{"nome":"Ribeira Grande","osm_id":3995321294,"osm_tipo":"node","tipo_lugar":"neighbourhood"},"geometry":{"type":"Point","coordinates":[-17.0247079,32.7752644]}},{"type":"Feature","properties":{"nome":"Rochão","osm_id":3995321323,"osm_tipo":"node","tipo_lugar":"neighbourhood"},"geometry":{"type":"Point","coordinates":[-17.0182551,32.7867065]}},{"type":"Feature","properties":{"nome":"Saramago","osm_id":3995321353,"osm_tipo":"node","tipo_lugar":"neighbourhood"},"geometry":{"type":"Point","coordinates":[-17.0316116,32.7829836]}},{"type":"Feature","properties":{"nome":"Terça","osm_id":3995321422,"osm_tipo":"node","tipo_lugar":"neighbourhood"},"geometry":{"type":"Point","coordinates":[-17.0536816,32.7855053]}},{"type":"Feature","properties":{"nome":"Travessa","osm_id":3995321435,"osm_tipo":"node","tipo_lugar":"neighbourhood"},"geometry":{"type":"Point","coordinates":[-17.0471455,32.7902874]}},{"type":"Feature","properties":{"nome":"Vargem","osm_id":3995321448,"osm_tipo":"node","tipo_lugar":"neighbourhood"},"geometry":{"type":"Point","coordinates":[-17.0276234,32.7721673]}},{"type":"Feature","properties":{"nome":"Santa Engrácia","osm_id":4360243191,"osm_tipo":"node","tipo_lugar":"neighbourhood"},"geometry":{"type":"Point","coordinates":[-9.12087,38.7199479]}},{"type":"Feature","properties":{"nome":"São Vicente de Fora","osm_id":4360243210,"osm_tipo":"node","tipo_lugar":"neighbourhood"},"geometry":{"type":"Point","coordinates":[-9.1260238,38.7161716]}},{"type":"Feature","properties":{"nome":"Esplanada dos Barreiros","osm_id":5910863965,"osm_tipo":"node","tipo_lugar":"suburb"},"geometry":{"type":"Point","coordinates":[-46.4117297,-23.9562609]}},{"type":"Feature","properties":{"nome":"Cidade Nautica","osm_id":5910869521,"osm_tipo":"node","tipo_lugar":"suburb"},"geometry":{"type":"Point","coordinates":[-46.4142456,-23.9558663]}},{"type":"Feature","properties":{"nome":"Parque Bitaru","osm_id":6388276021,"osm_tipo":"node","tipo_lugar":"suburb"},"geometry":{"type":"Point","coordinates":[-46.3942622,-23.9704264]}},{"type":"Feature","properties":{"nome":"Vila Quarentenário Particular","osm_id":6987108010,"osm_tipo":"node","tipo_lugar":"suburb"},"geometry":{"type":"Point","coordinates":[-46.4614392,-23.9815278]}},{"type":"Feature","properties":{"nome":"Vila Ponte Nova","osm_id":6987108033,"osm_tipo":"node","tipo_lugar":"suburb"},"geometry":{"type":"Point","coordinates":[-46.4501095,-23.9821552]}},{"type":"Feature","properties":{"nome":"Jardim Rio Negro","osm_id":6987108081,"osm_tipo":"node","tipo_lugar":"suburb"},"geometry":{"type":"Point","coordinates":[-46.4628554,-23.9853704]}},{"type":"Feature","properties":{"nome":"Vila Nova Mariana","osm_id":7004023056,"osm_tipo":"node","tipo_lugar":"suburb"},"geometry":{"type":"Point","coordinates":[-46.4489186,-23.9545578]}},{"type":"Feature","properties":{"nome":"Vila Feliz","osm_id":7004023068,"osm_tipo":"node","tipo_lugar":"suburb"},"geometry":{"type":"Point","coordinates":[-46.4481783,-23.9570285]}},{"type":"Feature","properties":{"nome":"Feiteiras de Baixo","osm_id":13165902689,"osm_tipo":"node","tipo_lugar":"neighbourhood"},"geometry":{"type":"Point","coordinates":[-17.042343,32.7942464]}},{"type":"Feature","properties":{"nome":"Bairro Estrela de Ouro","osm_id":427210028,"osm_tipo":"way","tipo_lugar":"neighbourhood"},"geometry":{"type":"Polygon","coordinates":[[[-9.130409,38.719483],[-9.1315561,38.7200664],[-9.1301986,38.7207382],[-9.130409,38.719483]]]}},{"type":"Feature","properties":{"nome":"Alfama","osm_id":945061630,"osm_tipo":"way","tipo_lugar":"suburb"},"geometry":{"type":"Polygon","coordinates":[[[-9.1284641,38.7143826],[-9.127703,38.7113605],[-9.1298607,38.7093011],[-9.1346235,38.7087351],[-9.1358529,38.7118015],[-9.1343862,38.7146027],[-9.1284641,38.7143826]]]}},{"type":"Feature","properties":{"nome":"Castelo","osm_id":1223067138,"osm_tipo":"way","tipo_lugar":"neighbourhood"},"geometry":{"type":"Polygon","coordinates":[[[-46.3805995,-23.93677],[-46.382724,-23.9413356],[-46.3796479,-23.9434071],[-46.3826437,-23.9433869],[-46.3847121,-23.9452124],[-46.382858,-23.9465599],[-46.3829154,-23.9496217],[-46.3770197,-23.9506679],[-46.3766316,-23.9439663],[-46.374187,-23.9408407],[-46.3805995,-23.93677]]]}},{"type":"Feature","properties":{"nome":"Vila São Jorge","osm_id":1223079606,"osm_tipo":"way","tipo_lugar":"neighbourhood"},"geometry":{"type":"Polygon","coordinates":[[[-46.373346,-23.9512974],[-46.3657234,-23.9526749],[-46.3644748,-23.9488779],[-46.3623488,-23.9478759],[-46.3679584,-23.9446254],[-46.373346,-23.9512974]]]}},{"type":"Feature","properties":{"nome":"Xixová","osm_id":5216205,"osm_tipo":"relation","tipo_lugar":"suburb"},"geometry":{"type":"MultiPolygon","coordinates":[[[[-46.3986099,-23.9876734],[-46.3955178,-23.9916369],[-46.3947181,-23.995736],[-46.391932,-23.9971528],[-46.3986099,-23.9876734]]],[[[-46.3919737,-23.9985008],[-46.3916091,-23.9981138],[-46.3910383,-23.9975836],[-46.3919737,-23.9985008]]],[[[-46.3893633,-24.004725],[-46.391763,-24.0017827],[-46.3920067,-23.9987598],[-46.3893633,-24.004725]]],[[[-46.4094194,-23.9991057],[-46.4050495,-24.0012685],[-46.3965995,-24.001556],[-46.39377,-24.0042932],[-46.4094194,-23.9991057]]],[[[-46.4094194,-23.9991057],[-46.4112173,-23.9993875],[-46.4120923,-23.9984492],[-46.4094194,-23.9991057]]],[[[-46.3986099,-23.9876734],[-46.4029707,-23.9915028],[-46.4120923,-23.9984492],[-46.3986099,-23.9876734]]]]}}]}