{"type":"FeatureCollection","features":[{"type":"Feature","properties":{"nome":"Santo Antônio","osm_id":6810427746,"osm_tipo":"node","tipo_lugar":"suburb"},"geometry":{"type":"Point","coordinates":[-46.9017937,-21.5925264]}},{"type":"Feature","properties":{"nome":"Vila Pereira","osm_id":6818657437,"osm_tipo":"node","tipo_lugar":"suburb"},"geometry":{"type":"Point","coordinates":[-46.8805798,-21.5938757]}},{"type":"Feature","properties":{"nome":"Vila Formosa","osm_id":6819863305,"osm_tipo":"node","tipo_lugar":"suburb"},"geometry":{"type":"Point","coordinates":[-46.8861917,-21.5875011]}},{"type":"Feature","properties":{"nome":"Centro","osm_id":6820275230,"osm_tipo":"node","tipo_lugar":"suburb"},"geometry":{"type":"Point","coordinates":[-46.88743,-21.6006713]}},{"type":"Feature","properties":{"nome":"Natal Merli","osm_id":6831028542,"osm_tipo":"node","tipo_lugar":"suburb"},"geometry":{"type":"Point","coordinates":[-46.9060847,-21.5804882]}},{"type":"Feature","properties":{"nome":"Vila Brasil","osm_id":6831514392,"osm_tipo":"node","tipo_lugar":"suburb"},"geometry":{"type":"Point","coordinates":[-46.8979317,-21.6067489]}},{"type":"Feature","properties":{"nome":"Vale do Redentor II","osm_id":6831540790,"osm_tipo":"node","tipo_lugar":"suburb"},"geometry":{"type":"Point","coordinates":[-46.9051079,-21.5844308]}},{"type":"Feature","properties":{"nome":"Carlos Cassucci","osm_id":6831836829,"osm_tipo":"node","tipo_lugar":"suburb"},"geometry":{"type":"Point","coordinates":[-46.9325655,-21.6093064]}},{"type":"Feature","properties":{"nome":"Vila Brasil","osm_id":6841480454,"osm_tipo":"node","tipo_lugar":"suburb"},"geometry":{"type":"Point","coordinates":[-46.8951776,-21.6084695]}},{"type":"Feature","properties":{"nome":"Residêncial dos Lagos","osm_id":11099856414,"osm_tipo":"node","tipo_lugar":"suburb"},"geometry":{"type":"Point","coordinates":[-46.8841864,-21.6098862]}}]}