{"type":"FeatureCollection","features":[{"type":"Feature","properties":{"nome":"Leais","osm_id":12165637455,"osm_tipo":"node","tipo_lugar":"suburb"},"geometry":{"type":"Point","coordinates":[-46.7533659,-22.5524911]}},{"type":"Feature","properties":{"nome":"Tabaranas","osm_id":12165637456,"osm_tipo":"node","tipo_lugar":"suburb"},"geometry":{"type":"Point","coordinates":[-46.6926598,-22.5494605]}},{"type":"Feature","properties":{"nome":"Macacos","osm_id":12165637459,"osm_tipo":"node","tipo_lugar":"suburb"},"geometry":{"type":"Point","coordinates":[-46.7357997,-22.6170543]}},{"type":"Feature","properties":{"nome":"Posses","osm_id":12165637468,"osm_tipo":"node","tipo_lugar":"suburb"},"geometry":{"type":"Point","coordinates":[-46.726073,-22.6331666]}},{"type":"Feature","properties":{"nome":"Francos","osm_id":12165637474,"osm_tipo":"node","tipo_lugar":"suburb"},"geometry":{"type":"Point","coordinates":[-46.6987609,-22.6291943]}},{"type":"Feature","properties":{"nome":"Centro","osm_id":12165637484,"osm_tipo":"node","tipo_lugar":"suburb"},"geometry":{"type":"Point","coordinates":[-46.7011495,-22.6109478]}},{"type":"Feature","properties":{"nome":"Cunhas","osm_id":12165637486,"osm_tipo":"node","tipo_lugar":"suburb"},"geometry":{"type":"Point","coordinates":[-46.692072,-22.613369]}},{"type":"Feature","properties":{"nome":"Três Barras","osm_id":12165637493,"osm_tipo":"node","tipo_lugar":"suburb"},"geometry":{"type":"Point","coordinates":[-46.6705061,-22.5743257]}},{"type":"Feature","properties":{"nome":"Ramalhada","osm_id":12165637495,"osm_tipo":"node","tipo_lugar":"suburb"},"geometry":{"type":"Point","coordinates":[-46.6489982,-22.5654244]}},{"type":"Feature","properties":{"nome":"Barrocão","osm_id":12165637497,"osm_tipo":"node","tipo_lugar":"suburb"},"geometry":{"type":"Point","coordinates":[-46.6745592,-22.6307427]}},{"type":"Feature","properties":{"nome":"Palmeiras","osm_id":12165668906,"osm_tipo":"node","tipo_lugar":"suburb"},"geometry":{"type":"Point","coordinates":[-46.7111107,-22.5991238]}},{"type":"Feature","properties":{"nome":"Belo Horizonte","osm_id":12165668907,"osm_tipo":"node","tipo_lugar":"suburb"},"geometry":{"type":"Point","coordinates":[-46.6939628,-22.5793011]}},{"type":"Feature","properties":{"nome":"Santo Aleixo","osm_id":12165668913,"osm_tipo":"node","tipo_lugar":"suburb"},"geometry":{"type":"Point","coordinates":[-46.7338473,-22.5859417]}},{"type":"Feature","properties":{"nome":"Rodrigues","osm_id":12165789084,"osm_tipo":"node","tipo_lugar":"suburb"},"geometry":{"type":"Point","coordinates":[-46.6332645,-22.5549356]}},{"type":"Feature","properties":{"nome":"Bairro da Serra de Baixo","osm_id":12165789085,"osm_tipo":"node","tipo_lugar":"suburb"},"geometry":{"type":"Point","coordinates":[-46.6250076,-22.5647111]}},{"type":"Feature","properties":{"nome":"Bairro da Serra de Cima","osm_id":12165789086,"osm_tipo":"node","tipo_lugar":"suburb"},"geometry":{"type":"Point","coordinates":[-46.6336358,-22.6318598]}},{"type":"Feature","properties":{"nome":"Costas","osm_id":12165789088,"osm_tipo":"node","tipo_lugar":"suburb"},"geometry":{"type":"Point","coordinates":[-46.6892482,-22.5126244]}}]}