{"type":"FeatureCollection","features":[{"type":"Feature","properties":{"nome":"Guaraciaba d'Oeste","osm_id":8685003645,"osm_tipo":"node","tipo_lugar":"suburb"},"geometry":{"type":"Point","coordinates":[-51.6781243,-21.3762574]}},{"type":"Feature","properties":{"nome":"Vila Camargo","osm_id":13908302989,"osm_tipo":"node","tipo_lugar":"suburb"},"geometry":{"type":"Point","coordinates":[-51.5663159,-21.3847367]}},{"type":"Feature","properties":{"nome":"Vila Staut","osm_id":13908363324,"osm_tipo":"node","tipo_lugar":"suburb"},"geometry":{"type":"Point","coordinates":[-51.5782356,-21.3918696]}},{"type":"Feature","properties":{"nome":"Vila Luzo","osm_id":13908432166,"osm_tipo":"node","tipo_lugar":"suburb"},"geometry":{"type":"Point","coordinates":[-51.5778387,-21.3930084]}},{"type":"Feature","properties":{"nome":"Vila Maracanã","osm_id":13908463120,"osm_tipo":"node","tipo_lugar":"suburb"},"geometry":{"type":"Point","coordinates":[-51.5782034,-21.3954109]}},{"type":"Feature","properties":{"nome":"Vila Mineira","osm_id":13908747336,"osm_tipo":"node","tipo_lugar":"suburb"},"geometry":{"type":"Point","coordinates":[-51.5692824,-21.3838376]}},{"type":"Feature","properties":{"nome":"Vila Nova","osm_id":13908824239,"osm_tipo":"node","tipo_lugar":"suburb"},"geometry":{"type":"Point","coordinates":[-51.5759236,-21.3988372]}},{"type":"Feature","properties":{"nome":"Vila Sampedro","osm_id":13908862609,"osm_tipo":"node","tipo_lugar":"suburb"},"geometry":{"type":"Point","coordinates":[-51.570484,-21.3824739]}},{"type":"Feature","properties":{"nome":"Residencial Alto da Colina","osm_id":13908923422,"osm_tipo":"node","tipo_lugar":"suburb"},"geometry":{"type":"Point","coordinates":[-51.5679413,-21.3913001]}},{"type":"Feature","properties":{"nome":"Residencial Alto do Cafezal","osm_id":13910217310,"osm_tipo":"node","tipo_lugar":"suburb"},"geometry":{"type":"Point","coordinates":[-51.5649319,-21.3920244]}},{"type":"Feature","properties":{"nome":"Residencial Eldorado","osm_id":13910640385,"osm_tipo":"node","tipo_lugar":"suburb"},"geometry":{"type":"Point","coordinates":[-51.5872157,-21.3845419]}},{"type":"Feature","properties":{"nome":"Residencial Santa Isabel","osm_id":13910746579,"osm_tipo":"node","tipo_lugar":"suburb"},"geometry":{"type":"Point","coordinates":[-51.5623087,-21.3840524]}},{"type":"Feature","properties":{"nome":"Residencial Hosoume","osm_id":13910768482,"osm_tipo":"node","tipo_lugar":"suburb"},"geometry":{"type":"Point","coordinates":[-51.5718171,-21.3793294]}},{"type":"Feature","properties":{"nome":"Jardim Antenor","osm_id":13910793286,"osm_tipo":"node","tipo_lugar":"suburb"},"geometry":{"type":"Point","coordinates":[-51.579507,-21.3907832]}},{"type":"Feature","properties":{"nome":"Condomínio Residencial Campestre dos Cem","osm_id":13910810500,"osm_tipo":"node","tipo_lugar":"suburb"},"geometry":{"type":"Point","coordinates":[-51.5855554,-21.3875689]}},{"type":"Feature","properties":{"nome":"Parque Industrial","osm_id":13910811998,"osm_tipo":"node","tipo_lugar":"suburb"},"geometry":{"type":"Point","coordinates":[-51.5852442,-21.3817546]}},{"type":"Feature","properties":{"nome":"Residencial Vila Romana","osm_id":13910813088,"osm_tipo":"node","tipo_lugar":"suburb"},"geometry":{"type":"Point","coordinates":[-51.5842706,-21.3845419]}},{"type":"Feature","properties":{"nome":"Jardim Aparecida","osm_id":13910900844,"osm_tipo":"node","tipo_lugar":"suburb"},"geometry":{"type":"Point","coordinates":[-51.577085,-21.3833231]}},{"type":"Feature","properties":{"nome":"Jardim Aymorés","osm_id":13911394364,"osm_tipo":"node","tipo_lugar":"suburb"},"geometry":{"type":"Point","coordinates":[-51.583069,-21.3853436]}},{"type":"Feature","properties":{"nome":"Jardim Boa Esperança","osm_id":13911409666,"osm_tipo":"node","tipo_lugar":"suburb"},"geometry":{"type":"Point","coordinates":[-51.5862581,-21.3973613]}},{"type":"Feature","properties":{"nome":"Jardim Colomba","osm_id":13911426946,"osm_tipo":"node","tipo_lugar":"suburb"},"geometry":{"type":"Point","coordinates":[-51.5714765,-21.3812951]}},{"type":"Feature","properties":{"nome":"Jardim Bortolato","osm_id":13911442387,"osm_tipo":"node","tipo_lugar":"suburb"},"geometry":{"type":"Point","coordinates":[-51.5654495,-21.38896]}},{"type":"Feature","properties":{"nome":"Jardim das Acácias","osm_id":13911498852,"osm_tipo":"node","tipo_lugar":"suburb"},"geometry":{"type":"Point","coordinates":[-51.5850592,-21.3886329]}},{"type":"Feature","properties":{"nome":"Jardim das Flores","osm_id":13911499845,"osm_tipo":"node","tipo_lugar":"suburb"},"geometry":{"type":"Point","coordinates":[-51.5670455,-21.3817521]}},{"type":"Feature","properties":{"nome":"Jardim Gracianópolis","osm_id":13912606573,"osm_tipo":"node","tipo_lugar":"suburb"},"geometry":{"type":"Point","coordinates":[-51.563741,-21.3811302]}},{"type":"Feature","properties":{"nome":"Jardim Imperial","osm_id":13912629750,"osm_tipo":"node","tipo_lugar":"suburb"},"geometry":{"type":"Point","coordinates":[-51.5794802,-21.3893571]}},{"type":"Feature","properties":{"nome":"Jardim Itália","osm_id":13912640026,"osm_tipo":"node","tipo_lugar":"suburb"},"geometry":{"type":"Point","coordinates":[-51.5822214,-21.3829735]}},{"type":"Feature","properties":{"nome":"Jardim Petrópolis","osm_id":13913245416,"osm_tipo":"node","tipo_lugar":"suburb"},"geometry":{"type":"Point","coordinates":[-51.5798342,-21.3806657]}},{"type":"Feature","properties":{"nome":"Jardim Oriente","osm_id":13913246136,"osm_tipo":"node","tipo_lugar":"suburb"},"geometry":{"type":"Point","coordinates":[-51.5802044,-21.3954658]}},{"type":"Feature","properties":{"nome":"Jardim Portela","osm_id":13913271598,"osm_tipo":"node","tipo_lugar":"suburb"},"geometry":{"type":"Point","coordinates":[-51.5683758,-21.3923191]}},{"type":"Feature","properties":{"nome":"Jardim Primavera","osm_id":13913289492,"osm_tipo":"node","tipo_lugar":"suburb"},"geometry":{"type":"Point","coordinates":[-51.5826345,-21.3953409]}},{"type":"Feature","properties":{"nome":"Jardim Santa Clara","osm_id":13913358502,"osm_tipo":"node","tipo_lugar":"suburb"},"geometry":{"type":"Point","coordinates":[-51.5791878,-21.3785852]}},{"type":"Feature","properties":{"nome":"Centro","osm_id":13913396149,"osm_tipo":"node","tipo_lugar":"suburb"},"geometry":{"type":"Point","coordinates":[-51.5733755,-21.3873791]}}]}