{"type":"FeatureCollection","features":[{"type":"Feature","properties":{"nome":"Conjunto Habitacional Emílio Pazini","osm_id":8681307763,"osm_tipo":"node","tipo_lugar":"suburb"},"geometry":{"type":"Point","coordinates":[-50.0733608,-20.4212868]}},{"type":"Feature","properties":{"nome":"Residencial Montebelo","osm_id":8681307784,"osm_tipo":"node","tipo_lugar":"suburb"},"geometry":{"type":"Point","coordinates":[-50.0816703,-20.417642]}},{"type":"Feature","properties":{"nome":"Jardim dos Ypês","osm_id":8681307785,"osm_tipo":"node","tipo_lugar":"suburb"},"geometry":{"type":"Point","coordinates":[-50.0842935,-20.4139569]}},{"type":"Feature","properties":{"nome":"Residencial Vista Nobre","osm_id":8681307786,"osm_tipo":"node","tipo_lugar":"suburb"},"geometry":{"type":"Point","coordinates":[-50.0864017,-20.4125743]}},{"type":"Feature","properties":{"nome":"Jardim Ouro Branco","osm_id":8758751617,"osm_tipo":"node","tipo_lugar":"suburb"},"geometry":{"type":"Point","coordinates":[-50.0799537,-20.4096281]}},{"type":"Feature","properties":{"nome":"Jardim Europa","osm_id":8762099071,"osm_tipo":"node","tipo_lugar":"suburb"},"geometry":{"type":"Point","coordinates":[-50.0917554,-20.4109052]}},{"type":"Feature","properties":{"nome":"Jardim Espanha","osm_id":8762099072,"osm_tipo":"node","tipo_lugar":"suburb"},"geometry":{"type":"Point","coordinates":[-50.0915301,-20.4142032]}},{"type":"Feature","properties":{"nome":"Jardim Itália","osm_id":8762099073,"osm_tipo":"node","tipo_lugar":"suburb"},"geometry":{"type":"Point","coordinates":[-50.0907522,-20.4163374]}},{"type":"Feature","properties":{"nome":"Residencial Barreto","osm_id":8762099074,"osm_tipo":"node","tipo_lugar":"suburb"},"geometry":{"type":"Point","coordinates":[-50.095768,-20.4131374]}},{"type":"Feature","properties":{"nome":"Jardim São Judas Tadeu","osm_id":8769576560,"osm_tipo":"node","tipo_lugar":"suburb"},"geometry":{"type":"Point","coordinates":[-50.0840092,-20.4274024]}},{"type":"Feature","properties":{"nome":"Jardim Belo Horizonte","osm_id":8769576561,"osm_tipo":"node","tipo_lugar":"suburb"},"geometry":{"type":"Point","coordinates":[-50.090012,-20.4238658]}},{"type":"Feature","properties":{"nome":"Jardim Campo Belo","osm_id":8769576562,"osm_tipo":"node","tipo_lugar":"suburb"},"geometry":{"type":"Point","coordinates":[-50.0912941,-20.4224029]}},{"type":"Feature","properties":{"nome":"Jardim Sanchez","osm_id":8777694704,"osm_tipo":"node","tipo_lugar":"suburb"},"geometry":{"type":"Point","coordinates":[-50.0885582,-20.4079891]}},{"type":"Feature","properties":{"nome":"Jardim Sanchez","osm_id":8777694705,"osm_tipo":"node","tipo_lugar":"suburb"},"geometry":{"type":"Point","coordinates":[-50.091573,-20.4069936]}}]}