{"type":"FeatureCollection","features":[{"type":"Feature","properties":{"nome":"Jardim Bom Clima","osm_id":4320123745,"osm_tipo":"node","tipo_lugar":"suburb"},"geometry":{"type":"Point","coordinates":[-49.9629688,-20.4271849]}},{"type":"Feature","properties":{"nome":"Parque Residencial do Lago","osm_id":4663762528,"osm_tipo":"node","tipo_lugar":"neighbourhood"},"geometry":{"type":"Point","coordinates":[-49.9509501,-20.4292171]}},{"type":"Feature","properties":{"nome":"Jardim das Palmeiras 2","osm_id":4665878769,"osm_tipo":"node","tipo_lugar":"suburb"},"geometry":{"type":"Point","coordinates":[-49.9930115,-20.4401593]}},{"type":"Feature","properties":{"nome":"Vila Guerche","osm_id":4720959736,"osm_tipo":"node","tipo_lugar":"suburb"},"geometry":{"type":"Point","coordinates":[-49.980443,-20.4186198]}},{"type":"Feature","properties":{"nome":"Vila São Lucas","osm_id":4720959737,"osm_tipo":"node","tipo_lugar":"neighbourhood"},"geometry":{"type":"Point","coordinates":[-49.9438215,-20.4228453]}},{"type":"Feature","properties":{"nome":"Jardim Alvorada","osm_id":4726170269,"osm_tipo":"node","tipo_lugar":"suburb"},"geometry":{"type":"Point","coordinates":[-49.9555515,-20.4231105]}},{"type":"Feature","properties":{"nome":"Pozzobon","osm_id":4732875743,"osm_tipo":"node","tipo_lugar":"suburb"},"geometry":{"type":"Point","coordinates":[-49.9698329,-20.4010809]}},{"type":"Feature","properties":{"nome":"Jardim Residencial Eulália","osm_id":5614436726,"osm_tipo":"node","tipo_lugar":"suburb"},"geometry":{"type":"Point","coordinates":[-49.9590075,-20.4100203]}},{"type":"Feature","properties":{"nome":"Jardim Baldissera","osm_id":5614436727,"osm_tipo":"node","tipo_lugar":"suburb"},"geometry":{"type":"Point","coordinates":[-49.9589861,-20.4115487]}},{"type":"Feature","properties":{"nome":"Parque Cidade Jardim 1","osm_id":5614436912,"osm_tipo":"node","tipo_lugar":"suburb"},"geometry":{"type":"Point","coordinates":[-49.9514169,-20.400749]}},{"type":"Feature","properties":{"nome":"Vila Recanto das Águas","osm_id":5618176567,"osm_tipo":"node","tipo_lugar":"suburb"},"geometry":{"type":"Point","coordinates":[-49.9592328,-20.406154]}},{"type":"Feature","properties":{"nome":"Distrito Empresarial Valdevir Davanço","osm_id":5642324976,"osm_tipo":"node","tipo_lugar":"suburb"},"geometry":{"type":"Point","coordinates":[-49.9899387,-20.3840956]}},{"type":"Feature","properties":{"nome":"Polo Comercial e Industrial de Votuporanga","osm_id":5657047446,"osm_tipo":"node","tipo_lugar":"suburb"},"geometry":{"type":"Point","coordinates":[-49.9887425,-20.4040172]}},{"type":"Feature","properties":{"nome":"Cecap 2","osm_id":5657047448,"osm_tipo":"node","tipo_lugar":"suburb"},"geometry":{"type":"Point","coordinates":[-49.989531,-20.4104451]}},{"type":"Feature","properties":{"nome":"Parque das Brisas","osm_id":5657047453,"osm_tipo":"node","tipo_lugar":"suburb"},"geometry":{"type":"Point","coordinates":[-49.9913818,-20.4099348]}},{"type":"Feature","properties":{"nome":"Vila Filomena","osm_id":5657047454,"osm_tipo":"node","tipo_lugar":"suburb"},"geometry":{"type":"Point","coordinates":[-49.9899334,-20.4084265]}},{"type":"Feature","properties":{"nome":"Jardim Flora","osm_id":5657047455,"osm_tipo":"node","tipo_lugar":"suburb"},"geometry":{"type":"Point","coordinates":[-49.9904805,-20.4072098]}},{"type":"Feature","properties":{"nome":"Jardim Villa Lobos","osm_id":5657048560,"osm_tipo":"node","tipo_lugar":"suburb"},"geometry":{"type":"Point","coordinates":[-49.986425,-20.406516]}},{"type":"Feature","properties":{"nome":"Parque Boa Vista 2","osm_id":5657048582,"osm_tipo":"node","tipo_lugar":"suburb"},"geometry":{"type":"Point","coordinates":[-50.0015473,-20.3991099]}},{"type":"Feature","properties":{"nome":"Parque Boa Vista 1","osm_id":5657048583,"osm_tipo":"node","tipo_lugar":"suburb"},"geometry":{"type":"Point","coordinates":[-49.9984253,-20.4006384]}},{"type":"Feature","properties":{"nome":"Jardim das Carobeiras","osm_id":5657048584,"osm_tipo":"node","tipo_lugar":"suburb"},"geometry":{"type":"Point","coordinates":[-49.9993265,-20.4031021]}},{"type":"Feature","properties":{"nome":"Quarto Distrito Industrial Ronaldo Abrão David Sayeg","osm_id":5657048585,"osm_tipo":"node","tipo_lugar":"suburb"},"geometry":{"type":"Point","coordinates":[-49.9962473,-20.4083813]}},{"type":"Feature","properties":{"nome":"Terceiro Distrito Industrial Pedro Cerantula","osm_id":5657048586,"osm_tipo":"node","tipo_lugar":"suburb"},"geometry":{"type":"Point","coordinates":[-49.9969983,-20.4074461]}},{"type":"Feature","properties":{"nome":"Segundo Distrito Industrial","osm_id":5657048587,"osm_tipo":"node","tipo_lugar":"suburb"},"geometry":{"type":"Point","coordinates":[-49.9961615,-20.4066015]}},{"type":"Feature","properties":{"nome":"Belo Horizonte 2","osm_id":5657048588,"osm_tipo":"node","tipo_lugar":"suburb"},"geometry":{"type":"Point","coordinates":[-50.0033015,-20.4103094]}},{"type":"Feature","properties":{"nome":"Belo Horizonte 1","osm_id":5657048589,"osm_tipo":"node","tipo_lugar":"suburb"},"geometry":{"type":"Point","coordinates":[-50.0015903,-20.4093567]}},{"type":"Feature","properties":{"nome":"Conjunto Habitacional Sonho Meu","osm_id":5657567953,"osm_tipo":"node","tipo_lugar":"neighbourhood"},"geometry":{"type":"Point","coordinates":[-49.9952763,-20.4409624]}},{"type":"Feature","properties":{"nome":"Jardim Monte Alto","osm_id":5657567964,"osm_tipo":"node","tipo_lugar":"suburb"},"geometry":{"type":"Point","coordinates":[-49.9928892,-20.4351062]}},{"type":"Feature","properties":{"nome":"Jardim Umuarama","osm_id":5659249696,"osm_tipo":"node","tipo_lugar":"suburb"},"geometry":{"type":"Point","coordinates":[-49.981699,-20.4316527]}},{"type":"Feature","properties":{"nome":"Bairro São João","osm_id":5659249697,"osm_tipo":"node","tipo_lugar":"suburb"},"geometry":{"type":"Point","coordinates":[-49.9767315,-20.43581]}},{"type":"Feature","properties":{"nome":"Bairro da Estação","osm_id":5659249698,"osm_tipo":"node","tipo_lugar":"suburb"},"geometry":{"type":"Point","coordinates":[-49.9855399,-20.4383133]}},{"type":"Feature","properties":{"nome":"Jardim das Palmeiras","osm_id":5659249699,"osm_tipo":"node","tipo_lugar":"suburb"},"geometry":{"type":"Point","coordinates":[-49.9901211,-20.435629]}},{"type":"Feature","properties":{"nome":"Vale do Sol","osm_id":5661799022,"osm_tipo":"node","tipo_lugar":"suburb"},"geometry":{"type":"Point","coordinates":[-49.9603272,-20.4205076]}},{"type":"Feature","properties":{"nome":"Jardim dos Ypês","osm_id":5661799023,"osm_tipo":"node","tipo_lugar":"suburb"},"geometry":{"type":"Point","coordinates":[-49.9516958,-20.4275658]}},{"type":"Feature","properties":{"nome":"Jardim Portal do Sol","osm_id":5661799064,"osm_tipo":"node","tipo_lugar":"suburb"},"geometry":{"type":"Point","coordinates":[-49.9456447,-20.4267615]}},{"type":"Feature","properties":{"nome":"Conjunto Habitacional Jamir D'Antônio","osm_id":5661799082,"osm_tipo":"node","tipo_lugar":"neighbourhood"},"geometry":{"type":"Point","coordinates":[-49.9527472,-20.4329849]}},{"type":"Feature","properties":{"nome":"Jardim Vilar 3","osm_id":5661799083,"osm_tipo":"node","tipo_lugar":"suburb"},"geometry":{"type":"Point","coordinates":[-49.9443412,-20.4313612]}},{"type":"Feature","properties":{"nome":"Jardim Santa Paula","osm_id":5661799092,"osm_tipo":"node","tipo_lugar":"suburb"},"geometry":{"type":"Point","coordinates":[-49.9613464,-20.4357396]}},{"type":"Feature","properties":{"nome":"Residencial Jardim Athenas","osm_id":5661799677,"osm_tipo":"node","tipo_lugar":"neighbourhood"},"geometry":{"type":"Point","coordinates":[-49.9661422,-20.4380368]}},{"type":"Feature","properties":{"nome":"Parque Residencial Santa Amélia","osm_id":5673521880,"osm_tipo":"node","tipo_lugar":"neighbourhood"},"geometry":{"type":"Point","coordinates":[-49.974103,-20.396978]}},{"type":"Feature","properties":{"nome":"Conjunto Habitacional João Albarello","osm_id":5673521881,"osm_tipo":"node","tipo_lugar":"neighbourhood"},"geometry":{"type":"Point","coordinates":[-49.9697471,-20.3943735]}},{"type":"Feature","properties":{"nome":"Jardim Residencial Prado","osm_id":5673521882,"osm_tipo":"node","tipo_lugar":"suburb"},"geometry":{"type":"Point","coordinates":[-49.9758196,-20.3952484]}},{"type":"Feature","properties":{"nome":"Jardim Canaã","osm_id":5673521883,"osm_tipo":"node","tipo_lugar":"suburb"},"geometry":{"type":"Point","coordinates":[-49.967022,-20.3924024]}},{"type":"Feature","properties":{"nome":"Park Residencial Colinas","osm_id":5673521884,"osm_tipo":"node","tipo_lugar":"suburb"},"geometry":{"type":"Point","coordinates":[-49.970305,-20.3904515]}},{"type":"Feature","properties":{"nome":"Conjunto Habitacional Vereador José Nunes","osm_id":5673521885,"osm_tipo":"node","tipo_lugar":"neighbourhood"},"geometry":{"type":"Point","coordinates":[-49.9734753,-20.3929455]}},{"type":"Feature","properties":{"nome":"Jardim Belas Águas","osm_id":5673522790,"osm_tipo":"node","tipo_lugar":"suburb"},"geometry":{"type":"Point","coordinates":[-49.9777561,-20.3905168]}},{"type":"Feature","properties":{"nome":"Vila Célio Honório Júnior","osm_id":5673522791,"osm_tipo":"node","tipo_lugar":"neighbourhood"},"geometry":{"type":"Point","coordinates":[-49.9818009,-20.3891843]}},{"type":"Feature","properties":{"nome":"Jardim Residencial Moreira","osm_id":5673522792,"osm_tipo":"node","tipo_lugar":"neighbourhood"},"geometry":{"type":"Point","coordinates":[-49.9854541,-20.3895011]}},{"type":"Feature","properties":{"nome":"Jardim Barcelona","osm_id":5673522793,"osm_tipo":"node","tipo_lugar":"neighbourhood"},"geometry":{"type":"Point","coordinates":[-49.9839038,-20.3867405]}},{"type":"Feature","properties":{"nome":"Vila Formosa","osm_id":5673522794,"osm_tipo":"node","tipo_lugar":"neighbourhood"},"geometry":{"type":"Point","coordinates":[-49.9860174,-20.3852974]}},{"type":"Feature","properties":{"nome":"Jardim Itália","osm_id":5673522795,"osm_tipo":"node","tipo_lugar":"neighbourhood"},"geometry":{"type":"Point","coordinates":[-49.9836731,-20.3852672]}},{"type":"Feature","properties":{"nome":"Jardim Roma","osm_id":5673522796,"osm_tipo":"node","tipo_lugar":"neighbourhood"},"geometry":{"type":"Point","coordinates":[-49.9820691,-20.3823557]}},{"type":"Feature","properties":{"nome":"Jardim Paulista","osm_id":5709620909,"osm_tipo":"node","tipo_lugar":"suburb"},"geometry":{"type":"Point","coordinates":[-49.9614751,-20.4184464]}},{"type":"Feature","properties":{"nome":"Parque Residencial Waldomiro Nogueira Borges","osm_id":5709860037,"osm_tipo":"node","tipo_lugar":"neighbourhood"},"geometry":{"type":"Point","coordinates":[-49.9909741,-20.4244339]}},{"type":"Feature","properties":{"nome":"Loteamento Campo Limpo","osm_id":5709860038,"osm_tipo":"node","tipo_lugar":"neighbourhood"},"geometry":{"type":"Point","coordinates":[-49.9888283,-20.4239111]}},{"type":"Feature","properties":{"nome":"Jardim Residencial Dharma","osm_id":5709860039,"osm_tipo":"node","tipo_lugar":"neighbourhood"},"geometry":{"type":"Point","coordinates":[-49.9902338,-20.4283048]}},{"type":"Feature","properties":{"nome":"Jardim São Rafael","osm_id":5709860040,"osm_tipo":"node","tipo_lugar":"suburb"},"geometry":{"type":"Point","coordinates":[-49.9916312,-20.4210908]}},{"type":"Feature","properties":{"nome":"Residencial Divina de Carvalho Nogueira","osm_id":5709860045,"osm_tipo":"node","tipo_lugar":"neighbourhood"},"geometry":{"type":"Point","coordinates":[-49.9880639,-20.4310696]}},{"type":"Feature","properties":{"nome":"Condomínio Residencial Villaggio San Remo","osm_id":5869005470,"osm_tipo":"node","tipo_lugar":"neighbourhood"},"geometry":{"type":"Point","coordinates":[-49.9819994,-20.4082631]}},{"type":"Feature","properties":{"nome":"Parque Residencial Anna Munhoz Álvares","osm_id":6284705143,"osm_tipo":"node","tipo_lugar":"neighbourhood"},"geometry":{"type":"Point","coordinates":[-50.011611,-20.4136201]}},{"type":"Feature","properties":{"nome":"Parque Residencial Ferrarez","osm_id":6284705154,"osm_tipo":"node","tipo_lugar":"neighbourhood"},"geometry":{"type":"Point","coordinates":[-50.0040686,-20.4147764]}},{"type":"Feature","properties":{"nome":"Jardim Residencial Moriá","osm_id":6284705155,"osm_tipo":"node","tipo_lugar":"neighbourhood"},"geometry":{"type":"Point","coordinates":[-49.9984574,-20.4039267]}},{"type":"Feature","properties":{"nome":"Jardim de Bortole","osm_id":6284705156,"osm_tipo":"node","tipo_lugar":"suburb"},"geometry":{"type":"Point","coordinates":[-49.9967194,-20.4051635]}},{"type":"Feature","properties":{"nome":"Oitavo Distrito Empresarial","osm_id":6284705157,"osm_tipo":"node","tipo_lugar":"suburb"},"geometry":{"type":"Point","coordinates":[-49.9973524,-20.421322]}},{"type":"Feature","properties":{"nome":"Jardim Residencial Monte Verde","osm_id":6284705158,"osm_tipo":"node","tipo_lugar":"neighbourhood"},"geometry":{"type":"Point","coordinates":[-49.9993426,-20.4223828]}},{"type":"Feature","properties":{"nome":"Jardim Residencial Noroeste","osm_id":6284705159,"osm_tipo":"node","tipo_lugar":"neighbourhood"},"geometry":{"type":"Point","coordinates":[-49.9995571,-20.4236949]}},{"type":"Feature","properties":{"nome":"Jardim Portal das Brisas","osm_id":6284705160,"osm_tipo":"node","tipo_lugar":"neighbourhood"},"geometry":{"type":"Point","coordinates":[-50.0007802,-20.4250874]}},{"type":"Feature","properties":{"nome":"Conjunto Habitacional Votuporanga C","osm_id":6284714085,"osm_tipo":"node","tipo_lugar":"neighbourhood"},"geometry":{"type":"Point","coordinates":[-49.9601689,-20.4039518]}},{"type":"Feature","properties":{"nome":"Loteamento Vila Ipiranga","osm_id":6371340569,"osm_tipo":"node","tipo_lugar":"neighbourhood"},"geometry":{"type":"Point","coordinates":[-49.9748969,-20.4383284]}},{"type":"Feature","properties":{"nome":"Chácara das Paineiras","osm_id":6373327031,"osm_tipo":"node","tipo_lugar":"neighbourhood"},"geometry":{"type":"Point","coordinates":[-49.9921864,-20.4182855]}},{"type":"Feature","properties":{"nome":"Parque das Nações","osm_id":6389495704,"osm_tipo":"node","tipo_lugar":"suburb"},"geometry":{"type":"Point","coordinates":[-49.9832708,-20.3955651]}},{"type":"Feature","properties":{"nome":"Loteamento Comercial Nova Alvorada","osm_id":6389495729,"osm_tipo":"node","tipo_lugar":"neighbourhood"},"geometry":{"type":"Point","coordinates":[-49.9370241,-20.4299285]}},{"type":"Feature","properties":{"nome":"Jardim Morada do Sol","osm_id":7538961357,"osm_tipo":"node","tipo_lugar":"suburb"},"geometry":{"type":"Point","coordinates":[-49.9583584,-20.3994569]}},{"type":"Feature","properties":{"nome":"Residencial João Zanon","osm_id":7538961380,"osm_tipo":"node","tipo_lugar":"neighbourhood"},"geometry":{"type":"Point","coordinates":[-49.9788827,-20.3879323]}},{"type":"Feature","properties":{"nome":"Parque Residencial Figueira","osm_id":8127504808,"osm_tipo":"node","tipo_lugar":"suburb"},"geometry":{"type":"Point","coordinates":[-49.9754709,-20.4449132]}},{"type":"Feature","properties":{"nome":"Loteamento São Vicente de Paulo","osm_id":8222990799,"osm_tipo":"node","tipo_lugar":"neighbourhood"},"geometry":{"type":"Point","coordinates":[-49.9619821,-20.4073607]}},{"type":"Feature","properties":{"nome":"Residencial Vila Bela","osm_id":8222990800,"osm_tipo":"node","tipo_lugar":"neighbourhood"},"geometry":{"type":"Point","coordinates":[-49.9613223,-20.4059001]}},{"type":"Feature","properties":{"nome":"Vila Portal 2","osm_id":8222990801,"osm_tipo":"node","tipo_lugar":"suburb"},"geometry":{"type":"Point","coordinates":[-49.9577549,-20.4081852]}},{"type":"Feature","properties":{"nome":"Jardim Alto Alegre","osm_id":8225767188,"osm_tipo":"node","tipo_lugar":"suburb"},"geometry":{"type":"Point","coordinates":[-50.0080329,-20.4253438]}},{"type":"Feature","properties":{"nome":"Dharma Ville","osm_id":8225767211,"osm_tipo":"node","tipo_lugar":"suburb"},"geometry":{"type":"Point","coordinates":[-49.9946272,-20.4253136]}},{"type":"Feature","properties":{"nome":"Jardim Monte Líbano","osm_id":8229184644,"osm_tipo":"node","tipo_lugar":"neighbourhood"},"geometry":{"type":"Point","coordinates":[-49.9718231,-20.3873741]}},{"type":"Feature","properties":{"nome":"Distrito Industrial Alcides Alves da Silva","osm_id":8229184645,"osm_tipo":"node","tipo_lugar":"suburb"},"geometry":{"type":"Point","coordinates":[-50.0031352,-20.4339299]}},{"type":"Feature","properties":{"nome":"Jardim Vivendas","osm_id":8304671496,"osm_tipo":"node","tipo_lugar":"suburb"},"geometry":{"type":"Point","coordinates":[-49.989633,-20.4435913]}},{"type":"Feature","properties":{"nome":"Jardim Santa Iracema","osm_id":8312853607,"osm_tipo":"node","tipo_lugar":"suburb"},"geometry":{"type":"Point","coordinates":[-49.980433,-20.4023932]}},{"type":"Feature","properties":{"nome":"Parque Rio Vermelho","osm_id":8312853608,"osm_tipo":"node","tipo_lugar":"neighbourhood"},"geometry":{"type":"Point","coordinates":[-49.979564,-20.4042183]}},{"type":"Feature","properties":{"nome":"Jardim Morini","osm_id":8312853609,"osm_tipo":"node","tipo_lugar":"neighbourhood"},"geometry":{"type":"Point","coordinates":[-49.9802399,-20.4033988]}},{"type":"Feature","properties":{"nome":"Parque Industrial I","osm_id":8592949537,"osm_tipo":"node","tipo_lugar":"suburb"},"geometry":{"type":"Point","coordinates":[-49.9706462,-20.4063444]}},{"type":"Feature","properties":{"nome":"Santa Alice","osm_id":8592993952,"osm_tipo":"node","tipo_lugar":"suburb"},"geometry":{"type":"Point","coordinates":[-49.979884,-20.4083019]}},{"type":"Feature","properties":{"nome":"Jardim Mastrocola Norte 1","osm_id":10035058459,"osm_tipo":"node","tipo_lugar":"neighbourhood"},"geometry":{"type":"Point","coordinates":[-49.9807227,-20.3828837]}},{"type":"Feature","properties":{"nome":"Jardim Mastrocola Norte 2","osm_id":10035058473,"osm_tipo":"node","tipo_lugar":"neighbourhood"},"geometry":{"type":"Point","coordinates":[-49.976753,-20.3841056]}},{"type":"Feature","properties":{"nome":"Loteamento São Damião","osm_id":10224094773,"osm_tipo":"node","tipo_lugar":"suburb"},"geometry":{"type":"Point","coordinates":[-49.9463368,-20.4210506]}},{"type":"Feature","properties":{"nome":"Loteamento São Cosme","osm_id":10224253178,"osm_tipo":"node","tipo_lugar":"suburb"},"geometry":{"type":"Point","coordinates":[-49.9506042,-20.418009]}},{"type":"Feature","properties":{"nome":"Parque Santa Felícia Jardim","osm_id":10224550609,"osm_tipo":"node","tipo_lugar":"neighbourhood"},"geometry":{"type":"Point","coordinates":[-49.9502957,-20.4301497]}},{"type":"Feature","properties":{"nome":"Jardim Vilar 2","osm_id":10224585253,"osm_tipo":"node","tipo_lugar":"suburb"},"geometry":{"type":"Point","coordinates":[-49.9446952,-20.4281791]}},{"type":"Feature","properties":{"nome":"Residencial Francisco Marin Cruz","osm_id":10224590394,"osm_tipo":"node","tipo_lugar":"neighbourhood"},"geometry":{"type":"Point","coordinates":[-49.9495661,-20.4272692]}},{"type":"Feature","properties":{"nome":"Vila Francesa","osm_id":10224616682,"osm_tipo":"node","tipo_lugar":"neighbourhood"},"geometry":{"type":"Point","coordinates":[-49.9552471,-20.4281539]}},{"type":"Feature","properties":{"nome":"Jardim Vilar","osm_id":10224622663,"osm_tipo":"node","tipo_lugar":"suburb"},"geometry":{"type":"Point","coordinates":[-49.950639,-20.4311249]}},{"type":"Feature","properties":{"nome":"Loteamento Bortolote","osm_id":10224638840,"osm_tipo":"node","tipo_lugar":"neighbourhood"},"geometry":{"type":"Point","coordinates":[-49.9581814,-20.4304312]}},{"type":"Feature","properties":{"nome":"Parque Cidade Jardim 2","osm_id":10592536932,"osm_tipo":"node","tipo_lugar":"suburb"},"geometry":{"type":"Point","coordinates":[-49.9504459,-20.3990395]}},{"type":"Feature","properties":{"nome":"Jardim Bom Clima","osm_id":11833719428,"osm_tipo":"node","tipo_lugar":"suburb"},"geometry":{"type":"Point","coordinates":[-49.9493408,-20.4251628]}},{"type":"Feature","properties":{"nome":"Pampa Ville","osm_id":11860437054,"osm_tipo":"node","tipo_lugar":"suburb"},"geometry":{"type":"Point","coordinates":[-50.0145185,-20.3894257]}},{"type":"Feature","properties":{"nome":"Vila Anna","osm_id":12105325699,"osm_tipo":"node","tipo_lugar":"neighbourhood"},"geometry":{"type":"Point","coordinates":[-49.9604183,-20.4080796]}},{"type":"Feature","properties":{"nome":"Jardim Universitário","osm_id":12105350872,"osm_tipo":"node","tipo_lugar":"suburb"},"geometry":{"type":"Point","coordinates":[-49.9587554,-20.4138413]}},{"type":"Feature","properties":{"nome":"Jardim Pró-Povo","osm_id":12105407152,"osm_tipo":"node","tipo_lugar":"neighbourhood"},"geometry":{"type":"Point","coordinates":[-49.9614859,-20.3987077]}},{"type":"Feature","properties":{"nome":"Jardim Brisa Suave","osm_id":12639732621,"osm_tipo":"node","tipo_lugar":"neighbourhood"},"geometry":{"type":"Point","coordinates":[-49.9723864,-20.3983758]}},{"type":"Feature","properties":{"nome":"Residencial Morini I","osm_id":12706395838,"osm_tipo":"node","tipo_lugar":"neighbourhood"},"geometry":{"type":"Point","coordinates":[-49.9783677,-20.3939008]}},{"type":"Feature","properties":{"nome":"Residencial Sanches","osm_id":12960244782,"osm_tipo":"node","tipo_lugar":"neighbourhood"},"geometry":{"type":"Point","coordinates":[-49.9790409,-20.4090889]}},{"type":"Feature","properties":{"nome":"Loteamento Comercial Nova Alvorada","osm_id":14945631,"osm_tipo":"relation","tipo_lugar":"neighbourhood"},"geometry":{"type":"MultiPolygon","coordinates":[[[[-49.9343623,-20.4325022],[-49.93608,-20.4316075],[-49.9360049,-20.4313662],[-49.9389768,-20.4297023],[-49.9343623,-20.4325022]]],[[[-49.9389768,-20.4297023],[-49.9390358,-20.4286466],[-49.9394488,-20.4276814],[-49.9389768,-20.4297023]]],[[[-49.9394488,-20.4276814],[-49.9384135,-20.4282005],[-49.9369048,-20.4291493],[-49.9346467,-20.4303974],[-49.9394488,-20.4276814]]]]}},{"type":"Feature","properties":{"nome":"Jardim Vilar 2","osm_id":14946189,"osm_tipo":"relation","tipo_lugar":"suburb"},"geometry":{"type":"Polygon","coordinates":[[[-49.9418039,-20.4272566],[-49.9470033,-20.4285538],[-49.9404822,-20.4285543],[-49.9418039,-20.4272566]]]}}]}