{"type":"FeatureCollection","features":[{"type":"Feature","properties":{"nome":"Portuário do Igarapé da Fortaleza","osm_id":416647306,"osm_tipo":"node","tipo_lugar":"suburb"},"geometry":{"type":"Point","coordinates":[-51.1376053,-0.0495679]}},{"type":"Feature","properties":{"nome":"Fazendinha","osm_id":416647307,"osm_tipo":"node","tipo_lugar":"suburb"},"geometry":{"type":"Point","coordinates":[-51.1215657,-0.0358182]}},{"type":"Feature","properties":{"nome":"Coração","osm_id":416652578,"osm_tipo":"node","tipo_lugar":"suburb"},"geometry":{"type":"Point","coordinates":[-51.1727849,0.0258815]}},{"type":"Feature","properties":{"nome":"Alvorada","osm_id":3910264100,"osm_tipo":"node","tipo_lugar":"suburb"},"geometry":{"type":"Point","coordinates":[-51.0923887,0.0369926]}},{"type":"Feature","properties":{"nome":"Araxá","osm_id":3910264101,"osm_tipo":"node","tipo_lugar":"suburb"},"geometry":{"type":"Point","coordinates":[-51.0612117,0.0028134]}},{"type":"Feature","properties":{"nome":"Beirol","osm_id":3910264102,"osm_tipo":"node","tipo_lugar":"suburb"},"geometry":{"type":"Point","coordinates":[-51.0641792,0.0165143]}},{"type":"Feature","properties":{"nome":"Boné Azul","osm_id":3910264103,"osm_tipo":"node","tipo_lugar":"suburb"},"geometry":{"type":"Point","coordinates":[-51.0731762,0.0903817]}},{"type":"Feature","properties":{"nome":"Brasil Novo","osm_id":3910264104,"osm_tipo":"node","tipo_lugar":"suburb"},"geometry":{"type":"Point","coordinates":[-51.0955937,0.0965796]}},{"type":"Feature","properties":{"nome":"Buritizal","osm_id":3910264105,"osm_tipo":"node","tipo_lugar":"suburb"},"geometry":{"type":"Point","coordinates":[-51.072134,0.0225249]}},{"type":"Feature","properties":{"nome":"Cabralzinho","osm_id":3910264106,"osm_tipo":"node","tipo_lugar":"suburb"},"geometry":{"type":"Point","coordinates":[-51.1143851,0.0221658]}},{"type":"Feature","properties":{"nome":"Cidade Nova","osm_id":3910264107,"osm_tipo":"node","tipo_lugar":"suburb"},"geometry":{"type":"Point","coordinates":[-51.044508,0.0547191]}},{"type":"Feature","properties":{"nome":"Congós","osm_id":3910264108,"osm_tipo":"node","tipo_lugar":"suburb"},"geometry":{"type":"Point","coordinates":[-51.0962797,0.0103266]}},{"type":"Feature","properties":{"nome":"Infraero","osm_id":3910264109,"osm_tipo":"node","tipo_lugar":"suburb"},"geometry":{"type":"Point","coordinates":[-51.0649151,0.0711238]}},{"type":"Feature","properties":{"nome":"Jardim Equatorial","osm_id":3910264110,"osm_tipo":"node","tipo_lugar":"suburb"},"geometry":{"type":"Point","coordinates":[-51.0681334,0.0083165]}},{"type":"Feature","properties":{"nome":"Jardim Felicidade","osm_id":3910264111,"osm_tipo":"node","tipo_lugar":"suburb"},"geometry":{"type":"Point","coordinates":[-51.0613676,0.0868926]}},{"type":"Feature","properties":{"nome":"Jesus de Nazaré","osm_id":3910264112,"osm_tipo":"node","tipo_lugar":"suburb"},"geometry":{"type":"Point","coordinates":[-51.0637001,0.047719]}},{"type":"Feature","properties":{"nome":"São Lázaro","osm_id":3910264113,"osm_tipo":"node","tipo_lugar":"suburb"},"geometry":{"type":"Point","coordinates":[-51.0584343,0.0723982]}},{"type":"Feature","properties":{"nome":"Jardim Marco Zero","osm_id":3910264114,"osm_tipo":"node","tipo_lugar":"suburb"},"geometry":{"type":"Point","coordinates":[-51.0790699,0.0035337]}},{"type":"Feature","properties":{"nome":"Nova Esperança","osm_id":3910264115,"osm_tipo":"node","tipo_lugar":"suburb"},"geometry":{"type":"Point","coordinates":[-51.0820746,0.0292322]}},{"type":"Feature","properties":{"nome":"Novo Buritizal","osm_id":3910264116,"osm_tipo":"node","tipo_lugar":"suburb"},"geometry":{"type":"Point","coordinates":[-51.0841709,0.0188976]}},{"type":"Feature","properties":{"nome":"Novo Horizonte","osm_id":3910264117,"osm_tipo":"node","tipo_lugar":"suburb"},"geometry":{"type":"Point","coordinates":[-51.0473044,0.0935]}},{"type":"Feature","properties":{"nome":"Pacoval","osm_id":3910264118,"osm_tipo":"node","tipo_lugar":"suburb"},"geometry":{"type":"Point","coordinates":[-51.0547488,0.0580543]}},{"type":"Feature","properties":{"nome":"Pedrinhas","osm_id":3910264119,"osm_tipo":"node","tipo_lugar":"suburb"},"geometry":{"type":"Point","coordinates":[-51.0685672,0.0031607]}},{"type":"Feature","properties":{"nome":"Perpétuo Socorro","osm_id":3910264120,"osm_tipo":"node","tipo_lugar":"suburb"},"geometry":{"type":"Point","coordinates":[-51.0465916,0.0468585]}},{"type":"Feature","properties":{"nome":"Santa Inês","osm_id":3910264121,"osm_tipo":"node","tipo_lugar":"suburb"},"geometry":{"type":"Point","coordinates":[-51.0580779,0.0199799]}},{"type":"Feature","properties":{"nome":"Santa Rita","osm_id":3910264122,"osm_tipo":"node","tipo_lugar":"suburb"},"geometry":{"type":"Point","coordinates":[-51.0750121,0.0374947]}},{"type":"Feature","properties":{"nome":"Renascer","osm_id":3910264123,"osm_tipo":"node","tipo_lugar":"suburb"},"geometry":{"type":"Point","coordinates":[-51.0513327,0.0747285]}},{"type":"Feature","properties":{"nome":"Trem","osm_id":3910264124,"osm_tipo":"node","tipo_lugar":"suburb"},"geometry":{"type":"Point","coordinates":[-51.0618431,0.0254167]}},{"type":"Feature","properties":{"nome":"Universidade","osm_id":3910264125,"osm_tipo":"node","tipo_lugar":"suburb"},"geometry":{"type":"Point","coordinates":[-51.0895555,-0.0112137]}},{"type":"Feature","properties":{"nome":"Zerão","osm_id":3910264126,"osm_tipo":"node","tipo_lugar":"suburb"},"geometry":{"type":"Point","coordinates":[-51.0987801,-0.0017167]}},{"type":"Feature","properties":{"nome":"Laguinho","osm_id":4777862344,"osm_tipo":"node","tipo_lugar":"suburb"},"geometry":{"type":"Point","coordinates":[-51.0566332,0.0469948]}},{"type":"Feature","properties":{"nome":"Lago da Vaca","osm_id":5042306583,"osm_tipo":"node","tipo_lugar":"suburb"},"geometry":{"type":"Point","coordinates":[-51.0417262,0.0853991]}},{"type":"Feature","properties":{"nome":"Pantanal","osm_id":5042319739,"osm_tipo":"node","tipo_lugar":"suburb"},"geometry":{"type":"Point","coordinates":[-51.0455918,0.0710961]}},{"type":"Feature","properties":{"nome":"Loteamento Terra Nova","osm_id":5068059531,"osm_tipo":"node","tipo_lugar":"neighbourhood"},"geometry":{"type":"Point","coordinates":[-51.106134,0.0944494]}},{"type":"Feature","properties":{"nome":"Infraero II","osm_id":5824574405,"osm_tipo":"node","tipo_lugar":"suburb"},"geometry":{"type":"Point","coordinates":[-51.0812355,0.0718207]}},{"type":"Feature","properties":{"nome":"Açai","osm_id":5824574406,"osm_tipo":"node","tipo_lugar":"suburb"},"geometry":{"type":"Point","coordinates":[-51.0803987,0.0781507]}},{"type":"Feature","properties":{"nome":"Parque dos Buritis","osm_id":5824574407,"osm_tipo":"node","tipo_lugar":"suburb"},"geometry":{"type":"Point","coordinates":[-51.0895611,0.0721855]}},{"type":"Feature","properties":{"nome":"Ilha Mirim","osm_id":5824574408,"osm_tipo":"node","tipo_lugar":"suburb"},"geometry":{"type":"Point","coordinates":[-51.1008907,0.0607057]}},{"type":"Feature","properties":{"nome":"Macapába","osm_id":5834930777,"osm_tipo":"node","tipo_lugar":"suburb"},"geometry":{"type":"Point","coordinates":[-51.0961099,0.084617]}},{"type":"Feature","properties":{"nome":"Ipê","osm_id":5834930791,"osm_tipo":"node","tipo_lugar":"suburb"},"geometry":{"type":"Point","coordinates":[-51.061856,0.1018702]}},{"type":"Feature","properties":{"nome":"Ressaca Beirol","osm_id":7891549836,"osm_tipo":"node","tipo_lugar":"neighbourhood"},"geometry":{"type":"Point","coordinates":[-51.0666069,0.0111231]}},{"type":"Feature","properties":{"nome":"KM 9","osm_id":8144019481,"osm_tipo":"node","tipo_lugar":"suburb"},"geometry":{"type":"Point","coordinates":[-51.1255646,0.0743723]}},{"type":"Feature","properties":{"nome":"Cajari","osm_id":8144019518,"osm_tipo":"node","tipo_lugar":"suburb"},"geometry":{"type":"Point","coordinates":[-51.1099112,0.0316715]}},{"type":"Feature","properties":{"nome":"Marabaixo I","osm_id":8144019522,"osm_tipo":"node","tipo_lugar":"suburb"},"geometry":{"type":"Point","coordinates":[-51.1238802,0.0374329]}},{"type":"Feature","properties":{"nome":"Bella Ville","osm_id":8144019586,"osm_tipo":"node","tipo_lugar":"suburb"},"geometry":{"type":"Point","coordinates":[-51.1348987,0.040437]}},{"type":"Feature","properties":{"nome":"Marabaixo II","osm_id":8144019588,"osm_tipo":"node","tipo_lugar":"suburb"},"geometry":{"type":"Point","coordinates":[-51.131959,0.0413382]}},{"type":"Feature","properties":{"nome":"Marabaixo III","osm_id":8144019600,"osm_tipo":"node","tipo_lugar":"suburb"},"geometry":{"type":"Point","coordinates":[-51.1252856,0.0495458]}},{"type":"Feature","properties":{"nome":"São José","osm_id":8144019606,"osm_tipo":"node","tipo_lugar":"suburb"},"geometry":{"type":"Point","coordinates":[-51.1445976,0.0393748]}},{"type":"Feature","properties":{"nome":"Lagoa Azul","osm_id":8144019629,"osm_tipo":"node","tipo_lugar":"suburb"},"geometry":{"type":"Point","coordinates":[-51.1489106,0.0175095]}},{"type":"Feature","properties":{"nome":"Goiabal","osm_id":8144019699,"osm_tipo":"node","tipo_lugar":"suburb"},"geometry":{"type":"Point","coordinates":[-51.1305428,0.0181747]}},{"type":"Feature","properties":{"nome":"Chefe Clodoaldo","osm_id":8144019784,"osm_tipo":"node","tipo_lugar":"suburb"},"geometry":{"type":"Point","coordinates":[-51.0885287,-0.0336027]}},{"type":"Feature","properties":{"nome":"Bioparque","osm_id":8144019791,"osm_tipo":"node","tipo_lugar":"suburb"},"geometry":{"type":"Point","coordinates":[-51.0999055,-0.034813]}},{"type":"Feature","properties":{"nome":"Vale Verde","osm_id":8144020020,"osm_tipo":"node","tipo_lugar":"suburb"},"geometry":{"type":"Point","coordinates":[-51.1029053,-0.0497389]}},{"type":"Feature","properties":{"nome":"Murici","osm_id":8144020022,"osm_tipo":"node","tipo_lugar":"suburb"},"geometry":{"type":"Point","coordinates":[-51.1076045,-0.0450075]}},{"type":"Feature","properties":{"nome":"Parque Aeroportuário","osm_id":8146550297,"osm_tipo":"node","tipo_lugar":"suburb"},"geometry":{"type":"Point","coordinates":[-51.0854817,0.0547601]}},{"type":"Feature","properties":{"nome":"Jardim América","osm_id":8146550520,"osm_tipo":"node","tipo_lugar":"suburb"},"geometry":{"type":"Point","coordinates":[-51.1108661,0.0457585]}},{"type":"Feature","properties":{"nome":"Central","osm_id":8147067082,"osm_tipo":"node","tipo_lugar":"suburb"},"geometry":{"type":"Point","coordinates":[-51.0592818,0.0353891]}},{"type":"Feature","properties":{"nome":"Jardim Felicidade II","osm_id":8147068000,"osm_tipo":"node","tipo_lugar":"suburb"},"geometry":{"type":"Point","coordinates":[-51.0596037,0.0941348]}},{"type":"Feature","properties":{"nome":"Sol Nascente","osm_id":8147068001,"osm_tipo":"node","tipo_lugar":"suburb"},"geometry":{"type":"Point","coordinates":[-51.0662985,0.0973963]}},{"type":"Feature","properties":{"nome":"Palácio das Águas","osm_id":8147070042,"osm_tipo":"node","tipo_lugar":"suburb"},"geometry":{"type":"Point","coordinates":[-51.1143208,0.1059151]}},{"type":"Feature","properties":{"nome":"Amazonas","osm_id":8147070056,"osm_tipo":"node","tipo_lugar":"suburb"},"geometry":{"type":"Point","coordinates":[-51.1097503,0.0884056]}},{"type":"Feature","properties":{"nome":"Morada das Palmeiras","osm_id":8147070057,"osm_tipo":"node","tipo_lugar":"suburb"},"geometry":{"type":"Point","coordinates":[-51.0862327,0.083524]}},{"type":"Feature","properties":{"nome":"Muca","osm_id":9701950179,"osm_tipo":"node","tipo_lugar":"suburb"},"geometry":{"type":"Point","coordinates":[-51.0745111,0.0115238]}},{"type":"Feature","properties":{"nome":"Conjunto Habitacional Miracema","osm_id":10293727974,"osm_tipo":"node","tipo_lugar":"neighbourhood"},"geometry":{"type":"Point","coordinates":[-51.0982036,0.0576838]}}]}