{"type":"FeatureCollection","features":[{"type":"Feature","properties":{"nome":"Centro","osm_id":2698755367,"osm_tipo":"node","tipo_lugar":"neighbourhood"},"geometry":{"type":"Point","coordinates":[-47.5169787,-14.1362613]}},{"type":"Feature","properties":{"nome":"Setor Estância Paraíso","osm_id":2698755425,"osm_tipo":"node","tipo_lugar":"neighbourhood"},"geometry":{"type":"Point","coordinates":[-47.5123133,-14.1384791]}},{"type":"Feature","properties":{"nome":"Setor Paraíso Velho","osm_id":2698755430,"osm_tipo":"node","tipo_lugar":"neighbourhood"},"geometry":{"type":"Point","coordinates":[-47.5097578,-14.1318756]}},{"type":"Feature","properties":{"nome":"Setor Planalto","osm_id":2698755434,"osm_tipo":"node","tipo_lugar":"neighbourhood"},"geometry":{"type":"Point","coordinates":[-47.5247835,-14.1356536]}},{"type":"Feature","properties":{"nome":"Setor Paraisinho","osm_id":2701999207,"osm_tipo":"node","tipo_lugar":"neighbourhood"},"geometry":{"type":"Point","coordinates":[-47.5165252,-14.1324219]}},{"type":"Feature","properties":{"nome":"Setor Vila Bandeira","osm_id":2701999208,"osm_tipo":"node","tipo_lugar":"neighbourhood"},"geometry":{"type":"Point","coordinates":[-47.5199829,-14.1323575]}}]}