{"type":"FeatureCollection","features":[{"type":"Feature","properties":{"nome":"Jardim Vista Verde","osm_id":4673096865,"osm_tipo":"node","tipo_lugar":"suburb"},"geometry":{"type":"Point","coordinates":[-46.2363995,-23.3155784]}},{"type":"Feature","properties":{"nome":"Merced","osm_id":4753762286,"osm_tipo":"node","tipo_lugar":"neighbourhood"},"geometry":{"type":"Point","coordinates":[-84.2351083,10.4486464]}},{"type":"Feature","properties":{"nome":"Jardim Eldorado","osm_id":4881044595,"osm_tipo":"node","tipo_lugar":"suburb"},"geometry":{"type":"Point","coordinates":[-46.217693,-23.3027312]}},{"type":"Feature","properties":{"nome":"Centro","osm_id":4953781496,"osm_tipo":"node","tipo_lugar":"suburb"},"geometry":{"type":"Point","coordinates":[-46.2287174,-23.3203584]}},{"type":"Feature","properties":{"nome":"Jardim Novo Éden","osm_id":4953781510,"osm_tipo":"node","tipo_lugar":"suburb"},"geometry":{"type":"Point","coordinates":[-46.2295203,-23.3372864]}},{"type":"Feature","properties":{"nome":"Cruzeiro","osm_id":4953824338,"osm_tipo":"node","tipo_lugar":"suburb"},"geometry":{"type":"Point","coordinates":[-46.2221997,-23.3159145]}},{"type":"Feature","properties":{"nome":"Cachoeira","osm_id":4972833527,"osm_tipo":"node","tipo_lugar":"suburb"},"geometry":{"type":"Point","coordinates":[-46.2258069,-23.3705929]}},{"type":"Feature","properties":{"nome":"Cafundó","osm_id":4972833549,"osm_tipo":"node","tipo_lugar":"suburb"},"geometry":{"type":"Point","coordinates":[-46.2349425,-23.3568927]}},{"type":"Feature","properties":{"nome":"Jardim Monte Serrat","osm_id":4972906333,"osm_tipo":"node","tipo_lugar":"suburb"},"geometry":{"type":"Point","coordinates":[-46.2303958,-23.3156962]}},{"type":"Feature","properties":{"nome":"Jaguari","osm_id":4972930895,"osm_tipo":"node","tipo_lugar":"suburb"},"geometry":{"type":"Point","coordinates":[-46.2768148,-23.3188593]}},{"type":"Feature","properties":{"nome":"Parque Santa Tereza","osm_id":5359473070,"osm_tipo":"node","tipo_lugar":"suburb"},"geometry":{"type":"Point","coordinates":[-46.2364665,-23.3199982]}},{"type":"Feature","properties":{"nome":"Parque São Benedito","osm_id":5359486677,"osm_tipo":"node","tipo_lugar":"suburb"},"geometry":{"type":"Point","coordinates":[-46.2232616,-23.319881]}},{"type":"Feature","properties":{"nome":"Vila Guilherme","osm_id":5359487100,"osm_tipo":"node","tipo_lugar":"suburb"},"geometry":{"type":"Point","coordinates":[-46.2182037,-23.3274414]}},{"type":"Feature","properties":{"nome":"Vila Gumercindo","osm_id":5359488255,"osm_tipo":"node","tipo_lugar":"suburb"},"geometry":{"type":"Point","coordinates":[-46.2167294,-23.322849]}},{"type":"Feature","properties":{"nome":"Reserva Ibirapitanga","osm_id":6229613780,"osm_tipo":"node","tipo_lugar":"suburb"},"geometry":{"type":"Point","coordinates":[-46.284803,-23.3036244]}},{"type":"Feature","properties":{"nome":"San Fernando","osm_id":7942893320,"osm_tipo":"node","tipo_lugar":"neighbourhood"},"geometry":{"type":"Point","coordinates":[-84.1982573,10.5195079]}},{"type":"Feature","properties":{"nome":"Gere Muniz","osm_id":11062091407,"osm_tipo":"node","tipo_lugar":"suburb"},"geometry":{"type":"Point","coordinates":[-46.254643,-23.3608097]}},{"type":"Feature","properties":{"nome":"Bairro do Retiro","osm_id":1429410701,"osm_tipo":"way","tipo_lugar":"neighbourhood"},"geometry":{"type":"Polygon","coordinates":[[[-46.2669233,-23.3622981],[-46.2694967,-23.362982],[-46.2740986,-23.3677512],[-46.2808292,-23.3701366],[-46.2835706,-23.3734589],[-46.2893454,-23.3743727],[-46.293052,-23.371026],[-46.29435,-23.368934],[-46.294135,-23.36127],[-46.2918705,-23.3454169],[-46.293739,-23.339797],[-46.290427,-23.336542],[-46.297016,-23.333403],[-46.2982028,-23.3315466],[-46.2970259,-23.3298833],[-46.299937,-23.3239078],[-46.303358,-23.32461],[-46.3037238,-23.3223019],[-46.3079479,-23.3227146],[-46.3078103,-23.3216605],[-46.2905806,-23.3143431],[-46.2819045,-23.3300689],[-46.278088,-23.330388],[-46.2701097,-23.3276742],[-46.2657133,-23.3295481],[-46.2602693,-23.3250245],[-46.2602095,-23.3373654],[-46.2631051,-23.338704],[-46.2650963,-23.3370165],[-46.2689179,-23.3372466],[-46.2745669,-23.339218],[-46.2777333,-23.3447042],[-46.2808364,-23.3454167],[-46.2770966,-23.3474605],[-46.2714597,-23.3542646],[-46.2691919,-23.3545694],[-46.2672695,-23.3525381],[-46.2631527,-23.3538009],[-46.2637345,-23.3583996],[-46.2669233,-23.3622981]]]}}]}