{"type":"FeatureCollection","features":[{"type":"Feature","properties":{"nome":"Conj. Boa Esperança","osm_id":13523131869,"osm_tipo":"node","tipo_lugar":"neighbourhood"},"geometry":{"type":"Point","coordinates":[-42.5744187,-4.772949]}},{"type":"Feature","properties":{"nome":"Suco de Uva","osm_id":13523131870,"osm_tipo":"node","tipo_lugar":"suburb"},"geometry":{"type":"Point","coordinates":[-42.5775188,-4.7713154]}},{"type":"Feature","properties":{"nome":"Marmelada","osm_id":13523131871,"osm_tipo":"node","tipo_lugar":"suburb"},"geometry":{"type":"Point","coordinates":[-42.5851028,-4.7699944]}},{"type":"Feature","properties":{"nome":"São Pedro","osm_id":13523131872,"osm_tipo":"node","tipo_lugar":"suburb"},"geometry":{"type":"Point","coordinates":[-42.5918401,-4.7599642]}},{"type":"Feature","properties":{"nome":"Santa Rosa","osm_id":13523131873,"osm_tipo":"node","tipo_lugar":"suburb"},"geometry":{"type":"Point","coordinates":[-42.5855573,-4.7619486]}},{"type":"Feature","properties":{"nome":"Conj. Dirceu Arcoverde","osm_id":13523131874,"osm_tipo":"node","tipo_lugar":"neighbourhood"},"geometry":{"type":"Point","coordinates":[-42.5688186,-4.7654796]}},{"type":"Feature","properties":{"nome":"Matadouro","osm_id":13523131876,"osm_tipo":"node","tipo_lugar":"suburb"},"geometry":{"type":"Point","coordinates":[-42.5719291,-4.7678354]}},{"type":"Feature","properties":{"nome":"Deus Me Deu","osm_id":13523131877,"osm_tipo":"node","tipo_lugar":"suburb"},"geometry":{"type":"Point","coordinates":[-42.5573026,-4.7655197]}},{"type":"Feature","properties":{"nome":"Lot. Recanto dos Carnaubais","osm_id":13523131878,"osm_tipo":"node","tipo_lugar":"neighbourhood"},"geometry":{"type":"Point","coordinates":[-42.5545144,-4.7601611]}},{"type":"Feature","properties":{"nome":"Santa Luzia","osm_id":13523131879,"osm_tipo":"node","tipo_lugar":"suburb"},"geometry":{"type":"Point","coordinates":[-42.5560588,-4.7550144]}},{"type":"Feature","properties":{"nome":"Santo Antônio","osm_id":13523131880,"osm_tipo":"node","tipo_lugar":"suburb"},"geometry":{"type":"Point","coordinates":[-42.5659279,-4.7608781]}},{"type":"Feature","properties":{"nome":"Centro","osm_id":13523131881,"osm_tipo":"node","tipo_lugar":"suburb"},"geometry":{"type":"Point","coordinates":[-42.574163,-4.7596743]}},{"type":"Feature","properties":{"nome":"Tijuca","osm_id":13523131882,"osm_tipo":"node","tipo_lugar":"suburb"},"geometry":{"type":"Point","coordinates":[-42.580021,-4.7520759]}},{"type":"Feature","properties":{"nome":"Ipiranga","osm_id":13523131883,"osm_tipo":"node","tipo_lugar":"suburb"},"geometry":{"type":"Point","coordinates":[-42.5816577,-4.7403352]}},{"type":"Feature","properties":{"nome":"Cidade Nova","osm_id":13523131884,"osm_tipo":"node","tipo_lugar":"suburb"},"geometry":{"type":"Point","coordinates":[-42.5734616,-4.7438432]}},{"type":"Feature","properties":{"nome":"Bairro de Fátima","osm_id":13523131885,"osm_tipo":"node","tipo_lugar":"suburb"},"geometry":{"type":"Point","coordinates":[-42.5710586,-4.7531891]}},{"type":"Feature","properties":{"nome":"Mangueirão","osm_id":13738482823,"osm_tipo":"node","tipo_lugar":"suburb"},"geometry":{"type":"Point","coordinates":[-42.5803385,-4.7646483]}}]}