{"type":"FeatureCollection","features":[{"type":"Feature","properties":{"nome":"Santa Isabel","osm_id":416653214,"osm_tipo":"node","tipo_lugar":"suburb"},"geometry":{"type":"Point","coordinates":[-41.7866849,-2.8958024]}},{"type":"Feature","properties":{"nome":"Tabuleiro","osm_id":416758055,"osm_tipo":"node","tipo_lugar":"suburb"},"geometry":{"type":"Point","coordinates":[-41.7894093,-2.9329714]}},{"type":"Feature","properties":{"nome":"Chafariz","osm_id":416758058,"osm_tipo":"node","tipo_lugar":"suburb"},"geometry":{"type":"Point","coordinates":[-41.7299263,-2.8867858]}},{"type":"Feature","properties":{"nome":"Conjunto Betânia II","osm_id":2575178565,"osm_tipo":"node","tipo_lugar":"neighbourhood"},"geometry":{"type":"Point","coordinates":[-41.737862,-2.9205217]}},{"type":"Feature","properties":{"nome":"Conjunto Betânia I","osm_id":2575178789,"osm_tipo":"node","tipo_lugar":"neighbourhood"},"geometry":{"type":"Point","coordinates":[-41.7368218,-2.9191858]}},{"type":"Feature","properties":{"nome":"São José","osm_id":2575694754,"osm_tipo":"node","tipo_lugar":"suburb"},"geometry":{"type":"Point","coordinates":[-41.7854457,-2.9081295]}},{"type":"Feature","properties":{"nome":"Mendonça Clark","osm_id":2575694891,"osm_tipo":"node","tipo_lugar":"suburb"},"geometry":{"type":"Point","coordinates":[-41.7832096,-2.904425]}},{"type":"Feature","properties":{"nome":"Centro","osm_id":2575694912,"osm_tipo":"node","tipo_lugar":"suburb"},"geometry":{"type":"Point","coordinates":[-41.7771221,-2.9050541]}},{"type":"Feature","properties":{"nome":"Nossa Senhora de Fátima","osm_id":2575712650,"osm_tipo":"node","tipo_lugar":"suburb"},"geometry":{"type":"Point","coordinates":[-41.7687609,-2.9061417]}},{"type":"Feature","properties":{"nome":"Nossa Senhora do Carmo","osm_id":2575713134,"osm_tipo":"node","tipo_lugar":"suburb"},"geometry":{"type":"Point","coordinates":[-41.7777998,-2.898201]}},{"type":"Feature","properties":{"nome":"Canta Galo","osm_id":2575719268,"osm_tipo":"node","tipo_lugar":"suburb"},"geometry":{"type":"Point","coordinates":[-41.7674741,-2.8977022]}},{"type":"Feature","properties":{"nome":"Nova Parnaíba","osm_id":2575756299,"osm_tipo":"node","tipo_lugar":"suburb"},"geometry":{"type":"Point","coordinates":[-41.7783316,-2.914025]}},{"type":"Feature","properties":{"nome":"São Francisco","osm_id":2575758140,"osm_tipo":"node","tipo_lugar":"suburb"},"geometry":{"type":"Point","coordinates":[-41.7670125,-2.9163736]}},{"type":"Feature","properties":{"nome":"Pindorama","osm_id":2576944197,"osm_tipo":"node","tipo_lugar":"suburb"},"geometry":{"type":"Point","coordinates":[-41.7584552,-2.9117962]}},{"type":"Feature","properties":{"nome":"Piauí","osm_id":2576944757,"osm_tipo":"node","tipo_lugar":"suburb"},"geometry":{"type":"Point","coordinates":[-41.744296,-2.9227755]}},{"type":"Feature","properties":{"nome":"Sabiazal","osm_id":2584490749,"osm_tipo":"node","tipo_lugar":"suburb"},"geometry":{"type":"Point","coordinates":[-41.7510886,-2.9510459]}},{"type":"Feature","properties":{"nome":"Residencial Caminho da Alvorada","osm_id":5448492647,"osm_tipo":"node","tipo_lugar":"neighbourhood"},"geometry":{"type":"Point","coordinates":[-41.7047611,-2.8936343]}},{"type":"Feature","properties":{"nome":"Vicente Correia","osm_id":12249419181,"osm_tipo":"node","tipo_lugar":"suburb"},"geometry":{"type":"Point","coordinates":[-41.6961194,-2.887066]}},{"type":"Feature","properties":{"nome":"Raul Bacelar","osm_id":12249419182,"osm_tipo":"node","tipo_lugar":"suburb"},"geometry":{"type":"Point","coordinates":[-41.6967202,-2.9186111]}},{"type":"Feature","properties":{"nome":"Simplicio Dias","osm_id":12249419183,"osm_tipo":"node","tipo_lugar":"suburb"},"geometry":{"type":"Point","coordinates":[-41.6969347,-2.9280402]}},{"type":"Feature","properties":{"nome":"Portinho","osm_id":12249419184,"osm_tipo":"node","tipo_lugar":"suburb"},"geometry":{"type":"Point","coordinates":[-41.6776443,-2.9311904]}},{"type":"Feature","properties":{"nome":"Carpina","osm_id":12249419185,"osm_tipo":"node","tipo_lugar":"suburb"},"geometry":{"type":"Point","coordinates":[-41.7106247,-2.9515697]}},{"type":"Feature","properties":{"nome":"Alberto Silva","osm_id":12249419186,"osm_tipo":"node","tipo_lugar":"suburb"},"geometry":{"type":"Point","coordinates":[-41.7222119,-2.9307832]}},{"type":"Feature","properties":{"nome":"Nossa Senhora Monserrat","osm_id":12249419187,"osm_tipo":"node","tipo_lugar":"suburb"},"geometry":{"type":"Point","coordinates":[-41.7244005,-2.9170039]}},{"type":"Feature","properties":{"nome":"João XXIII","osm_id":12249419188,"osm_tipo":"node","tipo_lugar":"suburb"},"geometry":{"type":"Point","coordinates":[-41.7233706,-2.906396]}},{"type":"Feature","properties":{"nome":"Floriópolis","osm_id":12249419189,"osm_tipo":"node","tipo_lugar":"suburb"},"geometry":{"type":"Point","coordinates":[-41.7183495,-2.8963025]}},{"type":"Feature","properties":{"nome":"São Judas Tadeu","osm_id":12249419190,"osm_tipo":"node","tipo_lugar":"suburb"},"geometry":{"type":"Point","coordinates":[-41.7403436,-2.8995813]}},{"type":"Feature","properties":{"nome":"Reis Veloso","osm_id":12249419191,"osm_tipo":"node","tipo_lugar":"suburb"},"geometry":{"type":"Point","coordinates":[-41.7412019,-2.9061603]}},{"type":"Feature","properties":{"nome":"Frei Higino","osm_id":12249419192,"osm_tipo":"node","tipo_lugar":"suburb"},"geometry":{"type":"Point","coordinates":[-41.7435622,-2.9147752]}},{"type":"Feature","properties":{"nome":"Rodoviária","osm_id":12249419193,"osm_tipo":"node","tipo_lugar":"suburb"},"geometry":{"type":"Point","coordinates":[-41.751051,-2.9257258]}},{"type":"Feature","properties":{"nome":"Dirceu Arcoverde","osm_id":12249419194,"osm_tipo":"node","tipo_lugar":"suburb"},"geometry":{"type":"Point","coordinates":[-41.7414251,-2.9318876]}},{"type":"Feature","properties":{"nome":"Santa Maria","osm_id":12249419195,"osm_tipo":"node","tipo_lugar":"suburb"},"geometry":{"type":"Point","coordinates":[-41.7495919,-2.9372978]}},{"type":"Feature","properties":{"nome":"São Pedro","osm_id":12249419196,"osm_tipo":"node","tipo_lugar":"suburb"},"geometry":{"type":"Point","coordinates":[-41.7450858,-2.9708987]}},{"type":"Feature","properties":{"nome":"Almira Silva","osm_id":12249419197,"osm_tipo":"node","tipo_lugar":"suburb"},"geometry":{"type":"Point","coordinates":[-41.7646552,-2.9663986]}},{"type":"Feature","properties":{"nome":"Primavera","osm_id":12249419198,"osm_tipo":"node","tipo_lugar":"suburb"},"geometry":{"type":"Point","coordinates":[-41.7618871,-2.9557913]}},{"type":"Feature","properties":{"nome":"Dom Rufino","osm_id":12249419199,"osm_tipo":"node","tipo_lugar":"suburb"},"geometry":{"type":"Point","coordinates":[-41.7693114,-2.9455053]}},{"type":"Feature","properties":{"nome":"Lagoa da Prata","osm_id":12249419200,"osm_tipo":"node","tipo_lugar":"suburb"},"geometry":{"type":"Point","coordinates":[-41.7869926,-2.9633343]}},{"type":"Feature","properties":{"nome":"Igaraçu","osm_id":12249470201,"osm_tipo":"node","tipo_lugar":"suburb"},"geometry":{"type":"Point","coordinates":[-41.7905116,-2.9494268]}},{"type":"Feature","properties":{"nome":"Joaz Souza","osm_id":12249470202,"osm_tipo":"node","tipo_lugar":"suburb"},"geometry":{"type":"Point","coordinates":[-41.782465,-2.9422266]}},{"type":"Feature","properties":{"nome":"São Vicente de Paulo","osm_id":12249470203,"osm_tipo":"node","tipo_lugar":"suburb"},"geometry":{"type":"Point","coordinates":[-41.7743325,-2.9383478]}},{"type":"Feature","properties":{"nome":"Santa Teresinha","osm_id":12249470204,"osm_tipo":"node","tipo_lugar":"suburb"},"geometry":{"type":"Point","coordinates":[-41.7664576,-2.9330333]}},{"type":"Feature","properties":{"nome":"Santa Luzia","osm_id":12249470205,"osm_tipo":"node","tipo_lugar":"suburb"},"geometry":{"type":"Point","coordinates":[-41.7627776,-2.9296689]}},{"type":"Feature","properties":{"nome":"Ceará","osm_id":12249470206,"osm_tipo":"node","tipo_lugar":"suburb"},"geometry":{"type":"Point","coordinates":[-41.7586577,-2.9271295]}},{"type":"Feature","properties":{"nome":"Cristo Rei","osm_id":12249470207,"osm_tipo":"node","tipo_lugar":"suburb"},"geometry":{"type":"Point","coordinates":[-41.7582822,-2.921622]}},{"type":"Feature","properties":{"nome":"Boa Esperança","osm_id":12249470208,"osm_tipo":"node","tipo_lugar":"suburb"},"geometry":{"type":"Point","coordinates":[-41.7579389,-2.9177861]}},{"type":"Feature","properties":{"nome":"São Benedito","osm_id":12249470209,"osm_tipo":"node","tipo_lugar":"suburb"},"geometry":{"type":"Point","coordinates":[-41.7584753,-2.9054317]}},{"type":"Feature","properties":{"nome":"Campos","osm_id":12249470210,"osm_tipo":"node","tipo_lugar":"suburb"},"geometry":{"type":"Point","coordinates":[-41.769526,-2.91095]}},{"type":"Feature","properties":{"nome":"Bebedouro","osm_id":12249470211,"osm_tipo":"node","tipo_lugar":"suburb"},"geometry":{"type":"Point","coordinates":[-41.7721868,-2.9213113]}},{"type":"Feature","properties":{"nome":"Piauí","osm_id":13242238039,"osm_tipo":"node","tipo_lugar":"suburb"},"geometry":{"type":"Point","coordinates":[-41.7436611,-2.9177663]}},{"type":"Feature","properties":{"nome":"Baixa do Aragão","osm_id":13244550918,"osm_tipo":"node","tipo_lugar":"suburb"},"geometry":{"type":"Point","coordinates":[-41.7415979,-2.9404524]}},{"type":"Feature","properties":{"nome":"Rodoviária","osm_id":13246690886,"osm_tipo":"node","tipo_lugar":"suburb"},"geometry":{"type":"Point","coordinates":[-41.753127,-2.9307842]}},{"type":"Feature","properties":{"nome":"Planalto Monserrathe","osm_id":13246835411,"osm_tipo":"node","tipo_lugar":"suburb"},"geometry":{"type":"Point","coordinates":[-41.7325259,-2.9164767]}}]}