{"type":"FeatureCollection","features":[{"type":"Feature","properties":{"nome":"Vila Operária","osm_id":12211967272,"osm_tipo":"node","tipo_lugar":"suburb"},"geometry":{"type":"Point","coordinates":[-41.4438023,-4.4332926]}},{"type":"Feature","properties":{"nome":"Boa Esperança","osm_id":12212012248,"osm_tipo":"node","tipo_lugar":"suburb"},"geometry":{"type":"Point","coordinates":[-41.4481871,-4.4217943]}},{"type":"Feature","properties":{"nome":"Centro","osm_id":12212124688,"osm_tipo":"node","tipo_lugar":"suburb"},"geometry":{"type":"Point","coordinates":[-41.4571289,-4.4256038]}},{"type":"Feature","properties":{"nome":"Descoberta","osm_id":13050917175,"osm_tipo":"node","tipo_lugar":"suburb"},"geometry":{"type":"Point","coordinates":[-41.4448625,-4.448733]}},{"type":"Feature","properties":{"nome":"Hermenegildo Braga Campelo","osm_id":13050917176,"osm_tipo":"node","tipo_lugar":"suburb"},"geometry":{"type":"Point","coordinates":[-41.4620771,-4.4475393]}},{"type":"Feature","properties":{"nome":"Pirapora","osm_id":13050917177,"osm_tipo":"node","tipo_lugar":"suburb"},"geometry":{"type":"Point","coordinates":[-41.4604858,-4.4378468]}},{"type":"Feature","properties":{"nome":"São Gonçalo","osm_id":13050917178,"osm_tipo":"node","tipo_lugar":"suburb"},"geometry":{"type":"Point","coordinates":[-41.4678649,-4.4407176]}},{"type":"Feature","properties":{"nome":"Vila Kolping","osm_id":13050917179,"osm_tipo":"node","tipo_lugar":"suburb"},"geometry":{"type":"Point","coordinates":[-41.4498678,-4.4389517]}},{"type":"Feature","properties":{"nome":"Santa Fé","osm_id":13050999839,"osm_tipo":"node","tipo_lugar":"suburb"},"geometry":{"type":"Point","coordinates":[-41.4520025,-4.4157311]}},{"type":"Feature","properties":{"nome":"Chapada","osm_id":13050999840,"osm_tipo":"node","tipo_lugar":"suburb"},"geometry":{"type":"Point","coordinates":[-41.4611514,-4.4084301]}},{"type":"Feature","properties":{"nome":"Lajinhas","osm_id":13050999841,"osm_tipo":"node","tipo_lugar":"suburb"},"geometry":{"type":"Point","coordinates":[-41.4379419,-4.4290585]}}]}