{"type":"FeatureCollection","features":[{"type":"Feature","properties":{"nome":"São Pedro","osm_id":9105973512,"osm_tipo":"node","tipo_lugar":"neighbourhood"},"geometry":{"type":"Point","coordinates":[-35.6290054,-6.6029994]}},{"type":"Feature","properties":{"nome":"Nova Conquista","osm_id":9105973513,"osm_tipo":"node","tipo_lugar":"neighbourhood"},"geometry":{"type":"Point","coordinates":[-35.6313336,-6.6048965]}},{"type":"Feature","properties":{"nome":"Centro","osm_id":9105973514,"osm_tipo":"node","tipo_lugar":"neighbourhood"},"geometry":{"type":"Point","coordinates":[-35.6274176,-6.605845]}},{"type":"Feature","properties":{"nome":"Nova Cidade","osm_id":9105973515,"osm_tipo":"node","tipo_lugar":"neighbourhood"},"geometry":{"type":"Point","coordinates":[-35.6232762,-6.6034577]}},{"type":"Feature","properties":{"nome":"Jardim Primavera","osm_id":9105973516,"osm_tipo":"node","tipo_lugar":"neighbourhood"},"geometry":{"type":"Point","coordinates":[-35.6220639,-6.6006014]}},{"type":"Feature","properties":{"nome":"Terra Prometida","osm_id":9105973517,"osm_tipo":"node","tipo_lugar":"neighbourhood"},"geometry":{"type":"Point","coordinates":[-35.6260014,-6.6011769]}}]}