{"type":"FeatureCollection","features":[{"type":"Feature","properties":{"nome":"Seabright","osm_id":150932391,"osm_tipo":"node","tipo_lugar":"suburb"},"geometry":{"type":"Point","coordinates":[-122.0078622,36.9688186]}},{"type":"Feature","properties":{"nome":"La lucha","osm_id":338084502,"osm_tipo":"node","tipo_lugar":"neighbourhood"},"geometry":{"type":"Point","coordinates":[-84.0010102,9.7379077]}},{"type":"Feature","properties":{"nome":"Mission Hill Historic District","osm_id":411913065,"osm_tipo":"node","tipo_lugar":"neighbourhood"},"geometry":{"type":"Point","coordinates":[-122.0308887,36.9768709]}},{"type":"Feature","properties":{"nome":"Villa Don José Miguel","osm_id":662734847,"osm_tipo":"node","tipo_lugar":"neighbourhood"},"geometry":{"type":"Point","coordinates":[-71.3593277,-34.6303899]}},{"type":"Feature","properties":{"nome":"Villa Las Garzas","osm_id":662734848,"osm_tipo":"node","tipo_lugar":"neighbourhood"},"geometry":{"type":"Point","coordinates":[-71.3494386,-34.636824]}},{"type":"Feature","properties":{"nome":"Población Las Viñas","osm_id":662734849,"osm_tipo":"node","tipo_lugar":"neighbourhood"},"geometry":{"type":"Point","coordinates":[-71.351607,-34.6324166]}},{"type":"Feature","properties":{"nome":"Población Pablo Neruda","osm_id":662734850,"osm_tipo":"node","tipo_lugar":"neighbourhood"},"geometry":{"type":"Point","coordinates":[-71.3488788,-34.632464]}},{"type":"Feature","properties":{"nome":"University","osm_id":832288064,"osm_tipo":"node","tipo_lugar":"suburb"},"geometry":{"type":"Point","coordinates":[-122.058858,36.9924759]}},{"type":"Feature","properties":{"nome":"Westside","osm_id":946940951,"osm_tipo":"node","tipo_lugar":"suburb"},"geometry":{"type":"Point","coordinates":[-122.0460636,36.9645386]}},{"type":"Feature","properties":{"nome":"Eastside","osm_id":947080695,"osm_tipo":"node","tipo_lugar":"suburb"},"geometry":{"type":"Point","coordinates":[-122.0056911,36.9832416]}},{"type":"Feature","properties":{"nome":"Río Cañas Viejo","osm_id":1277920721,"osm_tipo":"node","tipo_lugar":"neighbourhood"},"geometry":{"type":"Point","coordinates":[-85.5629914,10.3526203]}},{"type":"Feature","properties":{"nome":"Villa La Esperanza","osm_id":2011861045,"osm_tipo":"node","tipo_lugar":"neighbourhood"},"geometry":{"type":"Point","coordinates":[-71.2727741,-34.6169508]}},{"type":"Feature","properties":{"nome":"Villa Don Horacio","osm_id":2022247835,"osm_tipo":"node","tipo_lugar":"neighbourhood"},"geometry":{"type":"Point","coordinates":[-71.3473189,-34.6350058]}},{"type":"Feature","properties":{"nome":"Villa San Francisco","osm_id":2024240943,"osm_tipo":"node","tipo_lugar":"neighbourhood"},"geometry":{"type":"Point","coordinates":[-71.3712321,-34.6220488]}},{"type":"Feature","properties":{"nome":"Villa Bicentenario","osm_id":2191862100,"osm_tipo":"node","tipo_lugar":"neighbourhood"},"geometry":{"type":"Point","coordinates":[-71.3458967,-34.6369489]}},{"type":"Feature","properties":{"nome":"Corobicí 1","osm_id":2244477636,"osm_tipo":"node","tipo_lugar":"neighbourhood"},"geometry":{"type":"Point","coordinates":[-85.5808578,10.2670019]}},{"type":"Feature","properties":{"nome":"East Morrissey","osm_id":2328748937,"osm_tipo":"node","tipo_lugar":"neighbourhood"},"geometry":{"type":"Point","coordinates":[-121.999957,36.9861039]}},{"type":"Feature","properties":{"nome":"Downtown","osm_id":2378524692,"osm_tipo":"node","tipo_lugar":"suburb"},"geometry":{"type":"Point","coordinates":[-122.0258209,36.9730188]}},{"type":"Feature","properties":{"nome":"Villa La Vendimia","osm_id":3091522185,"osm_tipo":"node","tipo_lugar":"neighbourhood"},"geometry":{"type":"Point","coordinates":[-71.3607109,-34.6395912]}},{"type":"Feature","properties":{"nome":"Villa El Rosario","osm_id":3113310074,"osm_tipo":"node","tipo_lugar":"neighbourhood"},"geometry":{"type":"Point","coordinates":[-71.3578203,-34.646193]}},{"type":"Feature","properties":{"nome":"Villa Arauco","osm_id":3113310075,"osm_tipo":"node","tipo_lugar":"neighbourhood"},"geometry":{"type":"Point","coordinates":[-71.3610234,-34.6469834]}},{"type":"Feature","properties":{"nome":"Población Isla Centro","osm_id":3248312284,"osm_tipo":"node","tipo_lugar":"neighbourhood"},"geometry":{"type":"Point","coordinates":[-71.4352926,-34.59551]}},{"type":"Feature","properties":{"nome":"Guayabal","osm_id":3293293610,"osm_tipo":"node","tipo_lugar":"neighbourhood"},"geometry":{"type":"Point","coordinates":[-85.5661486,10.2569142]}},{"type":"Feature","properties":{"nome":"Limón","osm_id":3293314502,"osm_tipo":"node","tipo_lugar":"neighbourhood"},"geometry":{"type":"Point","coordinates":[-85.5883318,10.2905021]}},{"type":"Feature","properties":{"nome":"Cacao","osm_id":3293374910,"osm_tipo":"node","tipo_lugar":"neighbourhood"},"geometry":{"type":"Point","coordinates":[-85.5704659,10.288204]}},{"type":"Feature","properties":{"nome":"Santa Cruz","osm_id":3351756602,"osm_tipo":"node","tipo_lugar":"suburb"},"geometry":{"type":"Point","coordinates":[120.9803328,14.5999016]}},{"type":"Feature","properties":{"nome":"Águas Mansas","osm_id":3473500428,"osm_tipo":"node","tipo_lugar":"neighbourhood"},"geometry":{"type":"Point","coordinates":[-16.8336472,32.6942056]}},{"type":"Feature","properties":{"nome":"Bernabela","osm_id":3618551075,"osm_tipo":"node","tipo_lugar":"neighbourhood"},"geometry":{"type":"Point","coordinates":[-85.5602285,10.3295573]}},{"type":"Feature","properties":{"nome":"Esquipulas 2","osm_id":3626103616,"osm_tipo":"node","tipo_lugar":"neighbourhood"},"geometry":{"type":"Point","coordinates":[-85.5698623,10.2627064]}},{"type":"Feature","properties":{"nome":"Hato Viejo","osm_id":3626103626,"osm_tipo":"node","tipo_lugar":"neighbourhood"},"geometry":{"type":"Point","coordinates":[-85.5913186,10.2437357]}},{"type":"Feature","properties":{"nome":"Camarenos","osm_id":3626104186,"osm_tipo":"node","tipo_lugar":"neighbourhood"},"geometry":{"type":"Point","coordinates":[-85.5928957,10.2627193]}},{"type":"Feature","properties":{"nome":"Santa Cecilia","osm_id":3626104187,"osm_tipo":"node","tipo_lugar":"neighbourhood"},"geometry":{"type":"Point","coordinates":[-85.5903199,10.2590607]}},{"type":"Feature","properties":{"nome":"Esquipulas 1","osm_id":3626104188,"osm_tipo":"node","tipo_lugar":"neighbourhood"},"geometry":{"type":"Point","coordinates":[-85.5747237,10.2602835]}},{"type":"Feature","properties":{"nome":"Estocolmo","osm_id":3626109081,"osm_tipo":"node","tipo_lugar":"neighbourhood"},"geometry":{"type":"Point","coordinates":[-85.5815732,10.2713831]}},{"type":"Feature","properties":{"nome":"El Hueco","osm_id":3626109082,"osm_tipo":"node","tipo_lugar":"neighbourhood"},"geometry":{"type":"Point","coordinates":[-85.5744483,10.2743581]}},{"type":"Feature","properties":{"nome":"Tamarindo","osm_id":3626109083,"osm_tipo":"node","tipo_lugar":"neighbourhood"},"geometry":{"type":"Point","coordinates":[-85.5716457,10.2694189]}},{"type":"Feature","properties":{"nome":"Tulita Sandino","osm_id":3626109662,"osm_tipo":"node","tipo_lugar":"neighbourhood"},"geometry":{"type":"Point","coordinates":[-85.5814979,10.2554922]}},{"type":"Feature","properties":{"nome":"Las Tecas","osm_id":3626109676,"osm_tipo":"node","tipo_lugar":"neighbourhood"},"geometry":{"type":"Point","coordinates":[-85.583324,10.2427613]}},{"type":"Feature","properties":{"nome":"Chorotega","osm_id":3626109838,"osm_tipo":"node","tipo_lugar":"neighbourhood"},"geometry":{"type":"Point","coordinates":[-85.5785291,10.2649168]}},{"type":"Feature","properties":{"nome":"Buenos Aires","osm_id":3626109839,"osm_tipo":"node","tipo_lugar":"neighbourhood"},"geometry":{"type":"Point","coordinates":[-85.5847258,10.2657334]}},{"type":"Feature","properties":{"nome":"Esquipulas","osm_id":3626109844,"osm_tipo":"node","tipo_lugar":"neighbourhood"},"geometry":{"type":"Point","coordinates":[-85.5851161,10.2630291]}},{"type":"Feature","properties":{"nome":"Panamá","osm_id":3626109846,"osm_tipo":"node","tipo_lugar":"neighbourhood"},"geometry":{"type":"Point","coordinates":[-85.5808718,10.2613169]}},{"type":"Feature","properties":{"nome":"Tenorio","osm_id":3626111040,"osm_tipo":"node","tipo_lugar":"neighbourhood"},"geometry":{"type":"Point","coordinates":[-85.5901918,10.2570049]}},{"type":"Feature","properties":{"nome":"Pepe Luján","osm_id":3626111102,"osm_tipo":"node","tipo_lugar":"neighbourhood"},"geometry":{"type":"Point","coordinates":[-85.5805718,10.2575757]}},{"type":"Feature","properties":{"nome":"Las Flores","osm_id":3626111412,"osm_tipo":"node","tipo_lugar":"neighbourhood"},"geometry":{"type":"Point","coordinates":[-85.5829563,10.2575062]}},{"type":"Feature","properties":{"nome":"Lajas","osm_id":3626111543,"osm_tipo":"node","tipo_lugar":"neighbourhood"},"geometry":{"type":"Point","coordinates":[-85.5797761,10.2595235]}},{"type":"Feature","properties":{"nome":"Espigão","osm_id":3995318919,"osm_tipo":"node","tipo_lugar":"neighbourhood"},"geometry":{"type":"Point","coordinates":[-16.8028255,32.6901921]}},{"type":"Feature","properties":{"nome":"Achada do Moreno","osm_id":3995320580,"osm_tipo":"node","tipo_lugar":"neighbourhood"},"geometry":{"type":"Point","coordinates":[-16.8002247,32.7033048]}},{"type":"Feature","properties":{"nome":"Calçada de S. Gil","osm_id":3995320693,"osm_tipo":"node","tipo_lugar":"neighbourhood"},"geometry":{"type":"Point","coordinates":[-16.7983525,32.6974677]}},{"type":"Feature","properties":{"nome":"Caminho D. Mécia","osm_id":3995320697,"osm_tipo":"node","tipo_lugar":"neighbourhood"},"geometry":{"type":"Point","coordinates":[-16.8002255,32.6927606]}},{"type":"Feature","properties":{"nome":"Cano","osm_id":3995320707,"osm_tipo":"node","tipo_lugar":"neighbourhood"},"geometry":{"type":"Point","coordinates":[-16.7839656,32.6942428]}},{"type":"Feature","properties":{"nome":"Eiras","osm_id":3995320831,"osm_tipo":"node","tipo_lugar":"neighbourhood"},"geometry":{"type":"Point","coordinates":[-16.7911515,32.7004069]}},{"type":"Feature","properties":{"nome":"Janeiro","osm_id":3995320948,"osm_tipo":"node","tipo_lugar":"neighbourhood"},"geometry":{"type":"Point","coordinates":[-16.7866754,32.6980548]}},{"type":"Feature","properties":{"nome":"Levadas","osm_id":3995320992,"osm_tipo":"node","tipo_lugar":"neighbourhood"},"geometry":{"type":"Point","coordinates":[-16.797565,32.7004374]}},{"type":"Feature","properties":{"nome":"Lombo dos Moinhos","osm_id":3995321055,"osm_tipo":"node","tipo_lugar":"neighbourhood"},"geometry":{"type":"Point","coordinates":[-16.8015729,32.6991375]}},{"type":"Feature","properties":{"nome":"Maçapez","osm_id":3995321092,"osm_tipo":"node","tipo_lugar":"neighbourhood"},"geometry":{"type":"Point","coordinates":[-16.795836,32.6948915]}},{"type":"Feature","properties":{"nome":"Pedra Mole","osm_id":3995321152,"osm_tipo":"node","tipo_lugar":"neighbourhood"},"geometry":{"type":"Point","coordinates":[-16.8041301,32.6912403]}},{"type":"Feature","properties":{"nome":"Rego","osm_id":3995321285,"osm_tipo":"node","tipo_lugar":"neighbourhood"},"geometry":{"type":"Point","coordinates":[-16.8084164,32.6851289]}},{"type":"Feature","properties":{"nome":"Ribeira","osm_id":3995321308,"osm_tipo":"node","tipo_lugar":"neighbourhood"},"geometry":{"type":"Point","coordinates":[-16.7994341,32.6889803]}},{"type":"Feature","properties":{"nome":"São Sebastião","osm_id":3995321334,"osm_tipo":"node","tipo_lugar":"neighbourhood"},"geometry":{"type":"Point","coordinates":[-16.7906203,32.6903762]}},{"type":"Feature","properties":{"nome":"Salão","osm_id":3995321341,"osm_tipo":"node","tipo_lugar":"neighbourhood"},"geometry":{"type":"Point","coordinates":[-16.8035335,32.6828228]}},{"type":"Feature","properties":{"nome":"Santa Catarina","osm_id":3995321345,"osm_tipo":"node","tipo_lugar":"neighbourhood"},"geometry":{"type":"Point","coordinates":[-16.7733029,32.6933774]}},{"type":"Feature","properties":{"nome":"Terça","osm_id":3995321420,"osm_tipo":"node","tipo_lugar":"neighbourhood"},"geometry":{"type":"Point","coordinates":[-16.7801662,32.6985465]}},{"type":"Feature","properties":{"nome":"Torre","osm_id":3995321429,"osm_tipo":"node","tipo_lugar":"neighbourhood"},"geometry":{"type":"Point","coordinates":[-16.7752355,32.699946]}},{"type":"Feature","properties":{"nome":"Ventrecha","osm_id":3995321450,"osm_tipo":"node","tipo_lugar":"neighbourhood"},"geometry":{"type":"Point","coordinates":[-16.7801847,32.7013329]}},{"type":"Feature","properties":{"nome":"São Pedro","osm_id":3995322374,"osm_tipo":"node","tipo_lugar":"neighbourhood"},"geometry":{"type":"Point","coordinates":[-16.7954584,32.6823339]}},{"type":"Feature","properties":{"nome":"El Guabo","osm_id":4779503374,"osm_tipo":"node","tipo_lugar":"neighbourhood"},"geometry":{"type":"Point","coordinates":[-85.5895808,10.2649586]}},{"type":"Feature","properties":{"nome":"Sagamad","osm_id":4779542733,"osm_tipo":"node","tipo_lugar":"neighbourhood"},"geometry":{"type":"Point","coordinates":[-85.5784562,10.2610301]}},{"type":"Feature","properties":{"nome":"Jerusalem","osm_id":4779542734,"osm_tipo":"node","tipo_lugar":"neighbourhood"},"geometry":{"type":"Point","coordinates":[-85.5776025,10.2651616]}},{"type":"Feature","properties":{"nome":"El Pochote","osm_id":4779548150,"osm_tipo":"node","tipo_lugar":"neighbourhood"},"geometry":{"type":"Point","coordinates":[-85.56592,10.2704368]}},{"type":"Feature","properties":{"nome":"Corobicí 2","osm_id":4779548151,"osm_tipo":"node","tipo_lugar":"neighbourhood"},"geometry":{"type":"Point","coordinates":[-85.5799302,10.2692515]}},{"type":"Feature","properties":{"nome":"La Maravilla","osm_id":4779548152,"osm_tipo":"node","tipo_lugar":"neighbourhood"},"geometry":{"type":"Point","coordinates":[-85.5830662,10.2740172]}},{"type":"Feature","properties":{"nome":"Barrio Copa de Oro","osm_id":4779576817,"osm_tipo":"node","tipo_lugar":"neighbourhood"},"geometry":{"type":"Point","coordinates":[-85.5736804,10.2821994]}},{"type":"Feature","properties":{"nome":"Manchón","osm_id":4779714574,"osm_tipo":"node","tipo_lugar":"neighbourhood"},"geometry":{"type":"Point","coordinates":[-85.590694,10.2477064]}},{"type":"Feature","properties":{"nome":"El Codo","osm_id":4779714575,"osm_tipo":"node","tipo_lugar":"neighbourhood"},"geometry":{"type":"Point","coordinates":[-85.5911818,10.2312394]}},{"type":"Feature","properties":{"nome":"La Esmeralda","osm_id":4779714576,"osm_tipo":"node","tipo_lugar":"neighbourhood"},"geometry":{"type":"Point","coordinates":[-85.5950542,10.2210131]}},{"type":"Feature","properties":{"nome":"Los Amigos","osm_id":4779714577,"osm_tipo":"node","tipo_lugar":"neighbourhood"},"geometry":{"type":"Point","coordinates":[-85.5914258,10.2269025]}},{"type":"Feature","properties":{"nome":"Las Brisas","osm_id":4779744460,"osm_tipo":"node","tipo_lugar":"neighbourhood"},"geometry":{"type":"Point","coordinates":[-85.5609873,10.2492571]}},{"type":"Feature","properties":{"nome":"Rincón","osm_id":4781860783,"osm_tipo":"node","tipo_lugar":"neighbourhood"},"geometry":{"type":"Point","coordinates":[-85.6542181,10.2548633]}},{"type":"Feature","properties":{"nome":"Rincón Moya","osm_id":4781875533,"osm_tipo":"node","tipo_lugar":"neighbourhood"},"geometry":{"type":"Point","coordinates":[-85.6327346,10.2617624]}},{"type":"Feature","properties":{"nome":"Puente Negro","osm_id":4781875534,"osm_tipo":"node","tipo_lugar":"neighbourhood"},"geometry":{"type":"Point","coordinates":[-85.6233114,10.2721047]}},{"type":"Feature","properties":{"nome":"El Rodeo","osm_id":4781875535,"osm_tipo":"node","tipo_lugar":"neighbourhood"},"geometry":{"type":"Point","coordinates":[-85.6424578,10.2742198]}},{"type":"Feature","properties":{"nome":"Cuatro Esquinas","osm_id":4781875536,"osm_tipo":"node","tipo_lugar":"neighbourhood"},"geometry":{"type":"Point","coordinates":[-85.6472319,10.2739493]}},{"type":"Feature","properties":{"nome":"Tierra Colorada","osm_id":4781875580,"osm_tipo":"node","tipo_lugar":"neighbourhood"},"geometry":{"type":"Point","coordinates":[-85.6673157,10.2714406]}},{"type":"Feature","properties":{"nome":"Las Lechuzas","osm_id":4781911293,"osm_tipo":"node","tipo_lugar":"neighbourhood"},"geometry":{"type":"Point","coordinates":[-85.5774593,10.2118698]}},{"type":"Feature","properties":{"nome":"Danta","osm_id":4781911294,"osm_tipo":"node","tipo_lugar":"neighbourhood"},"geometry":{"type":"Point","coordinates":[-85.5954618,10.2010188]}},{"type":"Feature","properties":{"nome":"Monte Galán","osm_id":4781911295,"osm_tipo":"node","tipo_lugar":"neighbourhood"},"geometry":{"type":"Point","coordinates":[-85.6207761,10.2086123]}},{"type":"Feature","properties":{"nome":"El Pando","osm_id":4781911740,"osm_tipo":"node","tipo_lugar":"neighbourhood"},"geometry":{"type":"Point","coordinates":[-85.6139479,10.2242135]}},{"type":"Feature","properties":{"nome":"Finca Brasil","osm_id":4781914767,"osm_tipo":"node","tipo_lugar":"neighbourhood"},"geometry":{"type":"Point","coordinates":[-85.5987226,10.1867971]}},{"type":"Feature","properties":{"nome":"San Lorenzo","osm_id":4782055716,"osm_tipo":"node","tipo_lugar":"neighbourhood"},"geometry":{"type":"Point","coordinates":[-85.552478,10.176045]}},{"type":"Feature","properties":{"nome":"La Chibola","osm_id":4782093299,"osm_tipo":"node","tipo_lugar":"neighbourhood"},"geometry":{"type":"Point","coordinates":[-85.5499456,10.331434]}},{"type":"Feature","properties":{"nome":"Los Churucos","osm_id":4782093728,"osm_tipo":"node","tipo_lugar":"neighbourhood"},"geometry":{"type":"Point","coordinates":[-85.5820935,10.3131496]}},{"type":"Feature","properties":{"nome":"El Puente","osm_id":4924647084,"osm_tipo":"node","tipo_lugar":"neighbourhood"},"geometry":{"type":"Point","coordinates":[-85.588412,10.2620738]}},{"type":"Feature","properties":{"nome":"Villa Brisas del Sur","osm_id":5129095115,"osm_tipo":"node","tipo_lugar":"neighbourhood"},"geometry":{"type":"Point","coordinates":[-71.3671312,-34.6303296]}},{"type":"Feature","properties":{"nome":"Villa España","osm_id":5129097025,"osm_tipo":"node","tipo_lugar":"neighbourhood"},"geometry":{"type":"Point","coordinates":[-71.3680033,-34.6323309]}},{"type":"Feature","properties":{"nome":"Villa Santa Laura","osm_id":5129097041,"osm_tipo":"node","tipo_lugar":"neighbourhood"},"geometry":{"type":"Point","coordinates":[-71.3709184,-34.6303914]}},{"type":"Feature","properties":{"nome":"Villa Robles de Otoño","osm_id":5129097043,"osm_tipo":"node","tipo_lugar":"neighbourhood"},"geometry":{"type":"Point","coordinates":[-71.3688585,-34.6325189]}},{"type":"Feature","properties":{"nome":"Villa Magisterio","osm_id":5422566095,"osm_tipo":"node","tipo_lugar":"neighbourhood"},"geometry":{"type":"Point","coordinates":[-71.365374,-34.6468938]}},{"type":"Feature","properties":{"nome":"San Roque","osm_id":6291685100,"osm_tipo":"node","tipo_lugar":"suburb"},"geometry":{"type":"Point","coordinates":[-78.9464772,-6.6238773]}},{"type":"Feature","properties":{"nome":"Nueva Esperanza","osm_id":6291685101,"osm_tipo":"node","tipo_lugar":"suburb"},"geometry":{"type":"Point","coordinates":[-78.9520454,-6.6252575]}},{"type":"Feature","properties":{"nome":"Barrio La Plaza","osm_id":7961091770,"osm_tipo":"node","tipo_lugar":"neighbourhood"},"geometry":{"type":"Point","coordinates":[-89.039677,15.1081514]}},{"type":"Feature","properties":{"nome":"Barrio Los Hernández","osm_id":7961091781,"osm_tipo":"node","tipo_lugar":"neighbourhood"},"geometry":{"type":"Point","coordinates":[-89.0416011,15.109027]}},{"type":"Feature","properties":{"nome":"Barrio las Palmas","osm_id":7961094185,"osm_tipo":"node","tipo_lugar":"neighbourhood"},"geometry":{"type":"Point","coordinates":[-89.0450629,15.1056655]}},{"type":"Feature","properties":{"nome":"Barrio Campesino","osm_id":7961094189,"osm_tipo":"node","tipo_lugar":"neighbourhood"},"geometry":{"type":"Point","coordinates":[-89.0446981,15.1033867]}},{"type":"Feature","properties":{"nome":"Las Abras","osm_id":8446704195,"osm_tipo":"node","tipo_lugar":"neighbourhood"},"geometry":{"type":"Point","coordinates":[-83.7230703,9.9958904]}},{"type":"Feature","properties":{"nome":"Buenos Aires","osm_id":8446704214,"osm_tipo":"node","tipo_lugar":"neighbourhood"},"geometry":{"type":"Point","coordinates":[-83.7352573,9.9885498]}},{"type":"Feature","properties":{"nome":"Cinchona","osm_id":8446779618,"osm_tipo":"node","tipo_lugar":"neighbourhood"},"geometry":{"type":"Point","coordinates":[-83.7119207,9.973157]}},{"type":"Feature","properties":{"nome":"San Diego","osm_id":8860671928,"osm_tipo":"node","tipo_lugar":"neighbourhood"},"geometry":{"type":"Point","coordinates":[-83.701356,9.9601441]}},{"type":"Feature","properties":{"nome":"Alto del Torito","osm_id":8860725120,"osm_tipo":"node","tipo_lugar":"neighbourhood"},"geometry":{"type":"Point","coordinates":[-83.7108156,10.0183331]}},{"type":"Feature","properties":{"nome":"Nova Santa Cruz","osm_id":8942743443,"osm_tipo":"node","tipo_lugar":"suburb"},"geometry":{"type":"Point","coordinates":[-36.0230756,-6.2223665]}},{"type":"Feature","properties":{"nome":"Centro","osm_id":8942743447,"osm_tipo":"node","tipo_lugar":"suburb"},"geometry":{"type":"Point","coordinates":[-36.021595,-6.2286378]}},{"type":"Feature","properties":{"nome":"Três a Um","osm_id":8942743449,"osm_tipo":"node","tipo_lugar":"suburb"},"geometry":{"type":"Point","coordinates":[-36.0171747,-6.2322401]}},{"type":"Feature","properties":{"nome":"Vila Rica","osm_id":8942743451,"osm_tipo":"node","tipo_lugar":"suburb"},"geometry":{"type":"Point","coordinates":[-36.0125399,-6.2366849]}},{"type":"Feature","properties":{"nome":"Alegre","osm_id":8942743457,"osm_tipo":"node","tipo_lugar":"suburb"},"geometry":{"type":"Point","coordinates":[-36.0099274,-6.2353571]}},{"type":"Feature","properties":{"nome":"Cônego Monte","osm_id":8942743459,"osm_tipo":"node","tipo_lugar":"suburb"},"geometry":{"type":"Point","coordinates":[-36.0113704,-6.2301523]}},{"type":"Feature","properties":{"nome":"DNER","osm_id":8942743469,"osm_tipo":"node","tipo_lugar":"suburb"},"geometry":{"type":"Point","coordinates":[-36.0172069,-6.2248516]}},{"type":"Feature","properties":{"nome":"Maracujá","osm_id":8942743481,"osm_tipo":"node","tipo_lugar":"suburb"},"geometry":{"type":"Point","coordinates":[-36.0234404,-6.2180469]}},{"type":"Feature","properties":{"nome":"Barro Vermelho","osm_id":8942743494,"osm_tipo":"node","tipo_lugar":"suburb"},"geometry":{"type":"Point","coordinates":[-36.0173679,-6.2176416]}},{"type":"Feature","properties":{"nome":"Paraíso","osm_id":8942763343,"osm_tipo":"node","tipo_lugar":"suburb"},"geometry":{"type":"Point","coordinates":[-36.0283542,-6.2320188]}},{"type":"Feature","properties":{"nome":"Punta Colorada","osm_id":8974308474,"osm_tipo":"node","tipo_lugar":"neighbourhood"},"geometry":{"type":"Point","coordinates":[-64.4470507,10.2779942]}},{"type":"Feature","properties":{"nome":"Los Parronales","osm_id":9294298081,"osm_tipo":"node","tipo_lugar":"neighbourhood"},"geometry":{"type":"Point","coordinates":[-71.357918,-34.6491922]}},{"type":"Feature","properties":{"nome":"Población Lautaro","osm_id":9294298082,"osm_tipo":"node","tipo_lugar":"neighbourhood"},"geometry":{"type":"Point","coordinates":[-71.3595725,-34.6325845]}},{"type":"Feature","properties":{"nome":"Villa C. Valenzuela","osm_id":9312648041,"osm_tipo":"node","tipo_lugar":"neighbourhood"},"geometry":{"type":"Point","coordinates":[-71.341964,-34.657366]}},{"type":"Feature","properties":{"nome":"Villa Los Alerces","osm_id":9312663676,"osm_tipo":"node","tipo_lugar":"neighbourhood"},"geometry":{"type":"Point","coordinates":[-71.3430154,-34.6581382]}},{"type":"Feature","properties":{"nome":"Campo Santo","osm_id":10299476061,"osm_tipo":"node","tipo_lugar":"neighbourhood"},"geometry":{"type":"Point","coordinates":[-89.043586,15.1100943]}},{"type":"Feature","properties":{"nome":"Villa Alegre","osm_id":12219039783,"osm_tipo":"node","tipo_lugar":"neighbourhood"},"geometry":{"type":"Point","coordinates":[-71.2604356,-34.6307582]}},{"type":"Feature","properties":{"nome":"Paniahue","osm_id":12245481548,"osm_tipo":"node","tipo_lugar":"neighbourhood"},"geometry":{"type":"Point","coordinates":[-71.3487983,-34.6254347]}},{"type":"Feature","properties":{"nome":"El Trazado","osm_id":12636071257,"osm_tipo":"node","tipo_lugar":"neighbourhood"},"geometry":{"type":"Point","coordinates":[-83.7169546,10.0063243]}},{"type":"Feature","properties":{"nome":"Conjunto Cônego Monte","osm_id":13436036893,"osm_tipo":"node","tipo_lugar":"suburb"},"geometry":{"type":"Point","coordinates":[-36.0075369,-6.2293058]}},{"type":"Feature","properties":{"nome":"Villa Los Parrones","osm_id":13816459628,"osm_tipo":"node","tipo_lugar":"neighbourhood"},"geometry":{"type":"Point","coordinates":[-71.3643408,-34.6284083]}},{"type":"Feature","properties":{"nome":"Avida Towers San Lazaro","osm_id":97191662,"osm_tipo":"way","tipo_lugar":"neighbourhood"},"geometry":{"type":"Polygon","coordinates":[[[120.9869391,14.617918],[120.986957,14.6193169],[120.9878259,14.6179349],[120.9869391,14.617918]]]}},{"type":"Feature","properties":{"nome":"Telecom Compound","osm_id":11704773,"osm_tipo":"relation","tipo_lugar":"neighbourhood"},"geometry":{"type":"MultiPolygon","coordinates":[[[[120.9850549,14.6050169],[120.9851991,14.605644],[120.9849671,14.6056959],[120.9850549,14.6050169]]],[[[120.9840178,14.6052686],[120.9841804,14.6051489],[120.9850549,14.6050169],[120.9840178,14.6052686]]]]}}]}