{"type":"FeatureCollection","features":[{"type":"Feature","properties":{"nome":"São Bentinho","osm_id":8660718245,"osm_tipo":"node","tipo_lugar":"neighbourhood"},"geometry":{"type":"Point","coordinates":[-37.4453759,-6.4708588]}},{"type":"Feature","properties":{"nome":"São Bento de Baixo","osm_id":8660718246,"osm_tipo":"node","tipo_lugar":"neighbourhood"},"geometry":{"type":"Point","coordinates":[-37.4391639,-6.4831928]}},{"type":"Feature","properties":{"nome":"Manoel Lúcio","osm_id":8660718247,"osm_tipo":"node","tipo_lugar":"neighbourhood"},"geometry":{"type":"Point","coordinates":[-37.4498069,-6.4838964]}},{"type":"Feature","properties":{"nome":"Herculano","osm_id":8660718248,"osm_tipo":"node","tipo_lugar":"neighbourhood"},"geometry":{"type":"Point","coordinates":[-37.4547583,-6.4873982]}},{"type":"Feature","properties":{"nome":"Centro","osm_id":8660718249,"osm_tipo":"node","tipo_lugar":"neighbourhood"},"geometry":{"type":"Point","coordinates":[-37.4493832,-6.4879206]}},{"type":"Feature","properties":{"nome":"Bosque do Piranhas","osm_id":8660718250,"osm_tipo":"node","tipo_lugar":"neighbourhood"},"geometry":{"type":"Point","coordinates":[-37.4546778,-6.4910706]}},{"type":"Feature","properties":{"nome":"São José","osm_id":8660718251,"osm_tipo":"node","tipo_lugar":"neighbourhood"},"geometry":{"type":"Point","coordinates":[-37.4601388,-6.4963687]}},{"type":"Feature","properties":{"nome":"Dão Silveira","osm_id":8660718252,"osm_tipo":"node","tipo_lugar":"neighbourhood"},"geometry":{"type":"Point","coordinates":[-37.454592,-6.4944179]}},{"type":"Feature","properties":{"nome":"Sudene","osm_id":8660718253,"osm_tipo":"node","tipo_lugar":"neighbourhood"},"geometry":{"type":"Point","coordinates":[-37.451148,-6.4950362]}},{"type":"Feature","properties":{"nome":"Cícero Dias I","osm_id":8660718254,"osm_tipo":"node","tipo_lugar":"neighbourhood"},"geometry":{"type":"Point","coordinates":[-37.4489701,-6.4917529]}},{"type":"Feature","properties":{"nome":"São Bernardo","osm_id":8660718256,"osm_tipo":"node","tipo_lugar":"neighbourhood"},"geometry":{"type":"Point","coordinates":[-37.4461484,-6.4984367]}},{"type":"Feature","properties":{"nome":"Boa Esperança","osm_id":8660718257,"osm_tipo":"node","tipo_lugar":"suburb"},"geometry":{"type":"Point","coordinates":[-37.4465078,-6.5030566]}},{"type":"Feature","properties":{"nome":"Loteamento Portal","osm_id":8660718258,"osm_tipo":"node","tipo_lugar":"neighbourhood"},"geometry":{"type":"Point","coordinates":[-37.4525106,-6.5042463]}},{"type":"Feature","properties":{"nome":"Belarmínio Lúcio","osm_id":8660718259,"osm_tipo":"node","tipo_lugar":"neighbourhood"},"geometry":{"type":"Point","coordinates":[-37.4462235,-6.506341]}},{"type":"Feature","properties":{"nome":"Cícero Dias II","osm_id":12909260626,"osm_tipo":"node","tipo_lugar":"neighbourhood"},"geometry":{"type":"Point","coordinates":[-37.4456404,-6.492552]}},{"type":"Feature","properties":{"nome":"Vieiropolis","osm_id":12909260627,"osm_tipo":"node","tipo_lugar":"neighbourhood"},"geometry":{"type":"Point","coordinates":[-37.4424594,-6.4916456]}}]}