{"type":"FeatureCollection","features":[{"type":"Feature","properties":{"nome":"Santa Terezinha","osm_id":6499849302,"osm_tipo":"node","tipo_lugar":"suburb"},"geometry":{"type":"Point","coordinates":[-38.4166893,-12.1181635]}},{"type":"Feature","properties":{"nome":"Kennedy","osm_id":6499853926,"osm_tipo":"node","tipo_lugar":"suburb"},"geometry":{"type":"Point","coordinates":[-38.4138205,-12.1273073]}},{"type":"Feature","properties":{"nome":"Alagoinhas Velha","osm_id":6499855466,"osm_tipo":"node","tipo_lugar":"suburb"},"geometry":{"type":"Point","coordinates":[-38.406266,-12.1332908]}},{"type":"Feature","properties":{"nome":"Catu","osm_id":6499858254,"osm_tipo":"node","tipo_lugar":"suburb"},"geometry":{"type":"Point","coordinates":[-38.4316454,-12.1221464]}},{"type":"Feature","properties":{"nome":"Teresópolis","osm_id":6499861586,"osm_tipo":"node","tipo_lugar":"suburb"},"geometry":{"type":"Point","coordinates":[-38.4385749,-12.1264533]}},{"type":"Feature","properties":{"nome":"Jardim Pedro Braga","osm_id":6499863040,"osm_tipo":"node","tipo_lugar":"suburb"},"geometry":{"type":"Point","coordinates":[-38.4292837,-12.1344881]}},{"type":"Feature","properties":{"nome":"Silva Jardim","osm_id":6499867188,"osm_tipo":"node","tipo_lugar":"suburb"},"geometry":{"type":"Point","coordinates":[-38.4347339,-12.1386786]}},{"type":"Feature","properties":{"nome":"Parque Vitoria","osm_id":6499867640,"osm_tipo":"node","tipo_lugar":"suburb"},"geometry":{"type":"Point","coordinates":[-38.4361344,-12.1367954]}},{"type":"Feature","properties":{"nome":"Centro","osm_id":6499873232,"osm_tipo":"node","tipo_lugar":"suburb"},"geometry":{"type":"Point","coordinates":[-38.4234825,-12.1387763]}},{"type":"Feature","properties":{"nome":"Juracy Magalhaes","osm_id":6499873233,"osm_tipo":"node","tipo_lugar":"suburb"},"geometry":{"type":"Point","coordinates":[-38.4260058,-12.145684]}},{"type":"Feature","properties":{"nome":"Jardim Petrolar","osm_id":6499873278,"osm_tipo":"node","tipo_lugar":"suburb"},"geometry":{"type":"Point","coordinates":[-38.4100856,-12.1479148]}},{"type":"Feature","properties":{"nome":"Dois de Julho","osm_id":6499885227,"osm_tipo":"node","tipo_lugar":"suburb"},"geometry":{"type":"Point","coordinates":[-38.4315216,-12.1473016]}},{"type":"Feature","properties":{"nome":"Santa Isabel","osm_id":6499885228,"osm_tipo":"node","tipo_lugar":"suburb"},"geometry":{"type":"Point","coordinates":[-38.4360475,-12.1445339]}},{"type":"Feature","properties":{"nome":"Mangalo","osm_id":6499885229,"osm_tipo":"node","tipo_lugar":"suburb"},"geometry":{"type":"Point","coordinates":[-38.4409807,-12.1490674]}},{"type":"Feature","properties":{"nome":"Barreiro","osm_id":6499930752,"osm_tipo":"node","tipo_lugar":"suburb"},"geometry":{"type":"Point","coordinates":[-38.4516815,-12.1425555]}},{"type":"Feature","properties":{"nome":"URBIS III","osm_id":625699132,"osm_tipo":"way","tipo_lugar":"suburb"},"geometry":{"type":"Polygon","coordinates":[[[-38.4300442,-12.1147082],[-38.4268256,-12.1182643],[-38.432571,-12.1203531],[-38.4347542,-12.1172783],[-38.4300442,-12.1147082]]]}}]}