{"type":"FeatureCollection","features":[{"type":"Feature","properties":{"nome":"Cerradão","osm_id":4099670339,"osm_tipo":"node","tipo_lugar":"suburb"},"geometry":{"type":"Point","coordinates":[-45.5821404,-12.0634946]}},{"type":"Feature","properties":{"nome":"Placas","osm_id":4183152710,"osm_tipo":"node","tipo_lugar":"suburb"},"geometry":{"type":"Point","coordinates":[-46.272102,-11.8300147]}},{"type":"Feature","properties":{"nome":"Loteamento Ondas Ville","osm_id":4302167109,"osm_tipo":"node","tipo_lugar":"suburb"},"geometry":{"type":"Point","coordinates":[-45.062382,-12.1150072]}},{"type":"Feature","properties":{"nome":"Centro","osm_id":4517043232,"osm_tipo":"node","tipo_lugar":"suburb"},"geometry":{"type":"Point","coordinates":[-44.9968139,-12.1467973]}},{"type":"Feature","properties":{"nome":"Barreirinhas","osm_id":4517047914,"osm_tipo":"node","tipo_lugar":"suburb"},"geometry":{"type":"Point","coordinates":[-45.0066827,-12.1371913]}},{"type":"Feature","properties":{"nome":"Morada Nobre","osm_id":4517047915,"osm_tipo":"node","tipo_lugar":"suburb"},"geometry":{"type":"Point","coordinates":[-45.0226546,-12.1347881]}},{"type":"Feature","properties":{"nome":"Morada Nobre","osm_id":4517047916,"osm_tipo":"node","tipo_lugar":"suburb"},"geometry":{"type":"Point","coordinates":[-45.0173118,-12.13623]}},{"type":"Feature","properties":{"nome":"Morada da Lua","osm_id":4517050514,"osm_tipo":"node","tipo_lugar":"suburb"},"geometry":{"type":"Point","coordinates":[-44.9936612,-12.1737702]}},{"type":"Feature","properties":{"nome":"Vila Rica","osm_id":4517052097,"osm_tipo":"node","tipo_lugar":"suburb"},"geometry":{"type":"Point","coordinates":[-45.0129517,-12.1263202]}},{"type":"Feature","properties":{"nome":"Ribeirão","osm_id":4518890023,"osm_tipo":"node","tipo_lugar":"suburb"},"geometry":{"type":"Point","coordinates":[-45.0122994,-12.1632689]}},{"type":"Feature","properties":{"nome":"São Pedro","osm_id":4518899299,"osm_tipo":"node","tipo_lugar":"suburb"},"geometry":{"type":"Point","coordinates":[-45.0070947,-12.1302484]}},{"type":"Feature","properties":{"nome":"Bela Vista","osm_id":4518899300,"osm_tipo":"node","tipo_lugar":"suburb"},"geometry":{"type":"Point","coordinates":[-45.0020302,-12.129509]}},{"type":"Feature","properties":{"nome":"Recanto dos Pássaros","osm_id":4518905436,"osm_tipo":"node","tipo_lugar":"suburb"},"geometry":{"type":"Point","coordinates":[-45.0065119,-12.1549361]}},{"type":"Feature","properties":{"nome":"Baraúna","osm_id":4616133612,"osm_tipo":"node","tipo_lugar":"suburb"},"geometry":{"type":"Point","coordinates":[-45.0256605,-12.2232402]}},{"type":"Feature","properties":{"nome":"Vila Nova","osm_id":4696533789,"osm_tipo":"node","tipo_lugar":"suburb"},"geometry":{"type":"Point","coordinates":[-44.9679346,-12.1382184]}},{"type":"Feature","properties":{"nome":"Rio Grande","osm_id":4704471863,"osm_tipo":"node","tipo_lugar":"suburb"},"geometry":{"type":"Point","coordinates":[-44.9723389,-12.1400027]}},{"type":"Feature","properties":{"nome":"Sombra da Tarde","osm_id":4704474134,"osm_tipo":"node","tipo_lugar":"suburb"},"geometry":{"type":"Point","coordinates":[-44.9690491,-12.129993]}},{"type":"Feature","properties":{"nome":"Vila dos Sas","osm_id":4705425489,"osm_tipo":"node","tipo_lugar":"suburb"},"geometry":{"type":"Point","coordinates":[-45.0124404,-12.1348633]}},{"type":"Feature","properties":{"nome":"Mimoso","osm_id":4707543912,"osm_tipo":"node","tipo_lugar":"suburb"},"geometry":{"type":"Point","coordinates":[-44.9639644,-12.1374916]}},{"type":"Feature","properties":{"nome":"Jardim Vitória","osm_id":4707557770,"osm_tipo":"node","tipo_lugar":"suburb"},"geometry":{"type":"Point","coordinates":[-44.9647178,-12.1332265]}},{"type":"Feature","properties":{"nome":"Alphaville","osm_id":4708314465,"osm_tipo":"node","tipo_lugar":"suburb"},"geometry":{"type":"Point","coordinates":[-44.9618436,-12.1312557]}},{"type":"Feature","properties":{"nome":"Antônio Geraldo","osm_id":4747558592,"osm_tipo":"node","tipo_lugar":"suburb"},"geometry":{"type":"Point","coordinates":[-45.0069563,-12.1585547]}},{"type":"Feature","properties":{"nome":"Vila Regina","osm_id":4747572086,"osm_tipo":"node","tipo_lugar":"suburb"},"geometry":{"type":"Point","coordinates":[-44.998981,-12.1564047]}},{"type":"Feature","properties":{"nome":"Ribeirão","osm_id":4747582201,"osm_tipo":"node","tipo_lugar":"suburb"},"geometry":{"type":"Point","coordinates":[-45.0102527,-12.1663473]}},{"type":"Feature","properties":{"nome":"Boa Sorte","osm_id":4747583337,"osm_tipo":"node","tipo_lugar":"suburb"},"geometry":{"type":"Point","coordinates":[-45.0070761,-12.1661364]}},{"type":"Feature","properties":{"nome":"Morada da Lua","osm_id":4747584434,"osm_tipo":"node","tipo_lugar":"suburb"},"geometry":{"type":"Point","coordinates":[-44.9922725,-12.1628672]}},{"type":"Feature","properties":{"nome":"Parque Verde","osm_id":4747585343,"osm_tipo":"node","tipo_lugar":"suburb"},"geometry":{"type":"Point","coordinates":[-44.9871689,-12.1763772]}},{"type":"Feature","properties":{"nome":"Flamengo","osm_id":4747587354,"osm_tipo":"node","tipo_lugar":"suburb"},"geometry":{"type":"Point","coordinates":[-44.9673763,-12.1447838]}},{"type":"Feature","properties":{"nome":"Buritis","osm_id":4898191831,"osm_tipo":"node","tipo_lugar":"suburb"},"geometry":{"type":"Point","coordinates":[-44.9502546,-12.113306]}},{"type":"Feature","properties":{"nome":"Residencial São Francisco","osm_id":5567357269,"osm_tipo":"node","tipo_lugar":"suburb"},"geometry":{"type":"Point","coordinates":[-44.9785787,-12.0913644]}},{"type":"Feature","properties":{"nome":"Condomínio Vento Leste","osm_id":5567357270,"osm_tipo":"node","tipo_lugar":"neighbourhood"},"geometry":{"type":"Point","coordinates":[-45.0135551,-12.1873523]}},{"type":"Feature","properties":{"nome":"Jardins","osm_id":7346883922,"osm_tipo":"node","tipo_lugar":"suburb"},"geometry":{"type":"Point","coordinates":[-44.9401506,-12.1433111]}},{"type":"Feature","properties":{"nome":"Cidade Nova","osm_id":7347007848,"osm_tipo":"node","tipo_lugar":"suburb"},"geometry":{"type":"Point","coordinates":[-44.9539872,-12.1270228]}},{"type":"Feature","properties":{"nome":"Loteamento Ravena","osm_id":9683383349,"osm_tipo":"node","tipo_lugar":"neighbourhood"},"geometry":{"type":"Point","coordinates":[-44.9479035,-12.1293551]}},{"type":"Feature","properties":{"nome":"Parque Verde","osm_id":785919351,"osm_tipo":"way","tipo_lugar":"suburb"},"geometry":{"type":"Polygon","coordinates":[[[-44.9853178,-12.1716705],[-44.9800076,-12.178311],[-44.9883418,-12.1816995],[-44.9907678,-12.1743914],[-44.9853178,-12.1716705]]]}},{"type":"Feature","properties":{"nome":"Cidade Nova","osm_id":785944182,"osm_tipo":"way","tipo_lugar":"suburb"},"geometry":{"type":"Polygon","coordinates":[[[-44.9475065,-12.136253],[-44.9543813,-12.1367057],[-44.9605869,-12.1188263],[-44.955472,-12.1149771],[-44.9525811,-12.1179889],[-44.9475065,-12.136253]]]}}]}