{"type":"FeatureCollection","features":[{"type":"Feature","properties":{"nome":"Centro","osm_id":10197121287,"osm_tipo":"node","tipo_lugar":"suburb"},"geometry":{"type":"Point","coordinates":[-42.523271,-13.3780886]}},{"type":"Feature","properties":{"nome":"Padre Aldo Lucchetta","osm_id":10197121288,"osm_tipo":"node","tipo_lugar":"suburb"},"geometry":{"type":"Point","coordinates":[-42.5260584,-13.3877496]}},{"type":"Feature","properties":{"nome":"Pé do Morro","osm_id":10197121293,"osm_tipo":"node","tipo_lugar":"suburb"},"geometry":{"type":"Point","coordinates":[-42.5307367,-13.3790364]}},{"type":"Feature","properties":{"nome":"Coração de Jesus","osm_id":10197147822,"osm_tipo":"node","tipo_lugar":"suburb"},"geometry":{"type":"Point","coordinates":[-42.5189432,-13.3794102]}},{"type":"Feature","properties":{"nome":"Irmã Dulce","osm_id":10197147825,"osm_tipo":"node","tipo_lugar":"suburb"},"geometry":{"type":"Point","coordinates":[-42.5181826,-13.3695563]}}]}