{"type":"FeatureCollection","features":[{"type":"Feature","properties":{"nome":"Guarajuba","osm_id":612499878,"osm_tipo":"node","tipo_lugar":"neighbourhood"},"geometry":{"type":"Point","coordinates":[-38.0707556,-12.650358]}},{"type":"Feature","properties":{"nome":"Itacimirim","osm_id":612560963,"osm_tipo":"node","tipo_lugar":"neighbourhood"},"geometry":{"type":"Point","coordinates":[-38.0477754,-12.6115626]}},{"type":"Feature","properties":{"nome":"Alto da Mira","osm_id":788969916,"osm_tipo":"node","tipo_lugar":"suburb"},"geometry":{"type":"Point","coordinates":[-38.09757,-12.6421277]}},{"type":"Feature","properties":{"nome":"Centro","osm_id":788969921,"osm_tipo":"node","tipo_lugar":"suburb"},"geometry":{"type":"Point","coordinates":[-38.0926674,-12.6439662]}},{"type":"Feature","properties":{"nome":"Beco da Cebola","osm_id":788969926,"osm_tipo":"node","tipo_lugar":"suburb"},"geometry":{"type":"Point","coordinates":[-38.0941338,-12.656354]}},{"type":"Feature","properties":{"nome":"São Bento","osm_id":938653803,"osm_tipo":"node","tipo_lugar":"suburb"},"geometry":{"type":"Point","coordinates":[-38.1068183,-12.6593302]}},{"type":"Feature","properties":{"nome":"Sitio Pica-Pao preto","osm_id":1081482930,"osm_tipo":"node","tipo_lugar":"neighbourhood"},"geometry":{"type":"Point","coordinates":[-38.0916133,-12.6391967]}},{"type":"Feature","properties":{"nome":"Centro","osm_id":1132335294,"osm_tipo":"node","tipo_lugar":"suburb"},"geometry":{"type":"Point","coordinates":[-38.3245666,-12.7006157]}},{"type":"Feature","properties":{"nome":"Orla","osm_id":1346008726,"osm_tipo":"node","tipo_lugar":"suburb"},"geometry":{"type":"Point","coordinates":[-38.0842561,-12.6440877]}},{"type":"Feature","properties":{"nome":"Gleba C","osm_id":3285006268,"osm_tipo":"node","tipo_lugar":"suburb"},"geometry":{"type":"Point","coordinates":[-38.3293215,-12.7126586]}},{"type":"Feature","properties":{"nome":"Ponto Certo","osm_id":3285021179,"osm_tipo":"node","tipo_lugar":"suburb"},"geometry":{"type":"Point","coordinates":[-38.3171372,-12.7113049]}},{"type":"Feature","properties":{"nome":"Piaçavera","osm_id":3296865529,"osm_tipo":"node","tipo_lugar":"suburb"},"geometry":{"type":"Point","coordinates":[-38.3209579,-12.7145302]}},{"type":"Feature","properties":{"nome":"Dois de Julho","osm_id":3296871902,"osm_tipo":"node","tipo_lugar":"suburb"},"geometry":{"type":"Point","coordinates":[-38.322802,-12.7084581]}},{"type":"Feature","properties":{"nome":"Bela Vista","osm_id":3296872771,"osm_tipo":"node","tipo_lugar":"suburb"},"geometry":{"type":"Point","coordinates":[-38.3200769,-12.711891]}},{"type":"Feature","properties":{"nome":"Bairro do 46","osm_id":3296880861,"osm_tipo":"node","tipo_lugar":"suburb"},"geometry":{"type":"Point","coordinates":[-38.3269863,-12.7083221]}},{"type":"Feature","properties":{"nome":"Gleba B","osm_id":3296898964,"osm_tipo":"node","tipo_lugar":"suburb"},"geometry":{"type":"Point","coordinates":[-38.3242108,-12.6935956]}},{"type":"Feature","properties":{"nome":"Novo Horizonte","osm_id":3296902169,"osm_tipo":"node","tipo_lugar":"suburb"},"geometry":{"type":"Point","coordinates":[-38.3090054,-12.6976515]}},{"type":"Feature","properties":{"nome":"Nova Vitória","osm_id":3296904708,"osm_tipo":"node","tipo_lugar":"suburb"},"geometry":{"type":"Point","coordinates":[-38.3150538,-12.701974]}},{"type":"Feature","properties":{"nome":"Alto da Cruz","osm_id":3296910439,"osm_tipo":"node","tipo_lugar":"suburb"},"geometry":{"type":"Point","coordinates":[-38.3289476,-12.6955163]}},{"type":"Feature","properties":{"nome":"Gleba A","osm_id":3296911001,"osm_tipo":"node","tipo_lugar":"suburb"},"geometry":{"type":"Point","coordinates":[-38.3357712,-12.6912668]}},{"type":"Feature","properties":{"nome":"Lama Preta","osm_id":3301678831,"osm_tipo":"node","tipo_lugar":"suburb"},"geometry":{"type":"Point","coordinates":[-38.3389373,-12.6999833]}},{"type":"Feature","properties":{"nome":"Parque Satelite","osm_id":4520796500,"osm_tipo":"node","tipo_lugar":"suburb"},"geometry":{"type":"Point","coordinates":[-38.3267611,-12.6884021]}},{"type":"Feature","properties":{"nome":"Phoc I","osm_id":4520807647,"osm_tipo":"node","tipo_lugar":"suburb"},"geometry":{"type":"Point","coordinates":[-38.3350652,-12.714683]}},{"type":"Feature","properties":{"nome":"Phoc III","osm_id":4520811138,"osm_tipo":"node","tipo_lugar":"suburb"},"geometry":{"type":"Point","coordinates":[-38.3348721,-12.7199786]}},{"type":"Feature","properties":{"nome":"Phoc II","osm_id":4520811879,"osm_tipo":"node","tipo_lugar":"suburb"},"geometry":{"type":"Point","coordinates":[-38.3346897,-12.708529]}},{"type":"Feature","properties":{"nome":"Gleba E","osm_id":4520819609,"osm_tipo":"node","tipo_lugar":"suburb"},"geometry":{"type":"Point","coordinates":[-38.3310268,-12.7228666]}},{"type":"Feature","properties":{"nome":"Parque Verde I","osm_id":4520832025,"osm_tipo":"node","tipo_lugar":"suburb"},"geometry":{"type":"Point","coordinates":[-38.3248684,-12.718335]}},{"type":"Feature","properties":{"nome":"Parque verde II","osm_id":4520833057,"osm_tipo":"node","tipo_lugar":"suburb"},"geometry":{"type":"Point","coordinates":[-38.3249972,-12.7251376]}},{"type":"Feature","properties":{"nome":"Jardim Limoeiro","osm_id":4540485957,"osm_tipo":"node","tipo_lugar":"suburb"},"geometry":{"type":"Point","coordinates":[-38.300416,-12.708141]}},{"type":"Feature","properties":{"nome":"Gravatá","osm_id":4567331433,"osm_tipo":"node","tipo_lugar":"suburb"},"geometry":{"type":"Point","coordinates":[-38.333283,-12.6878213]}},{"type":"Feature","properties":{"nome":"Reserva Camassarys","osm_id":4569753958,"osm_tipo":"node","tipo_lugar":"suburb"},"geometry":{"type":"Point","coordinates":[-38.3071272,-12.7086304]}},{"type":"Feature","properties":{"nome":"Ficam II","osm_id":4573945646,"osm_tipo":"node","tipo_lugar":"suburb"},"geometry":{"type":"Point","coordinates":[-38.329369,-12.6895103]}},{"type":"Feature","properties":{"nome":"Ficam I","osm_id":4573948453,"osm_tipo":"node","tipo_lugar":"suburb"},"geometry":{"type":"Point","coordinates":[-38.3294402,-12.6871751]}},{"type":"Feature","properties":{"nome":"Mangueiral","osm_id":4573950354,"osm_tipo":"node","tipo_lugar":"suburb"},"geometry":{"type":"Point","coordinates":[-38.3315676,-12.6851923]}},{"type":"Feature","properties":{"nome":"Gleba H","osm_id":4574141730,"osm_tipo":"node","tipo_lugar":"suburb"},"geometry":{"type":"Point","coordinates":[-38.3457606,-12.7101004]}},{"type":"Feature","properties":{"nome":"Buri Satuba","osm_id":4574144443,"osm_tipo":"node","tipo_lugar":"suburb"},"geometry":{"type":"Point","coordinates":[-38.3412008,-12.7119529]}},{"type":"Feature","properties":{"nome":"Triângulo","osm_id":4600044174,"osm_tipo":"node","tipo_lugar":"suburb"},"geometry":{"type":"Point","coordinates":[-38.3387494,-12.6953678]}},{"type":"Feature","properties":{"nome":"Santo Antônio","osm_id":5354799525,"osm_tipo":"node","tipo_lugar":"suburb"},"geometry":{"type":"Point","coordinates":[-38.3504163,-12.6886942]}},{"type":"Feature","properties":{"nome":"Santa Maria","osm_id":5354809883,"osm_tipo":"node","tipo_lugar":"suburb"},"geometry":{"type":"Point","coordinates":[-38.3469991,-12.7163062]}},{"type":"Feature","properties":{"nome":"Polo Industrial","osm_id":5380980467,"osm_tipo":"node","tipo_lugar":"suburb"},"geometry":{"type":"Point","coordinates":[-38.3145037,-12.6616713]}},{"type":"Feature","properties":{"nome":"Parque Florestal","osm_id":5667242126,"osm_tipo":"node","tipo_lugar":"suburb"},"geometry":{"type":"Point","coordinates":[-38.3207922,-12.6894794]}},{"type":"Feature","properties":{"nome":"Bairro do Natal","osm_id":5667267421,"osm_tipo":"node","tipo_lugar":"suburb"},"geometry":{"type":"Point","coordinates":[-38.321439,-12.6942414]}},{"type":"Feature","properties":{"nome":"Condominio Planeta Aqua","osm_id":7158507997,"osm_tipo":"node","tipo_lugar":"suburb"},"geometry":{"type":"Point","coordinates":[-38.1444669,-12.7180259]}},{"type":"Feature","properties":{"nome":"Vilas do Jacuipe","osm_id":7158508003,"osm_tipo":"node","tipo_lugar":"suburb"},"geometry":{"type":"Point","coordinates":[-38.1460306,-12.7062361]}},{"type":"Feature","properties":{"nome":"Vila Senhor dos Passos","osm_id":7158508045,"osm_tipo":"node","tipo_lugar":"suburb"},"geometry":{"type":"Point","coordinates":[-38.1679202,-12.7373028]}},{"type":"Feature","properties":{"nome":"Verdes Horizontes","osm_id":7580751964,"osm_tipo":"node","tipo_lugar":"suburb"},"geometry":{"type":"Point","coordinates":[-38.3184031,-12.7258874]}},{"type":"Feature","properties":{"nome":"Parque das Mangabas","osm_id":7580762307,"osm_tipo":"node","tipo_lugar":"suburb"},"geometry":{"type":"Point","coordinates":[-38.2933511,-12.7321802]}},{"type":"Feature","properties":{"nome":"Jardim Limoeiro","osm_id":11051951714,"osm_tipo":"node","tipo_lugar":"suburb"},"geometry":{"type":"Point","coordinates":[-38.3021348,-12.7043949]}},{"type":"Feature","properties":{"nome":"Bairro Cristo Redentor","osm_id":104907735,"osm_tipo":"way","tipo_lugar":"suburb"},"geometry":{"type":"Polygon","coordinates":[[[-38.3378674,-12.6868],[-38.3378055,-12.6848836],[-38.3412847,-12.6840929],[-38.3408108,-12.686891],[-38.3378674,-12.6868]]]}},{"type":"Feature","properties":{"nome":"Parque das Mangabas","osm_id":104908426,"osm_tipo":"way","tipo_lugar":"suburb"},"geometry":{"type":"Polygon","coordinates":[[[-38.3019666,-12.7304945],[-38.3016037,-12.7276552],[-38.2946654,-12.7270831],[-38.2912835,-12.7316994],[-38.284092,-12.7299346],[-38.2830202,-12.7346853],[-38.2919686,-12.7370776],[-38.2929486,-12.7343405],[-38.2949738,-12.7350371],[-38.3019666,-12.7304945]]]}},{"type":"Feature","properties":{"nome":"Condomínio Sun Park","osm_id":528226415,"osm_tipo":"way","tipo_lugar":"neighbourhood"},"geometry":{"type":"Polygon","coordinates":[[[-38.2795054,-12.843127],[-38.2789862,-12.8434737],[-38.2792479,-12.8446229],[-38.2795054,-12.843127]]]}},{"type":"Feature","properties":{"nome":"Condomínio Coqueiros","osm_id":762492714,"osm_tipo":"way","tipo_lugar":"neighbourhood"},"geometry":{"type":"Polygon","coordinates":[[[-38.278085,-12.8357679],[-38.2767435,-12.8345835],[-38.2786208,-12.8349982],[-38.278085,-12.8357679]]]}},{"type":"Feature","properties":{"nome":"Barra do Jacuípe","osm_id":1114918880,"osm_tipo":"way","tipo_lugar":"neighbourhood"},"geometry":{"type":"Polygon","coordinates":[[[-38.1380037,-12.7026645],[-38.1434968,-12.7084418],[-38.1381753,-12.7144492],[-38.1367532,-12.7141801],[-38.1336843,-12.707366],[-38.1229618,-12.708379],[-38.1019264,-12.685796],[-38.1077803,-12.6806812],[-38.1138292,-12.6694295],[-38.1139823,-12.6720251],[-38.1312243,-12.6857126],[-38.129694,-12.6869668],[-38.1341398,-12.6943338],[-38.1396253,-12.6949435],[-38.1400874,-12.6977206],[-38.1380037,-12.7026645]]]}},{"type":"Feature","properties":{"nome":"Verdes Horizontes","osm_id":4497759,"osm_tipo":"relation","tipo_lugar":"suburb"},"geometry":{"type":"MultiPolygon","coordinates":[[[[-38.3195222,-12.733688],[-38.3154564,-12.7345518],[-38.3149906,-12.7273681],[-38.3195222,-12.733688]]],[[[-38.3149906,-12.7273681],[-38.3172641,-12.719909],[-38.3196696,-12.718704],[-38.3213532,-12.7207035],[-38.3214622,-12.7256458],[-38.3195222,-12.733688],[-38.3149906,-12.7273681]]]]}}]}