{"type":"FeatureCollection","features":[{"type":"Feature","properties":{"nome":"Centro","osm_id":1721246976,"osm_tipo":"node","tipo_lugar":"suburb"},"geometry":{"type":"Point","coordinates":[-39.1016142,-12.6745075]}},{"type":"Feature","properties":{"nome":"Assembléia","osm_id":1721246977,"osm_tipo":"node","tipo_lugar":"suburb"},"geometry":{"type":"Point","coordinates":[-39.110814,-12.669642]}},{"type":"Feature","properties":{"nome":"INOCOOP","osm_id":1896565936,"osm_tipo":"node","tipo_lugar":"suburb"},"geometry":{"type":"Point","coordinates":[-39.1034474,-12.6576407]}},{"type":"Feature","properties":{"nome":"Tabela","osm_id":1896565937,"osm_tipo":"node","tipo_lugar":"suburb"},"geometry":{"type":"Point","coordinates":[-39.0996903,-12.6517875]}},{"type":"Feature","properties":{"nome":"Alberto Passos","osm_id":2559915342,"osm_tipo":"node","tipo_lugar":"suburb"},"geometry":{"type":"Point","coordinates":[-39.0958146,-12.6769831]}},{"type":"Feature","properties":{"nome":"Primavera","osm_id":6634119391,"osm_tipo":"node","tipo_lugar":"suburb"},"geometry":{"type":"Point","coordinates":[-39.0988773,-12.667226]}},{"type":"Feature","properties":{"nome":"Itapicuru","osm_id":6691803936,"osm_tipo":"node","tipo_lugar":"suburb"},"geometry":{"type":"Point","coordinates":[-39.1185154,-12.6562736]}},{"type":"Feature","properties":{"nome":"Loteamento Santo Antônio","osm_id":6691803937,"osm_tipo":"node","tipo_lugar":"suburb"},"geometry":{"type":"Point","coordinates":[-39.1175541,-12.6526301]}},{"type":"Feature","properties":{"nome":"Toquinha","osm_id":6691815861,"osm_tipo":"node","tipo_lugar":"suburb"},"geometry":{"type":"Point","coordinates":[-39.1274811,-12.6597906]}},{"type":"Feature","properties":{"nome":"Cajá","osm_id":6691815862,"osm_tipo":"node","tipo_lugar":"suburb"},"geometry":{"type":"Point","coordinates":[-39.1260175,-12.6557446]}},{"type":"Feature","properties":{"nome":"Embira","osm_id":6691832878,"osm_tipo":"node","tipo_lugar":"suburb"},"geometry":{"type":"Point","coordinates":[-39.1433214,-12.6826227]}},{"type":"Feature","properties":{"nome":"Loteamento Tancredo Neves","osm_id":6691832879,"osm_tipo":"node","tipo_lugar":"suburb"},"geometry":{"type":"Point","coordinates":[-39.1339088,-12.662623]}},{"type":"Feature","properties":{"nome":"Sapucaia","osm_id":6691841273,"osm_tipo":"node","tipo_lugar":"suburb"},"geometry":{"type":"Point","coordinates":[-39.0627825,-12.6617792]}},{"type":"Feature","properties":{"nome":"Coplan","osm_id":6691842253,"osm_tipo":"node","tipo_lugar":"suburb"},"geometry":{"type":"Point","coordinates":[-39.1189434,-12.6605714]}}]}