{"type":"FeatureCollection","features":[{"type":"Feature","properties":{"nome":"Urbis","osm_id":7556576264,"osm_tipo":"node","tipo_lugar":"suburb"},"geometry":{"type":"Point","coordinates":[-40.3081979,-12.5174075]}},{"type":"Feature","properties":{"nome":"Loteamento Bahia","osm_id":7556576265,"osm_tipo":"node","tipo_lugar":"suburb"},"geometry":{"type":"Point","coordinates":[-40.3020789,-12.5211752]}},{"type":"Feature","properties":{"nome":"CONCIC","osm_id":7556576266,"osm_tipo":"node","tipo_lugar":"suburb"},"geometry":{"type":"Point","coordinates":[-40.2865772,-12.5232324]}},{"type":"Feature","properties":{"nome":"Primavera","osm_id":7556576270,"osm_tipo":"node","tipo_lugar":"suburb"},"geometry":{"type":"Point","coordinates":[-40.3131798,-12.5315266]}},{"type":"Feature","properties":{"nome":"Centro","osm_id":7556576271,"osm_tipo":"node","tipo_lugar":"suburb"},"geometry":{"type":"Point","coordinates":[-40.3082756,-12.5309248]}},{"type":"Feature","properties":{"nome":"Jardim das Palmeiras","osm_id":7556576272,"osm_tipo":"node","tipo_lugar":"suburb"},"geometry":{"type":"Point","coordinates":[-40.316248,-12.5268406]}},{"type":"Feature","properties":{"nome":"Condomínio Brezza Di Fiore","osm_id":7556576280,"osm_tipo":"node","tipo_lugar":"suburb"},"geometry":{"type":"Point","coordinates":[-40.3002784,-12.5161842]}},{"type":"Feature","properties":{"nome":"Escurinha","osm_id":7556576281,"osm_tipo":"node","tipo_lugar":"suburb"},"geometry":{"type":"Point","coordinates":[-40.3048062,-12.5122473]}},{"type":"Feature","properties":{"nome":"Luar de Itaberaba","osm_id":7560016692,"osm_tipo":"node","tipo_lugar":"suburb"},"geometry":{"type":"Point","coordinates":[-40.2838968,-12.5241757]}},{"type":"Feature","properties":{"nome":"Parque das Águas","osm_id":7560025341,"osm_tipo":"node","tipo_lugar":"suburb"},"geometry":{"type":"Point","coordinates":[-40.3182714,-12.5316475]}},{"type":"Feature","properties":{"nome":"Rodaviva","osm_id":7571831135,"osm_tipo":"node","tipo_lugar":"suburb"},"geometry":{"type":"Point","coordinates":[-40.3101882,-12.5086162]}},{"type":"Feature","properties":{"nome":"Moradas do Sol","osm_id":7571831136,"osm_tipo":"node","tipo_lugar":"suburb"},"geometry":{"type":"Point","coordinates":[-40.3131885,-12.5122042]}},{"type":"Feature","properties":{"nome":"Alameda das Umburanas","osm_id":7571831137,"osm_tipo":"node","tipo_lugar":"suburb"},"geometry":{"type":"Point","coordinates":[-40.31877,-12.5136398]}},{"type":"Feature","properties":{"nome":"A. das Umburanas","osm_id":7571831138,"osm_tipo":"node","tipo_lugar":"suburb"},"geometry":{"type":"Point","coordinates":[-40.3131008,-12.5148791]}},{"type":"Feature","properties":{"nome":"Alto das árvores","osm_id":7571831139,"osm_tipo":"node","tipo_lugar":"suburb"},"geometry":{"type":"Point","coordinates":[-40.3132364,-12.5174658]}},{"type":"Feature","properties":{"nome":"Pé do Monte","osm_id":7571831140,"osm_tipo":"node","tipo_lugar":"suburb"},"geometry":{"type":"Point","coordinates":[-40.3125085,-12.5231291]}},{"type":"Feature","properties":{"nome":"Independente","osm_id":7571831141,"osm_tipo":"node","tipo_lugar":"suburb"},"geometry":{"type":"Point","coordinates":[-40.3093782,-12.5253668]}},{"type":"Feature","properties":{"nome":"Derba","osm_id":7571831142,"osm_tipo":"node","tipo_lugar":"suburb"},"geometry":{"type":"Point","coordinates":[-40.3063464,-12.5210236]}},{"type":"Feature","properties":{"nome":"Cidade de Deus","osm_id":7571831143,"osm_tipo":"node","tipo_lugar":"suburb"},"geometry":{"type":"Point","coordinates":[-40.3090331,-12.5061648]}},{"type":"Feature","properties":{"nome":"Bonanza","osm_id":7571831144,"osm_tipo":"node","tipo_lugar":"suburb"},"geometry":{"type":"Point","coordinates":[-40.3076898,-12.5057076]}},{"type":"Feature","properties":{"nome":"Barro Vermelho","osm_id":7578823593,"osm_tipo":"node","tipo_lugar":"suburb"},"geometry":{"type":"Point","coordinates":[-40.2994385,-12.5370283]}},{"type":"Feature","properties":{"nome":"São João","osm_id":7578823603,"osm_tipo":"node","tipo_lugar":"suburb"},"geometry":{"type":"Point","coordinates":[-40.2994844,-12.532745]}},{"type":"Feature","properties":{"nome":"Caititu","osm_id":7578823604,"osm_tipo":"node","tipo_lugar":"suburb"},"geometry":{"type":"Point","coordinates":[-40.2986756,-12.5261849]}},{"type":"Feature","properties":{"nome":"Costa e Silva","osm_id":7589882050,"osm_tipo":"node","tipo_lugar":"suburb"},"geometry":{"type":"Point","coordinates":[-40.2981776,-12.5295867]}},{"type":"Feature","properties":{"nome":"Condominio Nova Conquista","osm_id":11219110622,"osm_tipo":"node","tipo_lugar":"suburb"},"geometry":{"type":"Point","coordinates":[-40.3244316,-12.5084393]}}]}