{"type":"FeatureCollection","features":[{"type":"Feature","properties":{"nome":"Portão","osm_id":416655534,"osm_tipo":"node","tipo_lugar":"suburb"},"geometry":{"type":"Point","coordinates":[-38.306729,-12.8673412]}},{"type":"Feature","properties":{"nome":"Vilas do Atlântico","osm_id":617917153,"osm_tipo":"node","tipo_lugar":"suburb"},"geometry":{"type":"Point","coordinates":[-38.3000456,-12.8861199]}},{"type":"Feature","properties":{"nome":"Centro","osm_id":5324612366,"osm_tipo":"node","tipo_lugar":"suburb"},"geometry":{"type":"Point","coordinates":[-38.3267507,-12.8916137]}},{"type":"Feature","properties":{"nome":"Itinga","osm_id":5324624054,"osm_tipo":"node","tipo_lugar":"suburb"},"geometry":{"type":"Point","coordinates":[-38.3455045,-12.8905201]}},{"type":"Feature","properties":{"nome":"Vida Nova","osm_id":5700096312,"osm_tipo":"node","tipo_lugar":"suburb"},"geometry":{"type":"Point","coordinates":[-38.3329166,-12.8762203]}},{"type":"Feature","properties":{"nome":"Condominio Foz do Joanes","osm_id":7158341124,"osm_tipo":"node","tipo_lugar":"suburb"},"geometry":{"type":"Point","coordinates":[-38.2821608,-12.8736644]}},{"type":"Feature","properties":{"nome":"Parque São paulo","osm_id":15899472,"osm_tipo":"relation","tipo_lugar":"suburb"},"geometry":{"type":"MultiPolygon","coordinates":[[[[-38.3570086,-12.873661],[-38.3566303,-12.8697918],[-38.3554251,-12.8695847],[-38.351695,-12.8737379],[-38.3535035,-12.8757314],[-38.3570086,-12.873661]]],[[[-38.3535035,-12.8757314],[-38.3561587,-12.8794601],[-38.3583521,-12.878458],[-38.3570086,-12.873661],[-38.3535035,-12.8757314]]]]}}]}