{"type":"FeatureCollection","features":[{"type":"Feature","properties":{"nome":"Bela Vista","osm_id":4068446111,"osm_tipo":"node","tipo_lugar":"suburb"},"geometry":{"type":"Point","coordinates":[-46.2909843,-12.1100901]}},{"type":"Feature","properties":{"nome":"Novo Paraná","osm_id":4072547619,"osm_tipo":"node","tipo_lugar":"suburb"},"geometry":{"type":"Point","coordinates":[-45.8563937,-12.3281274]}},{"type":"Feature","properties":{"nome":"Alto dos Cerrados","osm_id":4114589613,"osm_tipo":"node","tipo_lugar":"suburb"},"geometry":{"type":"Point","coordinates":[-45.7769952,-12.0719586]}},{"type":"Feature","properties":{"nome":"Cidade Universitaria","osm_id":4114589614,"osm_tipo":"node","tipo_lugar":"suburb"},"geometry":{"type":"Point","coordinates":[-45.7978352,-12.0698027]}},{"type":"Feature","properties":{"nome":"Residencial 90","osm_id":4114589615,"osm_tipo":"node","tipo_lugar":"suburb"},"geometry":{"type":"Point","coordinates":[-45.7922771,-12.066908]}},{"type":"Feature","properties":{"nome":"Tropical Ville","osm_id":4114728920,"osm_tipo":"node","tipo_lugar":"suburb"},"geometry":{"type":"Point","coordinates":[-45.7501582,-12.0814043]}},{"type":"Feature","properties":{"nome":"Jardim das Acacias","osm_id":4114728922,"osm_tipo":"node","tipo_lugar":"suburb"},"geometry":{"type":"Point","coordinates":[-45.7673158,-12.0791342]}},{"type":"Feature","properties":{"nome":"Mimoso1","osm_id":4114728924,"osm_tipo":"node","tipo_lugar":"suburb"},"geometry":{"type":"Point","coordinates":[-45.7960095,-12.0779903]}},{"type":"Feature","properties":{"nome":"Alto da Lagoa","osm_id":4114728926,"osm_tipo":"node","tipo_lugar":"suburb"},"geometry":{"type":"Point","coordinates":[-45.817553,-12.1303533]}},{"type":"Feature","properties":{"nome":"Luar do Cerrado","osm_id":4114907664,"osm_tipo":"node","tipo_lugar":"suburb"},"geometry":{"type":"Point","coordinates":[-45.8018386,-12.0462546]}},{"type":"Feature","properties":{"nome":"Luar do Cerrado","osm_id":4114907665,"osm_tipo":"node","tipo_lugar":"suburb"},"geometry":{"type":"Point","coordinates":[-45.8004513,-12.0597604]}},{"type":"Feature","properties":{"nome":"São José","osm_id":4116326630,"osm_tipo":"node","tipo_lugar":"suburb"},"geometry":{"type":"Point","coordinates":[-45.7927091,-12.0598794]}},{"type":"Feature","properties":{"nome":"Residencial Novo Horizonte","osm_id":4119445706,"osm_tipo":"node","tipo_lugar":"suburb"},"geometry":{"type":"Point","coordinates":[-45.7970704,-12.0520017]}},{"type":"Feature","properties":{"nome":"Jardim Alvorada","osm_id":4134449491,"osm_tipo":"node","tipo_lugar":"suburb"},"geometry":{"type":"Point","coordinates":[-45.770892,-12.0580537]}},{"type":"Feature","properties":{"nome":"Santa Cruz","osm_id":4134454245,"osm_tipo":"node","tipo_lugar":"suburb"},"geometry":{"type":"Point","coordinates":[-45.8040791,-12.098471]}},{"type":"Feature","properties":{"nome":"Florais Léa","osm_id":4134454246,"osm_tipo":"node","tipo_lugar":"suburb"},"geometry":{"type":"Point","coordinates":[-45.7918077,-12.0951819]}},{"type":"Feature","properties":{"nome":"Jardim Paraíso","osm_id":4134454247,"osm_tipo":"node","tipo_lugar":"suburb"},"geometry":{"type":"Point","coordinates":[-45.7795959,-12.0941489]}},{"type":"Feature","properties":{"nome":"Jardim Paraíso Fase III","osm_id":4135766756,"osm_tipo":"node","tipo_lugar":"suburb"},"geometry":{"type":"Point","coordinates":[-45.7839592,-12.1041202]}},{"type":"Feature","properties":{"nome":"Centro","osm_id":4135766757,"osm_tipo":"node","tipo_lugar":"suburb"},"geometry":{"type":"Point","coordinates":[-45.7985281,-12.086157]}},{"type":"Feature","properties":{"nome":"Mimoso II","osm_id":4135766758,"osm_tipo":"node","tipo_lugar":"suburb"},"geometry":{"type":"Point","coordinates":[-45.8089668,-12.0811511]}},{"type":"Feature","properties":{"nome":"Mimoso III","osm_id":4135766759,"osm_tipo":"node","tipo_lugar":"suburb"},"geometry":{"type":"Point","coordinates":[-45.8125637,-12.075547]}},{"type":"Feature","properties":{"nome":"Setor de Chácaras Agrolandia","osm_id":4168138698,"osm_tipo":"node","tipo_lugar":"suburb"},"geometry":{"type":"Point","coordinates":[-45.8376655,-12.2031393]}},{"type":"Feature","properties":{"nome":"Condominio Rural Recanto Pache","osm_id":4168138699,"osm_tipo":"node","tipo_lugar":"suburb"},"geometry":{"type":"Point","coordinates":[-45.8373652,-12.1860278]}},{"type":"Feature","properties":{"nome":"Residencial Sol do Cerrado","osm_id":4168138701,"osm_tipo":"node","tipo_lugar":"suburb"},"geometry":{"type":"Point","coordinates":[-45.7182456,-12.0630611]}},{"type":"Feature","properties":{"nome":"Cidade do Automóvel","osm_id":4168138702,"osm_tipo":"node","tipo_lugar":"suburb"},"geometry":{"type":"Point","coordinates":[-45.7424324,-12.0865131]}},{"type":"Feature","properties":{"nome":"Jardim Ipê","osm_id":4168138703,"osm_tipo":"node","tipo_lugar":"suburb"},"geometry":{"type":"Point","coordinates":[-45.7555437,-12.07412]}},{"type":"Feature","properties":{"nome":"Vereda Tropical","osm_id":4168138719,"osm_tipo":"node","tipo_lugar":"suburb"},"geometry":{"type":"Point","coordinates":[-45.7575821,-12.0832688]}},{"type":"Feature","properties":{"nome":"Jardim Imperial","osm_id":4168138728,"osm_tipo":"node","tipo_lugar":"suburb"},"geometry":{"type":"Point","coordinates":[-45.7847175,-12.0822271]}},{"type":"Feature","properties":{"nome":"Jardim Primavera","osm_id":4168138738,"osm_tipo":"node","tipo_lugar":"suburb"},"geometry":{"type":"Point","coordinates":[-45.8079326,-12.0909966]}},{"type":"Feature","properties":{"nome":"Jardim Imperial","osm_id":4183052576,"osm_tipo":"node","tipo_lugar":"suburb"},"geometry":{"type":"Point","coordinates":[-45.7830213,-12.0842702]}},{"type":"Feature","properties":{"nome":"Residencial Ouro Preto","osm_id":4199654030,"osm_tipo":"node","tipo_lugar":"suburb"},"geometry":{"type":"Point","coordinates":[-45.7867954,-12.0542639]}},{"type":"Feature","properties":{"nome":"Loteamento Boa Vista","osm_id":4213164389,"osm_tipo":"node","tipo_lugar":"suburb"},"geometry":{"type":"Point","coordinates":[-45.8155017,-12.0994502]}},{"type":"Feature","properties":{"nome":"Residencial Vista Alegre","osm_id":4213795205,"osm_tipo":"node","tipo_lugar":"suburb"},"geometry":{"type":"Point","coordinates":[-45.8319549,-12.1047272]}},{"type":"Feature","properties":{"nome":"Jardim Paraíso Fase II","osm_id":4220098778,"osm_tipo":"node","tipo_lugar":"suburb"},"geometry":{"type":"Point","coordinates":[-45.7651478,-12.094277]}},{"type":"Feature","properties":{"nome":"Luar do Oeste","osm_id":4223786635,"osm_tipo":"node","tipo_lugar":"suburb"},"geometry":{"type":"Point","coordinates":[-45.84639,-12.1022222]}},{"type":"Feature","properties":{"nome":"Setor Industrial","osm_id":4228878258,"osm_tipo":"node","tipo_lugar":"suburb"},"geometry":{"type":"Point","coordinates":[-45.8743739,-12.102125]}},{"type":"Feature","properties":{"nome":"Florais Léa II","osm_id":4255404489,"osm_tipo":"node","tipo_lugar":"suburb"},"geometry":{"type":"Point","coordinates":[-45.7927645,-12.102443]}},{"type":"Feature","properties":{"nome":"Santa Cruz III","osm_id":4255407290,"osm_tipo":"node","tipo_lugar":"suburb"},"geometry":{"type":"Point","coordinates":[-45.8053986,-12.1138046]}},{"type":"Feature","properties":{"nome":"Loteamento Conquista","osm_id":4255407291,"osm_tipo":"node","tipo_lugar":"suburb"},"geometry":{"type":"Point","coordinates":[-45.8003776,-12.1142183]}},{"type":"Feature","properties":{"nome":"Loteamento Novo Paraíso","osm_id":4255407292,"osm_tipo":"node","tipo_lugar":"suburb"},"geometry":{"type":"Point","coordinates":[-45.7725255,-12.1094407]}},{"type":"Feature","properties":{"nome":"Campos Elisios","osm_id":4255408577,"osm_tipo":"node","tipo_lugar":"suburb"},"geometry":{"type":"Point","coordinates":[-45.7874504,-12.0760287]}},{"type":"Feature","properties":{"nome":"Jardim Sol Nascente","osm_id":4255408580,"osm_tipo":"node","tipo_lugar":"suburb"},"geometry":{"type":"Point","coordinates":[-45.7829584,-12.0759062]}},{"type":"Feature","properties":{"nome":"Setor de Chacaras Bom Recreio","osm_id":4255411245,"osm_tipo":"node","tipo_lugar":"suburb"},"geometry":{"type":"Point","coordinates":[-45.7788653,-12.0443155]}},{"type":"Feature","properties":{"nome":"Bosque dos Ipês 1","osm_id":4487563407,"osm_tipo":"node","tipo_lugar":"suburb"},"geometry":{"type":"Point","coordinates":[-45.8159931,-12.0653985]}},{"type":"Feature","properties":{"nome":"Setor de Chacaras Vereda Alegre","osm_id":4687261836,"osm_tipo":"node","tipo_lugar":"suburb"},"geometry":{"type":"Point","coordinates":[-45.8426406,-12.0492783]}},{"type":"Feature","properties":{"nome":"Bosque dos Ipês 2","osm_id":4687405635,"osm_tipo":"node","tipo_lugar":"suburb"},"geometry":{"type":"Point","coordinates":[-45.8130425,-12.0594815]}},{"type":"Feature","properties":{"nome":"Nova Brasilia","osm_id":5919373729,"osm_tipo":"node","tipo_lugar":"suburb"},"geometry":{"type":"Point","coordinates":[-45.8080542,-12.075061]}},{"type":"Feature","properties":{"nome":"Jardim das Oliveiras","osm_id":7347138422,"osm_tipo":"node","tipo_lugar":"suburb"},"geometry":{"type":"Point","coordinates":[-45.7266216,-12.072426]}},{"type":"Feature","properties":{"nome":"Centro","osm_id":7347192858,"osm_tipo":"node","tipo_lugar":"suburb"},"geometry":{"type":"Point","coordinates":[-45.8014282,-12.0845567]}},{"type":"Feature","properties":{"nome":"Jardim das Oliveiras","osm_id":413046095,"osm_tipo":"way","tipo_lugar":"suburb"},"geometry":{"type":"Polygon","coordinates":[[[-45.7228632,-12.0814209],[-45.7332488,-12.0828477],[-45.728807,-12.0576048],[-45.7189365,-12.0578566],[-45.7206102,-12.0679478],[-45.7236987,-12.0695041],[-45.7211421,-12.0711479],[-45.7228632,-12.0814209]]]}},{"type":"Feature","properties":{"nome":"Jardim Primavera","osm_id":413046248,"osm_tipo":"way","tipo_lugar":"suburb"},"geometry":{"type":"Polygon","coordinates":[[[-45.8039227,-12.091934],[-45.8139645,-12.0855721],[-45.813031,-12.0934134],[-45.8039227,-12.091934]]]}},{"type":"Feature","properties":{"nome":"Cidade do Automovel","osm_id":413117350,"osm_tipo":"way","tipo_lugar":"suburb"},"geometry":{"type":"Polygon","coordinates":[[[-45.7442589,-12.0845425],[-45.7428913,-12.0957042],[-45.7395144,-12.0948245],[-45.7402395,-12.0842954],[-45.7442589,-12.0845425]]]}},{"type":"Feature","properties":{"nome":"Campos Elisios","osm_id":426234860,"osm_tipo":"way","tipo_lugar":"suburb"},"geometry":{"type":"Polygon","coordinates":[[[-45.7844038,-12.0792783],[-45.7892885,-12.079913],[-45.7869242,-12.068892],[-45.783352,-12.0688735],[-45.7844038,-12.0792783]]]}},{"type":"Feature","properties":{"nome":"Jardim Sol Nascente","osm_id":426234861,"osm_tipo":"way","tipo_lugar":"suburb"},"geometry":{"type":"Polygon","coordinates":[[[-45.7844038,-12.0792783],[-45.780697,-12.0787001],[-45.7801235,-12.0716313],[-45.7834582,-12.071756],[-45.7844038,-12.0792783]]]}},{"type":"Feature","properties":{"nome":"Centro","osm_id":480760979,"osm_tipo":"way","tipo_lugar":"suburb"},"geometry":{"type":"Polygon","coordinates":[[[-45.8040718,-12.091543],[-45.8034115,-12.0921892],[-45.7915888,-12.0905827],[-45.8040718,-12.091543]]]}}]}