{"type":"FeatureCollection","features":[{"type":"Feature","properties":{"nome":"Trevo","osm_id":3719056816,"osm_tipo":"node","tipo_lugar":"suburb"},"geometry":{"type":"Point","coordinates":[-39.814171,-17.8918261]}},{"type":"Feature","properties":{"nome":"Centro","osm_id":5864621176,"osm_tipo":"node","tipo_lugar":"suburb"},"geometry":{"type":"Point","coordinates":[-39.8569364,-17.888844]}},{"type":"Feature","properties":{"nome":"Henrique Brito","osm_id":5864652341,"osm_tipo":"node","tipo_lugar":"suburb"},"geometry":{"type":"Point","coordinates":[-39.87103,-17.886825]}},{"type":"Feature","properties":{"nome":"Centro","osm_id":5873783815,"osm_tipo":"node","tipo_lugar":"suburb"},"geometry":{"type":"Point","coordinates":[-39.3731305,-17.8909044]}},{"type":"Feature","properties":{"nome":"Cidade Alta","osm_id":10665949645,"osm_tipo":"node","tipo_lugar":"suburb"},"geometry":{"type":"Point","coordinates":[-39.857681,-17.8846011]}},{"type":"Feature","properties":{"nome":"Cajueiro","osm_id":10665949646,"osm_tipo":"node","tipo_lugar":"suburb"},"geometry":{"type":"Point","coordinates":[-39.8644799,-17.8832341]}},{"type":"Feature","properties":{"nome":"Esplanada","osm_id":10665949647,"osm_tipo":"node","tipo_lugar":"suburb"},"geometry":{"type":"Point","coordinates":[-39.8603239,-17.895646]}},{"type":"Feature","properties":{"nome":"Copacabana","osm_id":10665949648,"osm_tipo":"node","tipo_lugar":"suburb"},"geometry":{"type":"Point","coordinates":[-39.8672953,-17.8948441]}},{"type":"Feature","properties":{"nome":"Planalto","osm_id":10665949649,"osm_tipo":"node","tipo_lugar":"suburb"},"geometry":{"type":"Point","coordinates":[-39.8788439,-17.8915271]}},{"type":"Feature","properties":{"nome":"Jardim do Eucalipto","osm_id":10665949650,"osm_tipo":"node","tipo_lugar":"suburb"},"geometry":{"type":"Point","coordinates":[-39.8685018,-17.8798257]}},{"type":"Feature","properties":{"nome":"Portela","osm_id":10665949651,"osm_tipo":"node","tipo_lugar":"suburb"},"geometry":{"type":"Point","coordinates":[-39.8600367,-17.8783675]}},{"type":"Feature","properties":{"nome":"Aparecida","osm_id":10665949652,"osm_tipo":"node","tipo_lugar":"suburb"},"geometry":{"type":"Point","coordinates":[-39.8495031,-17.8801902]}},{"type":"Feature","properties":{"nome":"Baía dos Anjos","osm_id":10665949653,"osm_tipo":"node","tipo_lugar":"suburb"},"geometry":{"type":"Point","coordinates":[-39.8348326,-17.8839085]}},{"type":"Feature","properties":{"nome":"Caribe","osm_id":10671156048,"osm_tipo":"node","tipo_lugar":"suburb"},"geometry":{"type":"Point","coordinates":[-39.8406779,-17.8829779]}},{"type":"Feature","properties":{"nome":"Recanto dos Pássaros","osm_id":11062236039,"osm_tipo":"node","tipo_lugar":"suburb"},"geometry":{"type":"Point","coordinates":[-39.8161053,-17.8930899]}},{"type":"Feature","properties":{"nome":"Curió","osm_id":11062236053,"osm_tipo":"node","tipo_lugar":"suburb"},"geometry":{"type":"Point","coordinates":[-39.8190509,-17.8897561]}},{"type":"Feature","properties":{"nome":"Aracruz","osm_id":11062419110,"osm_tipo":"node","tipo_lugar":"suburb"},"geometry":{"type":"Point","coordinates":[-39.8357968,-17.8878616]}},{"type":"Feature","properties":{"nome":"Recanto do Lago","osm_id":11062419111,"osm_tipo":"node","tipo_lugar":"suburb"},"geometry":{"type":"Point","coordinates":[-39.8324552,-17.8896149]}}]}