{"type":"FeatureCollection","features":[{"type":"Feature","properties":{"nome":"Caminho dos Lagos","osm_id":2549201805,"osm_tipo":"node","tipo_lugar":"suburb"},"geometry":{"type":"Point","coordinates":[-38.2254761,-9.3905237]}},{"type":"Feature","properties":{"nome":"Abel Barbosa","osm_id":2549211525,"osm_tipo":"node","tipo_lugar":"suburb"},"geometry":{"type":"Point","coordinates":[-38.2276219,-9.3916668]}},{"type":"Feature","properties":{"nome":"Centenário","osm_id":2549214783,"osm_tipo":"node","tipo_lugar":"suburb"},"geometry":{"type":"Point","coordinates":[-38.2292502,-9.3798604]}},{"type":"Feature","properties":{"nome":"Cleriston Andrade","osm_id":2549218080,"osm_tipo":"node","tipo_lugar":"suburb"},"geometry":{"type":"Point","coordinates":[-38.2431446,-9.4005437]}},{"type":"Feature","properties":{"nome":"Siriema I","osm_id":2549221561,"osm_tipo":"node","tipo_lugar":"suburb"},"geometry":{"type":"Point","coordinates":[-38.2526605,-9.3947432]}},{"type":"Feature","properties":{"nome":"Siriema II","osm_id":2549228549,"osm_tipo":"node","tipo_lugar":"suburb"},"geometry":{"type":"Point","coordinates":[-38.2545728,-9.3924607]}},{"type":"Feature","properties":{"nome":"Tancredo Neves I","osm_id":2549228551,"osm_tipo":"node","tipo_lugar":"suburb"},"geometry":{"type":"Point","coordinates":[-38.2174854,-9.4376595]}},{"type":"Feature","properties":{"nome":"Tancredo Neves II","osm_id":2549232744,"osm_tipo":"node","tipo_lugar":"suburb"},"geometry":{"type":"Point","coordinates":[-38.215147,-9.4447592]}},{"type":"Feature","properties":{"nome":"Tancredo Neves III","osm_id":2549232746,"osm_tipo":"node","tipo_lugar":"suburb"},"geometry":{"type":"Point","coordinates":[-38.2124223,-9.4509839]}},{"type":"Feature","properties":{"nome":"General Dutra","osm_id":2549241151,"osm_tipo":"node","tipo_lugar":"suburb"},"geometry":{"type":"Point","coordinates":[-38.2161878,-9.3893342]}},{"type":"Feature","properties":{"nome":"Jardim Bahia","osm_id":2550866507,"osm_tipo":"node","tipo_lugar":"suburb"},"geometry":{"type":"Point","coordinates":[-38.2389781,-9.3950955]}},{"type":"Feature","properties":{"nome":"Parque Moxotó","osm_id":2550881665,"osm_tipo":"node","tipo_lugar":"suburb"},"geometry":{"type":"Point","coordinates":[-38.2392235,-9.3749465]}},{"type":"Feature","properties":{"nome":"Barroca","osm_id":2550881666,"osm_tipo":"node","tipo_lugar":"suburb"},"geometry":{"type":"Point","coordinates":[-38.2453249,-9.3693856]}},{"type":"Feature","properties":{"nome":"Jardim Aeroporto","osm_id":2550881667,"osm_tipo":"node","tipo_lugar":"suburb"},"geometry":{"type":"Point","coordinates":[-38.2443304,-9.4068075]}},{"type":"Feature","properties":{"nome":"Prainha","osm_id":2550881668,"osm_tipo":"node","tipo_lugar":"suburb"},"geometry":{"type":"Point","coordinates":[-38.236155,-9.4044789]}},{"type":"Feature","properties":{"nome":"Rodoviário","osm_id":2550881669,"osm_tipo":"node","tipo_lugar":"suburb"},"geometry":{"type":"Point","coordinates":[-38.1994034,-9.4322942]}},{"type":"Feature","properties":{"nome":"Pólo Industrial","osm_id":2550881670,"osm_tipo":"node","tipo_lugar":"suburb"},"geometry":{"type":"Point","coordinates":[-38.2075638,-9.4264134]}},{"type":"Feature","properties":{"nome":"Tropical","osm_id":2550895201,"osm_tipo":"node","tipo_lugar":"suburb"},"geometry":{"type":"Point","coordinates":[-38.230047,-9.3869574]}},{"type":"Feature","properties":{"nome":"Amaury Alves de Menezes","osm_id":2550895202,"osm_tipo":"node","tipo_lugar":"suburb"},"geometry":{"type":"Point","coordinates":[-38.2341884,-9.3935201]}},{"type":"Feature","properties":{"nome":"Fazenda CHESF","osm_id":2550906157,"osm_tipo":"node","tipo_lugar":"suburb"},"geometry":{"type":"Point","coordinates":[-38.2142108,-9.3824036]}},{"type":"Feature","properties":{"nome":"Vila Nobre","osm_id":2550909668,"osm_tipo":"node","tipo_lugar":"suburb"},"geometry":{"type":"Point","coordinates":[-38.2069845,-9.4067478]}},{"type":"Feature","properties":{"nome":"Capuxú","osm_id":2550909671,"osm_tipo":"node","tipo_lugar":"suburb"},"geometry":{"type":"Point","coordinates":[-38.2104204,-9.3964489]}},{"type":"Feature","properties":{"nome":"Santa Inês","osm_id":2595784849,"osm_tipo":"node","tipo_lugar":"suburb"},"geometry":{"type":"Point","coordinates":[-38.2269946,-9.443591]}},{"type":"Feature","properties":{"nome":"Perpétuo do Socorro","osm_id":2595789285,"osm_tipo":"node","tipo_lugar":"suburb"},"geometry":{"type":"Point","coordinates":[-38.2285556,-9.4070889]}},{"type":"Feature","properties":{"nome":"Centro","osm_id":7041201987,"osm_tipo":"node","tipo_lugar":"suburb"},"geometry":{"type":"Point","coordinates":[-38.2175499,-9.4073852]}},{"type":"Feature","properties":{"nome":"General Dutra","osm_id":7046931717,"osm_tipo":"node","tipo_lugar":"suburb"},"geometry":{"type":"Point","coordinates":[-38.2263532,-9.3816136]}},{"type":"Feature","properties":{"nome":"Cardeal Brandão Vilela","osm_id":7047949349,"osm_tipo":"node","tipo_lugar":"suburb"},"geometry":{"type":"Point","coordinates":[-38.2240922,-9.4491305]}},{"type":"Feature","properties":{"nome":"Alves de Souza","osm_id":7047970153,"osm_tipo":"node","tipo_lugar":"suburb"},"geometry":{"type":"Point","coordinates":[-38.2134634,-9.4029366]}},{"type":"Feature","properties":{"nome":"Vila Militar","osm_id":9927290868,"osm_tipo":"node","tipo_lugar":"neighbourhood"},"geometry":{"type":"Point","coordinates":[-38.2224915,-9.3945352]}},{"type":"Feature","properties":{"nome":"Pedra Comprida","osm_id":10218351246,"osm_tipo":"node","tipo_lugar":"suburb"},"geometry":{"type":"Point","coordinates":[-38.2469305,-9.3769567]}},{"type":"Feature","properties":{"nome":"Benone Rezende","osm_id":10225741225,"osm_tipo":"node","tipo_lugar":"suburb"},"geometry":{"type":"Point","coordinates":[-38.2311423,-9.447499]}},{"type":"Feature","properties":{"nome":"Tapera","osm_id":10225787400,"osm_tipo":"node","tipo_lugar":"suburb"},"geometry":{"type":"Point","coordinates":[-38.2322964,-9.3837859]}},{"type":"Feature","properties":{"nome":"Vila Matias","osm_id":10225808323,"osm_tipo":"node","tipo_lugar":"suburb"},"geometry":{"type":"Point","coordinates":[-38.2350644,-9.4406738]}},{"type":"Feature","properties":{"nome":"Siriema III","osm_id":10230897135,"osm_tipo":"node","tipo_lugar":"suburb"},"geometry":{"type":"Point","coordinates":[-38.2612056,-9.3809771]}}]}