{"type":"FeatureCollection","features":[{"type":"Feature","properties":{"nome":"Cidade Tião do Rêgo","osm_id":2682777283,"osm_tipo":"node","tipo_lugar":"neighbourhood"},"geometry":{"type":"Point","coordinates":[-35.8895714,-7.3685075]}},{"type":"Feature","properties":{"nome":"Vila","osm_id":7076170638,"osm_tipo":"node","tipo_lugar":"neighbourhood"},"geometry":{"type":"Point","coordinates":[-35.904838,-7.368226]}},{"type":"Feature","properties":{"nome":"Castanho","osm_id":7076170639,"osm_tipo":"node","tipo_lugar":"neighbourhood"},"geometry":{"type":"Point","coordinates":[-35.8948206,-7.3600079]}},{"type":"Feature","properties":{"nome":"Nova Cidade","osm_id":7076170640,"osm_tipo":"node","tipo_lugar":"neighbourhood"},"geometry":{"type":"Point","coordinates":[-35.9015919,-7.3731971]}},{"type":"Feature","properties":{"nome":"Correia Lima","osm_id":7076170641,"osm_tipo":"node","tipo_lugar":"neighbourhood"},"geometry":{"type":"Point","coordinates":[-35.8973766,-7.3701765]}},{"type":"Feature","properties":{"nome":"Ligeiro","osm_id":7076170642,"osm_tipo":"node","tipo_lugar":"suburb"},"geometry":{"type":"Point","coordinates":[-35.8935453,-7.2909512]}},{"type":"Feature","properties":{"nome":"Loteamento Luna","osm_id":7076170643,"osm_tipo":"node","tipo_lugar":"neighbourhood"},"geometry":{"type":"Point","coordinates":[-35.9019849,-7.3095939]}},{"type":"Feature","properties":{"nome":"Aníbal Teixeira","osm_id":7076170644,"osm_tipo":"node","tipo_lugar":"neighbourhood"},"geometry":{"type":"Point","coordinates":[-35.9017285,-7.3701113]}},{"type":"Feature","properties":{"nome":"Epitácio Maia","osm_id":7426699336,"osm_tipo":"node","tipo_lugar":"neighbourhood"},"geometry":{"type":"Point","coordinates":[-35.8937518,-7.3667892]}},{"type":"Feature","properties":{"nome":"Centro","osm_id":7483345471,"osm_tipo":"node","tipo_lugar":"neighbourhood"},"geometry":{"type":"Point","coordinates":[-35.9008725,-7.3634081]}}]}