{"type":"FeatureCollection","features":[{"type":"Feature","properties":{"nome":"Residencial João Almeida Silva","osm_id":12886801639,"osm_tipo":"node","tipo_lugar":"suburb"},"geometry":{"type":"Point","coordinates":[-38.5261198,-10.8700251]}},{"type":"Feature","properties":{"nome":"Cidade Nova","osm_id":12886801675,"osm_tipo":"node","tipo_lugar":"suburb"},"geometry":{"type":"Point","coordinates":[-38.5260052,-10.8548081]}},{"type":"Feature","properties":{"nome":"Pombalzinho","osm_id":12886820079,"osm_tipo":"node","tipo_lugar":"suburb"},"geometry":{"type":"Point","coordinates":[-38.5291519,-10.8208053]}},{"type":"Feature","properties":{"nome":"Centro","osm_id":12886820080,"osm_tipo":"node","tipo_lugar":"suburb"},"geometry":{"type":"Point","coordinates":[-38.539669,-10.8353213]}},{"type":"Feature","properties":{"nome":"Zona Oeste","osm_id":12886820081,"osm_tipo":"node","tipo_lugar":"suburb"},"geometry":{"type":"Point","coordinates":[-38.5456396,-10.8302421]}},{"type":"Feature","properties":{"nome":"Vila Operária","osm_id":12886820082,"osm_tipo":"node","tipo_lugar":"suburb"},"geometry":{"type":"Point","coordinates":[-38.5483647,-10.8178969]}},{"type":"Feature","properties":{"nome":"Caboré","osm_id":12886820085,"osm_tipo":"node","tipo_lugar":"suburb"},"geometry":{"type":"Point","coordinates":[-38.5397119,-10.8527853]}},{"type":"Feature","properties":{"nome":"Zona Sul","osm_id":12886820086,"osm_tipo":"node","tipo_lugar":"suburb"},"geometry":{"type":"Point","coordinates":[-38.5412891,-10.8488792]}}]}