{"type":"FeatureCollection","features":[{"type":"Feature","properties":{"nome":"Pioneiros","osm_id":7699813027,"osm_tipo":"node","tipo_lugar":"suburb"},"geometry":{"type":"Point","coordinates":[-39.757371,-17.5274309]}},{"type":"Feature","properties":{"nome":"Bela Vista","osm_id":7702668166,"osm_tipo":"node","tipo_lugar":"suburb"},"geometry":{"type":"Point","coordinates":[-39.7298949,-17.5407508]}},{"type":"Feature","properties":{"nome":"Estância Biquine","osm_id":7714504258,"osm_tipo":"node","tipo_lugar":"suburb"},"geometry":{"type":"Point","coordinates":[-39.7679837,-17.5235743]}},{"type":"Feature","properties":{"nome":"Bahia Sul","osm_id":10673396198,"osm_tipo":"node","tipo_lugar":"suburb"},"geometry":{"type":"Point","coordinates":[-39.7736114,-17.5228541]}},{"type":"Feature","properties":{"nome":"Monte Castelo","osm_id":10690587066,"osm_tipo":"node","tipo_lugar":"suburb"},"geometry":{"type":"Point","coordinates":[-39.7221405,-17.5394611]}},{"type":"Feature","properties":{"nome":"São José","osm_id":10690587069,"osm_tipo":"node","tipo_lugar":"suburb"},"geometry":{"type":"Point","coordinates":[-39.7151767,-17.529094]}},{"type":"Feature","properties":{"nome":"Mirante do Rio","osm_id":10690587070,"osm_tipo":"node","tipo_lugar":"suburb"},"geometry":{"type":"Point","coordinates":[-39.7104218,-17.5172113]}},{"type":"Feature","properties":{"nome":"Nova América","osm_id":10690587071,"osm_tipo":"node","tipo_lugar":"suburb"},"geometry":{"type":"Point","coordinates":[-39.7063896,-17.5258641]}},{"type":"Feature","properties":{"nome":"Caminho do Mar Dois","osm_id":10690601594,"osm_tipo":"node","tipo_lugar":"suburb"},"geometry":{"type":"Point","coordinates":[-39.6997196,-17.5318619]}},{"type":"Feature","properties":{"nome":"Castelinho","osm_id":10690601595,"osm_tipo":"node","tipo_lugar":"suburb"},"geometry":{"type":"Point","coordinates":[-39.7125119,-17.5406264]}},{"type":"Feature","properties":{"nome":"Nova Jerusalém","osm_id":10690601596,"osm_tipo":"node","tipo_lugar":"suburb"},"geometry":{"type":"Point","coordinates":[-39.7149179,-17.5538318]}},{"type":"Feature","properties":{"nome":"Aeroporto","osm_id":10690601597,"osm_tipo":"node","tipo_lugar":"suburb"},"geometry":{"type":"Point","coordinates":[-39.6958317,-17.5497564]}},{"type":"Feature","properties":{"nome":"Jardim Planalto","osm_id":10690601598,"osm_tipo":"node","tipo_lugar":"suburb"},"geometry":{"type":"Point","coordinates":[-39.7259273,-17.5528318]}},{"type":"Feature","properties":{"nome":"Vila Caraípe","osm_id":10690601599,"osm_tipo":"node","tipo_lugar":"suburb"},"geometry":{"type":"Point","coordinates":[-39.7316732,-17.5478033]}},{"type":"Feature","properties":{"nome":"Santa Rosa de Lima","osm_id":10690601600,"osm_tipo":"node","tipo_lugar":"suburb"},"geometry":{"type":"Point","coordinates":[-39.7377708,-17.5442149]}},{"type":"Feature","properties":{"nome":"Jardim Caraípe","osm_id":10690601601,"osm_tipo":"node","tipo_lugar":"suburb"},"geometry":{"type":"Point","coordinates":[-39.7416386,-17.5486698]}},{"type":"Feature","properties":{"nome":"Kaikan Sul","osm_id":10690601602,"osm_tipo":"node","tipo_lugar":"suburb"},"geometry":{"type":"Point","coordinates":[-39.7417515,-17.5600689]}},{"type":"Feature","properties":{"nome":"Centro","osm_id":10690601603,"osm_tipo":"node","tipo_lugar":"suburb"},"geometry":{"type":"Point","coordinates":[-39.7411363,-17.5378315]}},{"type":"Feature","properties":{"nome":"Teixerinha","osm_id":10690601604,"osm_tipo":"node","tipo_lugar":"suburb"},"geometry":{"type":"Point","coordinates":[-39.738663,-17.530533]}},{"type":"Feature","properties":{"nome":"Colina Verde","osm_id":10690646805,"osm_tipo":"node","tipo_lugar":"suburb"},"geometry":{"type":"Point","coordinates":[-39.7415343,-17.5231143]}},{"type":"Feature","properties":{"nome":"Centro","osm_id":10690646806,"osm_tipo":"node","tipo_lugar":"suburb"},"geometry":{"type":"Point","coordinates":[-39.7463127,-17.536379]}},{"type":"Feature","properties":{"nome":"Redenção","osm_id":10690646807,"osm_tipo":"node","tipo_lugar":"suburb"},"geometry":{"type":"Point","coordinates":[-39.7552494,-17.5360717]}},{"type":"Feature","properties":{"nome":"Nova Teixeira","osm_id":10690646808,"osm_tipo":"node","tipo_lugar":"suburb"},"geometry":{"type":"Point","coordinates":[-39.7616057,-17.5354619]}},{"type":"Feature","properties":{"nome":"Jardim Liberdade","osm_id":10690646809,"osm_tipo":"node","tipo_lugar":"suburb"},"geometry":{"type":"Point","coordinates":[-39.765002,-17.5308958]}},{"type":"Feature","properties":{"nome":"Eixo Sul","osm_id":10697085662,"osm_tipo":"node","tipo_lugar":"suburb"},"geometry":{"type":"Point","coordinates":[-39.7417576,-17.5633465]}},{"type":"Feature","properties":{"nome":"Recanto do Lago","osm_id":10697085665,"osm_tipo":"node","tipo_lugar":"suburb"},"geometry":{"type":"Point","coordinates":[-39.7314314,-17.5355164]}},{"type":"Feature","properties":{"nome":"Universitário","osm_id":10699346975,"osm_tipo":"node","tipo_lugar":"suburb"},"geometry":{"type":"Point","coordinates":[-39.749374,-17.5550243]}},{"type":"Feature","properties":{"nome":"São Lourenço","osm_id":10699346976,"osm_tipo":"node","tipo_lugar":"suburb"},"geometry":{"type":"Point","coordinates":[-39.7485611,-17.5492937]}},{"type":"Feature","properties":{"nome":"Liberdade Dois","osm_id":10699346982,"osm_tipo":"node","tipo_lugar":"suburb"},"geometry":{"type":"Point","coordinates":[-39.7513358,-17.5607173]}},{"type":"Feature","properties":{"nome":"Tancredo Neves","osm_id":10699516570,"osm_tipo":"node","tipo_lugar":"suburb"},"geometry":{"type":"Point","coordinates":[-39.7558952,-17.5445271]}},{"type":"Feature","properties":{"nome":"Jardim Europa","osm_id":10699516583,"osm_tipo":"node","tipo_lugar":"suburb"},"geometry":{"type":"Point","coordinates":[-39.7368828,-17.5322241]}},{"type":"Feature","properties":{"nome":"Ulisses Guimarães","osm_id":10703080931,"osm_tipo":"node","tipo_lugar":"suburb"},"geometry":{"type":"Point","coordinates":[-39.7698111,-17.5339552]}},{"type":"Feature","properties":{"nome":"Novo Horizonte","osm_id":11034920870,"osm_tipo":"node","tipo_lugar":"suburb"},"geometry":{"type":"Point","coordinates":[-39.7361478,-17.5361478]}},{"type":"Feature","properties":{"nome":"Vila Vargas","osm_id":11052026020,"osm_tipo":"node","tipo_lugar":"suburb"},"geometry":{"type":"Point","coordinates":[-39.7494098,-17.5387164]}},{"type":"Feature","properties":{"nome":"Padre Aparecido","osm_id":11149287515,"osm_tipo":"node","tipo_lugar":"suburb"},"geometry":{"type":"Point","coordinates":[-39.7784048,-17.5567151]}},{"type":"Feature","properties":{"nome":"Paraíso","osm_id":11214330216,"osm_tipo":"node","tipo_lugar":"suburb"},"geometry":{"type":"Point","coordinates":[-39.7684933,-17.5138985]}},{"type":"Feature","properties":{"nome":"Ouro Verde","osm_id":11214330217,"osm_tipo":"node","tipo_lugar":"suburb"},"geometry":{"type":"Point","coordinates":[-39.7570778,-17.5214492]}},{"type":"Feature","properties":{"nome":"Jardim Beira Rio","osm_id":11214330218,"osm_tipo":"node","tipo_lugar":"suburb"},"geometry":{"type":"Point","coordinates":[-39.7738148,-17.5266875]}},{"type":"Feature","properties":{"nome":"Nova Canaã","osm_id":11214330219,"osm_tipo":"node","tipo_lugar":"suburb"},"geometry":{"type":"Point","coordinates":[-39.7662188,-17.5292042]}},{"type":"Feature","properties":{"nome":"Luiz Eduardo Magalhães","osm_id":11214330220,"osm_tipo":"node","tipo_lugar":"suburb"},"geometry":{"type":"Point","coordinates":[-39.7649957,-17.5408054]}},{"type":"Feature","properties":{"nome":"Alto Tancredo","osm_id":11214330221,"osm_tipo":"node","tipo_lugar":"suburb"},"geometry":{"type":"Point","coordinates":[-39.7550823,-17.5495211]}},{"type":"Feature","properties":{"nome":"Arco Verde","osm_id":11214330222,"osm_tipo":"node","tipo_lugar":"suburb"},"geometry":{"type":"Point","coordinates":[-39.7528756,-17.5517828]}},{"type":"Feature","properties":{"nome":"Liberdade","osm_id":11214330223,"osm_tipo":"node","tipo_lugar":"suburb"},"geometry":{"type":"Point","coordinates":[-39.7552574,-17.5565701]}},{"type":"Feature","properties":{"nome":"Kaikan","osm_id":11214330224,"osm_tipo":"node","tipo_lugar":"suburb"},"geometry":{"type":"Point","coordinates":[-39.7440416,-17.5523445]}},{"type":"Feature","properties":{"nome":"Urbis Um","osm_id":11214330225,"osm_tipo":"node","tipo_lugar":"suburb"},"geometry":{"type":"Point","coordinates":[-39.7389664,-17.550679]}},{"type":"Feature","properties":{"nome":"Urbis Dois","osm_id":11214330226,"osm_tipo":"node","tipo_lugar":"suburb"},"geometry":{"type":"Point","coordinates":[-39.7407223,-17.553689]}},{"type":"Feature","properties":{"nome":"Urbis Três","osm_id":11214330227,"osm_tipo":"node","tipo_lugar":"suburb"},"geometry":{"type":"Point","coordinates":[-39.7409745,-17.555933]}},{"type":"Feature","properties":{"nome":"Portal Sul","osm_id":11214330228,"osm_tipo":"node","tipo_lugar":"suburb"},"geometry":{"type":"Point","coordinates":[-39.7367248,-17.564161]}},{"type":"Feature","properties":{"nome":"Bonadiman","osm_id":11214330229,"osm_tipo":"node","tipo_lugar":"suburb"},"geometry":{"type":"Point","coordinates":[-39.7352716,-17.5555617]}},{"type":"Feature","properties":{"nome":"Vila Verde","osm_id":11214330232,"osm_tipo":"node","tipo_lugar":"suburb"},"geometry":{"type":"Point","coordinates":[-39.7290303,-17.5544418]}},{"type":"Feature","properties":{"nome":"Jerusalém","osm_id":11214330233,"osm_tipo":"node","tipo_lugar":"suburb"},"geometry":{"type":"Point","coordinates":[-39.7153004,-17.54417]}},{"type":"Feature","properties":{"nome":"Nanuque","osm_id":11214330234,"osm_tipo":"node","tipo_lugar":"suburb"},"geometry":{"type":"Point","coordinates":[-39.705108,-17.5466046]}},{"type":"Feature","properties":{"nome":"Vila Feliz","osm_id":11214330235,"osm_tipo":"node","tipo_lugar":"suburb"},"geometry":{"type":"Point","coordinates":[-39.6947225,-17.5181231]}},{"type":"Feature","properties":{"nome":"Caminho do Mar","osm_id":11214338537,"osm_tipo":"node","tipo_lugar":"suburb"},"geometry":{"type":"Point","coordinates":[-39.6996568,-17.524335]}},{"type":"Feature","properties":{"nome":"Bom Jesus","osm_id":11214338538,"osm_tipo":"node","tipo_lugar":"suburb"},"geometry":{"type":"Point","coordinates":[-39.7413533,-17.5284551]}},{"type":"Feature","properties":{"nome":"Wilson Guimarães","osm_id":11214338539,"osm_tipo":"node","tipo_lugar":"suburb"},"geometry":{"type":"Point","coordinates":[-39.7395944,-17.5355119]}},{"type":"Feature","properties":{"nome":"Irmã Dulce","osm_id":11214338541,"osm_tipo":"node","tipo_lugar":"suburb"},"geometry":{"type":"Point","coordinates":[-39.7088844,-17.5327422]}},{"type":"Feature","properties":{"nome":"Arutef","osm_id":11218818339,"osm_tipo":"node","tipo_lugar":"suburb"},"geometry":{"type":"Point","coordinates":[-39.7531861,-17.5278539]}},{"type":"Feature","properties":{"nome":"Santa Rita","osm_id":11218818340,"osm_tipo":"node","tipo_lugar":"suburb"},"geometry":{"type":"Point","coordinates":[-39.7507239,-17.5305599]}},{"type":"Feature","properties":{"nome":"Rosa Luxemburgo","osm_id":1340183381,"osm_tipo":"way","tipo_lugar":"suburb"},"geometry":{"type":"Polygon","coordinates":[[[-39.7398421,-17.5659158],[-39.7377768,-17.566307],[-39.736146,-17.5719659],[-39.7452736,-17.5702795],[-39.7445199,-17.565793],[-39.7398421,-17.5659158]]]}}]}