{"type":"FeatureCollection","features":[{"type":"Feature","properties":{"nome":"Centro","osm_id":7057384683,"osm_tipo":"node","tipo_lugar":"suburb"},"geometry":{"type":"Point","coordinates":[-42.131792,-11.3361494]}},{"type":"Feature","properties":{"nome":"Centro","osm_id":7057396202,"osm_tipo":"node","tipo_lugar":"suburb"},"geometry":{"type":"Point","coordinates":[-42.0960654,-11.3789522]}},{"type":"Feature","properties":{"nome":"Loteamento São Lázaro","osm_id":7057402045,"osm_tipo":"node","tipo_lugar":"neighbourhood"},"geometry":{"type":"Point","coordinates":[-42.1298375,-11.3309713]}},{"type":"Feature","properties":{"nome":"Loteamento Machado I","osm_id":7057402046,"osm_tipo":"node","tipo_lugar":"neighbourhood"},"geometry":{"type":"Point","coordinates":[-42.1306382,-11.3319375]}},{"type":"Feature","properties":{"nome":"Loteamento Machado II","osm_id":7057402047,"osm_tipo":"node","tipo_lugar":"neighbourhood"},"geometry":{"type":"Point","coordinates":[-42.1299252,-11.3324624]}},{"type":"Feature","properties":{"nome":"Loteamento Machado IV","osm_id":7057402048,"osm_tipo":"node","tipo_lugar":"neighbourhood"},"geometry":{"type":"Point","coordinates":[-42.1274782,-11.3300818]}},{"type":"Feature","properties":{"nome":"Loteamento Serra Azul","osm_id":7057402052,"osm_tipo":"node","tipo_lugar":"neighbourhood"},"geometry":{"type":"Point","coordinates":[-42.1265,-11.3334233]}},{"type":"Feature","properties":{"nome":"Loteamento Machado 4","osm_id":13532586412,"osm_tipo":"node","tipo_lugar":"neighbourhood"},"geometry":{"type":"Point","coordinates":[-42.128816,-11.3293372]}},{"type":"Feature","properties":{"nome":"Loteamento Machado 3","osm_id":13532586413,"osm_tipo":"node","tipo_lugar":"neighbourhood"},"geometry":{"type":"Point","coordinates":[-42.129119,-11.3318133]}}]}