{"type":"FeatureCollection","features":[{"type":"Feature","properties":{"nome":"Jiribatuba","osm_id":416644225,"osm_tipo":"node","tipo_lugar":"suburb"},"geometry":{"type":"Point","coordinates":[-38.7938497,-13.0615523]}},{"type":"Feature","properties":{"nome":"Aratuba","osm_id":3404468953,"osm_tipo":"node","tipo_lugar":"suburb"},"geometry":{"type":"Point","coordinates":[-38.737597,-13.0872737]}},{"type":"Feature","properties":{"nome":"Berlinque","osm_id":3404468955,"osm_tipo":"node","tipo_lugar":"suburb"},"geometry":{"type":"Point","coordinates":[-38.7575354,-13.1041946]}},{"type":"Feature","properties":{"nome":"Ponta da Cruz","osm_id":3404468958,"osm_tipo":"node","tipo_lugar":"suburb"},"geometry":{"type":"Point","coordinates":[-38.713231,-13.0593017]}},{"type":"Feature","properties":{"nome":"Condomínio Paraíso da Conceição","osm_id":4733180221,"osm_tipo":"node","tipo_lugar":"neighbourhood"},"geometry":{"type":"Point","coordinates":[-38.6542502,-13.024879]}},{"type":"Feature","properties":{"nome":"Rincão da Serra","osm_id":5312991178,"osm_tipo":"node","tipo_lugar":"suburb"},"geometry":{"type":"Point","coordinates":[-52.5290608,-29.7155881]}},{"type":"Feature","properties":{"nome":"Leopoldina","osm_id":5312991179,"osm_tipo":"node","tipo_lugar":"suburb"},"geometry":{"type":"Point","coordinates":[-52.513155,-29.7128554]}},{"type":"Feature","properties":{"nome":"Industrial","osm_id":5312991180,"osm_tipo":"node","tipo_lugar":"suburb"},"geometry":{"type":"Point","coordinates":[-52.5077876,-29.6981009]}},{"type":"Feature","properties":{"nome":"Boa Vista","osm_id":5312991181,"osm_tipo":"node","tipo_lugar":"suburb"},"geometry":{"type":"Point","coordinates":[-52.523744,-29.7115673]}},{"type":"Feature","properties":{"nome":"Araçá","osm_id":5312991182,"osm_tipo":"node","tipo_lugar":"suburb"},"geometry":{"type":"Point","coordinates":[-52.5100411,-29.7225469]}},{"type":"Feature","properties":{"nome":"Imigrantes","osm_id":5312991183,"osm_tipo":"node","tipo_lugar":"suburb"},"geometry":{"type":"Point","coordinates":[-52.502038,-29.7266241]}},{"type":"Feature","properties":{"nome":"Arco Íris","osm_id":5312991184,"osm_tipo":"node","tipo_lugar":"suburb"},"geometry":{"type":"Point","coordinates":[-52.520516,-29.7177092]}},{"type":"Feature","properties":{"nome":"Industrial 2","osm_id":5312991185,"osm_tipo":"node","tipo_lugar":"suburb"},"geometry":{"type":"Point","coordinates":[-52.5174383,-29.7214864]}},{"type":"Feature","properties":{"nome":"Maria Rosália Pauli","osm_id":5312991186,"osm_tipo":"node","tipo_lugar":"suburb"},"geometry":{"type":"Point","coordinates":[-52.4954012,-29.7049684]}},{"type":"Feature","properties":{"nome":"Bom Jesus","osm_id":5312991187,"osm_tipo":"node","tipo_lugar":"suburb"},"geometry":{"type":"Point","coordinates":[-52.4922732,-29.7237783]}},{"type":"Feature","properties":{"nome":"Conventos","osm_id":5312991188,"osm_tipo":"node","tipo_lugar":"suburb"},"geometry":{"type":"Point","coordinates":[-52.4907124,-29.714737]}},{"type":"Feature","properties":{"nome":"Cipriano de Oliveira","osm_id":5312991189,"osm_tipo":"node","tipo_lugar":"suburb"},"geometry":{"type":"Point","coordinates":[-52.5218533,-29.7057732]}},{"type":"Feature","properties":{"nome":"Centro","osm_id":5312991190,"osm_tipo":"node","tipo_lugar":"suburb"},"geometry":{"type":"Point","coordinates":[-52.5024307,-29.7174776]}},{"type":"Feature","properties":{"nome":"Esmeralda","osm_id":5312991191,"osm_tipo":"node","tipo_lugar":"suburb"},"geometry":{"type":"Point","coordinates":[-52.5056195,-29.7050825]}},{"type":"Feature","properties":{"nome":"Cobé","osm_id":5339648510,"osm_tipo":"node","tipo_lugar":"neighbourhood"},"geometry":{"type":"Point","coordinates":[-35.3791411,-6.0386176]}},{"type":"Feature","properties":{"nome":"Araçá II","osm_id":5550925729,"osm_tipo":"node","tipo_lugar":"neighbourhood"},"geometry":{"type":"Point","coordinates":[-35.4473759,-6.036438]}},{"type":"Feature","properties":{"nome":"Araçá I","osm_id":5550925730,"osm_tipo":"node","tipo_lugar":"neighbourhood"},"geometry":{"type":"Point","coordinates":[-35.4458261,-6.0430015]}},{"type":"Feature","properties":{"nome":"São Francisco","osm_id":6255029220,"osm_tipo":"node","tipo_lugar":"suburb"},"geometry":{"type":"Point","coordinates":[-52.5273943,-29.7118172]}},{"type":"Feature","properties":{"nome":"Centro","osm_id":6989956493,"osm_tipo":"node","tipo_lugar":"neighbourhood"},"geometry":{"type":"Point","coordinates":[-35.4293204,-6.0449674]}},{"type":"Feature","properties":{"nome":"Condomínio Coqueiral do Sul","osm_id":9212664483,"osm_tipo":"node","tipo_lugar":"neighbourhood"},"geometry":{"type":"Point","coordinates":[-38.6774055,-13.0382084]}},{"type":"Feature","properties":{"nome":"Loteamento dos Reis","osm_id":11573770473,"osm_tipo":"node","tipo_lugar":"neighbourhood"},"geometry":{"type":"Point","coordinates":[-52.4851042,-29.7263392]}},{"type":"Feature","properties":{"nome":"Gamboa","osm_id":13176822079,"osm_tipo":"node","tipo_lugar":"suburb"},"geometry":{"type":"Point","coordinates":[-38.6172553,-12.9772718]}},{"type":"Feature","properties":{"nome":"Penha","osm_id":13176822080,"osm_tipo":"node","tipo_lugar":"suburb"},"geometry":{"type":"Point","coordinates":[-38.6182172,-12.9833808]}},{"type":"Feature","properties":{"nome":"Barra do Gil","osm_id":13176822081,"osm_tipo":"node","tipo_lugar":"suburb"},"geometry":{"type":"Point","coordinates":[-38.6335112,-12.9923716]}},{"type":"Feature","properties":{"nome":"Tapioca","osm_id":13176822082,"osm_tipo":"node","tipo_lugar":"suburb"},"geometry":{"type":"Point","coordinates":[-38.6373306,-12.9988531]}},{"type":"Feature","properties":{"nome":"Mar Grande","osm_id":13176826687,"osm_tipo":"node","tipo_lugar":"suburb"},"geometry":{"type":"Point","coordinates":[-38.6114725,-12.9586407]}},{"type":"Feature","properties":{"nome":"Ilhotas","osm_id":13176826688,"osm_tipo":"node","tipo_lugar":"suburb"},"geometry":{"type":"Point","coordinates":[-38.6115476,-12.9677369]}},{"type":"Feature","properties":{"nome":"Pedrão","osm_id":13176915953,"osm_tipo":"node","tipo_lugar":"suburb"},"geometry":{"type":"Point","coordinates":[-38.708336,-13.0544471]}},{"type":"Feature","properties":{"nome":"Condomínio Acapulco","osm_id":13176915954,"osm_tipo":"node","tipo_lugar":"neighbourhood"},"geometry":{"type":"Point","coordinates":[-38.7188717,-13.0638325]}},{"type":"Feature","properties":{"nome":"Tairu","osm_id":13176915955,"osm_tipo":"node","tipo_lugar":"suburb"},"geometry":{"type":"Point","coordinates":[-38.7322613,-13.0718797]}},{"type":"Feature","properties":{"nome":"Barra do Pote","osm_id":13176928449,"osm_tipo":"node","tipo_lugar":"suburb"},"geometry":{"type":"Point","coordinates":[-38.6470615,-13.0137213]}},{"type":"Feature","properties":{"nome":"Conceição","osm_id":13176928450,"osm_tipo":"node","tipo_lugar":"suburb"},"geometry":{"type":"Point","coordinates":[-38.6516857,-13.0117247]}},{"type":"Feature","properties":{"nome":"Barra Grande","osm_id":13176928452,"osm_tipo":"node","tipo_lugar":"suburb"},"geometry":{"type":"Point","coordinates":[-38.6745831,-13.0368879]}},{"type":"Feature","properties":{"nome":"Cine","osm_id":13239008076,"osm_tipo":"node","tipo_lugar":"suburb"},"geometry":{"type":"Point","coordinates":[-38.6293964,-12.9893768]}},{"type":"Feature","properties":{"nome":"Vila Beira Rio","osm_id":253552143,"osm_tipo":"way","tipo_lugar":"neighbourhood"},"geometry":{"type":"Polygon","coordinates":[[[-38.7329121,-13.074326],[-38.7289415,-13.0665788],[-38.7384155,-13.0660761],[-38.7400969,-13.0679885],[-38.7329121,-13.074326]]]}}]}