{"type":"FeatureCollection","features":[{"type":"Feature","properties":{"nome":"Vila Paraíso","osm_id":6233866934,"osm_tipo":"node","tipo_lugar":"suburb"},"geometry":{"type":"Point","coordinates":[-49.7945993,-26.1111711]}},{"type":"Feature","properties":{"nome":"Vila Militar","osm_id":6233866936,"osm_tipo":"node","tipo_lugar":"suburb"},"geometry":{"type":"Point","coordinates":[-49.7911212,-26.1081247]}},{"type":"Feature","properties":{"nome":"Centro","osm_id":6233866938,"osm_tipo":"node","tipo_lugar":"suburb"},"geometry":{"type":"Point","coordinates":[-49.7999178,-26.1057871]}},{"type":"Feature","properties":{"nome":"Vila Paraná","osm_id":6235252185,"osm_tipo":"node","tipo_lugar":"suburb"},"geometry":{"type":"Point","coordinates":[-49.8041286,-26.1007136]}},{"type":"Feature","properties":{"nome":"Volta Grande","osm_id":6235252224,"osm_tipo":"node","tipo_lugar":"suburb"},"geometry":{"type":"Point","coordinates":[-49.7816434,-26.1008203]}},{"type":"Feature","properties":{"nome":"Campo do Gado","osm_id":6235252227,"osm_tipo":"node","tipo_lugar":"suburb"},"geometry":{"type":"Point","coordinates":[-49.7913075,-26.0938797]}},{"type":"Feature","properties":{"nome":"Estação Nova","osm_id":6237207776,"osm_tipo":"node","tipo_lugar":"suburb"},"geometry":{"type":"Point","coordinates":[-49.8022434,-26.0918931]}},{"type":"Feature","properties":{"nome":"Bom Jesus","osm_id":6237353659,"osm_tipo":"node","tipo_lugar":"suburb"},"geometry":{"type":"Point","coordinates":[-49.7818403,-26.0873704]}},{"type":"Feature","properties":{"nome":"Bairro Alto","osm_id":6237376574,"osm_tipo":"node","tipo_lugar":"suburb"},"geometry":{"type":"Point","coordinates":[-49.7667965,-26.0865278]}},{"type":"Feature","properties":{"nome":"Passo do Valo","osm_id":6237376575,"osm_tipo":"node","tipo_lugar":"suburb"},"geometry":{"type":"Point","coordinates":[-49.766539,-26.0978398]}},{"type":"Feature","properties":{"nome":"Passa Três","osm_id":6237378947,"osm_tipo":"node","tipo_lugar":"suburb"},"geometry":{"type":"Point","coordinates":[-49.7904835,-26.082091]}},{"type":"Feature","properties":{"nome":"Seminário","osm_id":6237388367,"osm_tipo":"node","tipo_lugar":"suburb"},"geometry":{"type":"Point","coordinates":[-49.8011975,-26.0821832]}},{"type":"Feature","properties":{"nome":"Sítio dos Rauen","osm_id":6237388520,"osm_tipo":"node","tipo_lugar":"suburb"},"geometry":{"type":"Point","coordinates":[-49.8151307,-26.0785376]}},{"type":"Feature","properties":{"nome":"Campina dos Andrades","osm_id":6237393621,"osm_tipo":"node","tipo_lugar":"suburb"},"geometry":{"type":"Point","coordinates":[-49.8244433,-26.065701]}},{"type":"Feature","properties":{"nome":"Tijuco Preto","osm_id":6237393787,"osm_tipo":"node","tipo_lugar":"suburb"},"geometry":{"type":"Point","coordinates":[-49.7571891,-26.0700695]}},{"type":"Feature","properties":{"nome":"Roseira","osm_id":6237393821,"osm_tipo":"node","tipo_lugar":"suburb"},"geometry":{"type":"Point","coordinates":[-49.7283761,-26.0466506]}},{"type":"Feature","properties":{"nome":"Maitaca","osm_id":9073840135,"osm_tipo":"node","tipo_lugar":"suburb"},"geometry":{"type":"Point","coordinates":[-49.8276395,-26.0523937]}}]}